     3.03           OBSERVATION DATA    M: Mixed            RINEX VERSION / TYPE
RTKCONV 2.4.3 b33   MKJ                 20191113 084949 UTC PGM / RUN BY / DATE 
Receiver                                           	        MARKER NAME               
XXXXXX                                                      MARKER TYPE         
                                         GSA                OBSERVER / AGENCY   
                                                            REC # / TYPE / VERS
                                                            ANT # / TYPE        
  2894067.9428  1321675.3317  5509485.4207                  APPROX POSITION XYZ 
        0.0000        0.0000        0.0000                  ANTENNA: DELTA H/E/N
G    4 C1C L1C D1C S1C                                      SYS / # / OBS TYPES 
E    4 C1C L1C D1C S1C                                      SYS / # / OBS TYPES 
S    4 C1C L1C D1C S1C                                      SYS / # / OBS TYPES 
  2019    11    12    13    35   28.9920000     GPS         TIME OF FIRST OBS   
  2019    11    12    14     3   22.9920000     GPS         TIME OF LAST OBS    
G                                                           SYS / PHASE SHIFT   
E                                                           SYS / PHASE SHIFT   
S                                                           SYS / PHASE SHIFT   
                                                            END OF HEADER       
> 2019 11 12 13 35 28.9920000  0 19                     
G 9  18227960.804    95788578.0151      -1680.155          52.000  
G 4  17967478.525    94419732.8951       -991.292          48.000  
G 7  19082074.328   100276969.6681       1730.251          50.000  
G 2  20971645.775   110206743.052       -1737.852          42.000  
G23  20029677.420   105256677.3201      -2903.768          44.000  
G16  20236582.104   106343963.685       -1060.603          38.000  
G 6  21884785.986   115005306.1751      -3769.802          37.000  
E19  21332203.236   112101492.177       -1471.978          42.000  
S23  37022286.565   194553426.4711       -257.650          38.000  
E 4  22171445.676   116511746.840        1540.944          44.000  
E21  22477354.109   118119307.301        1441.967          44.000  
E27  22920503.462   120448053.447       -1561.855          42.000  
E36  24068593.344                3         52.240          21.000  
E 1  25308306.789   132996021.298        3097.302          35.000  
S36  37191164.694   195440892.497        -257.704          38.000  
G26  21767563.581   114389290.200       -2776.818          33.000  
G 5  20704804.461   108804478.041        2838.262          44.000  
G30  21033307.969   110530794.0281       3257.395          43.000  
G29  22243273.304   116889180.3921      -1697.318          37.000  
> 2019 11 12 13 35 29.9920000  0 19                     
G 9  18228280.527    95790258.324       -1680.605          52.000  
G 4  17967667.319    94420724.357        -991.671          47.000  
G 7  19081744.990   100275239.548        1729.858          50.000  
G 2  20971976.526   110208480.991       -1738.413          42.000  
G23  20030230.426   105259581.213       -2904.208          44.000  
G16  20236783.924   106345024.692       -1061.577          38.000  
G 6  21885503.338   115009076.011       -3769.736          38.000  
E19  21332483.364   112102964.239       -1472.180          42.000  
S23  37022335.513   194553684.108        -257.350          38.000  
E 4  22171152.372   116510206.114        1540.621          44.000  
E21  22477079.748   118117865.591        1441.406          44.000  
E27  22920800.935   120449615.751       -1562.490          42.000  
E36  24068583.746                3         54.221          20.000  
E 1  25307717.321   132992924.041        3097.081          35.000  
S36  37191213.581   195441150.280        -257.718          38.000  
G26  21768092.079   114392066.553       -2776.541          33.000  
G 5  20704264.395   108801639.872        2838.092          44.000  
G30  21032688.085   110527536.676        3257.349          43.000  
G29  22243596.281   116890877.957       -1698.167          37.000  
> 2019 11 12 13 35 30.9920000  0 19                     
G 9  18228600.477    95791938.923       -1680.694          52.000  
G 4  17967855.833    94421716.135        -991.913          47.000  
G 7  19081415.835   100273509.689        1729.785          50.000  
G 2  20972307.086   110210219.246       -1738.316          42.000  
G23  20030783.397   105262485.197       -2904.091          44.000  
G16  20236986.015   106346086.237       -1061.781          38.000  
G 6  21886220.830   115012845.839       -3769.655          38.000  
E19  21332763.475   112104436.442       -1472.340          42.000  
S23  37022384.522   194553941.573        -257.126          38.000  
E 4  22170859.069   116508665.444        1540.577          44.000  
E21  22476805.509   118116424.107        1441.422          44.000  
E27  22921098.182   120451178.297       -1562.596          42.000  
E36  24068573.991                3         55.495          20.000  
E 1  25307127.355   132989826.636        3097.449          35.000  
S36  37191262.625   195441407.743        -257.275          38.000  
G26  21768620.410   114394843.265       -2776.725          33.000  
G 5  20703724.031   108798801.870        2837.746          43.000  
G30  21032068.445   110524279.345        3257.268          43.000  
G29  22243919.407   116892575.938       -1698.330          37.000  
> 2019 11 12 13 35 31.9920000  0 19                     
G 9  18228920.366    95793619.919       -1681.222          52.000  
G 4  17968044.549    94422708.331        -992.473          47.000  
G 7  19081086.602   100271780.192        1729.252          50.000  
G 2  20972638.029   110211957.925       -1738.579          42.000  
G23  20031336.272   105265389.373       -2904.304          44.000  
G16  20237188.237   106347148.430       -1062.585          38.000  
G 6  21886937.938   115016615.779       -3770.051          37.000  
E19  21333043.892   112105908.848       -1472.522          42.000  
S23  37022433.670   194554198.939        -257.164          38.000  
E 4  22170566.289   116507124.922        1540.401          44.000  
E21  22476531.418   118114982.965        1441.127          44.000  
E27  22921395.604   120452741.191       -1562.953          41.000  
E36  24068565.886                3         54.832          21.000  
E 1  25306538.123   132986729.212        3097.755          35.000  
S36  37191311.503   195441665.067        -257.362          38.000  
G26  21769148.759   114397620.351       -2777.346          33.000  
G 5  20703184.226   108795964.113        2837.620          44.000  
G30  21031448.299   110521022.130        3257.165          43.000  
G29  22244242.594   116894274.406       -1698.788          37.000  
> 2019 11 12 13 35 32.9920000  0 19                     
G 9  18229240.211    95795301.341       -1681.432          52.000  
G 4  17968233.674    94423700.972        -992.687          47.000  
G 7  19080757.953   100270051.096        1729.111          50.000  
G 2  20972969.208   110213697.113       -1739.543          42.000  
G23  20031888.772   105268293.797       -2904.362          44.000  
G16  20237390.494   106348211.307       -1062.889          38.000  
G 6  21887655.404   115020385.851       -3769.960          37.000  
E19  21333323.933   112107381.533       -1472.716          42.000  
S23  37022482.976   194554456.262        -256.956          38.000  
E 4  22170273.117   116505584.604        1540.468          44.000  
E21  22476257.197   118113542.220        1440.725          44.000  
E27  22921693.287   120454304.500       -1563.368          42.000  
E36  24068557.196                3         45.964          21.000  
E 1  25305948.759   132983631.827        3097.737          35.000  
S36  37191360.320   195441922.337        -257.120          38.000  
G26  21769677.291   114400397.851       -2776.947          33.000  
G 5  20702644.194   108793126.667        2837.332          44.000  
G30  21030828.598   110517765.071        3257.327          43.000  
G29  22244566.191   116895973.449       -1698.777          37.000  
> 2019 11 12 13 35 33.9920000  0 19                     
G 9  18229560.073    95796983.128       -1681.800          52.000  
G 4  17968422.538    94424694.004        -993.105          47.000  
G 7  19080428.729   100268322.342        1728.706          50.000  
G 2  20973300.212   110215436.648       -1739.637          42.000  
G23  20032441.386   105271198.378       -2904.500          44.000  
G16  20237592.672   106349274.804       -1063.905          38.000  
G 6  21888372.660   115024155.965       -3769.626          37.000  
E19  21333603.887   112108854.379       -1472.605          42.000  
S23  37022531.959   194554713.447        -256.469          38.000  
E 4  22169979.945   116504044.393        1540.361          44.000  
E21  22475983.080   118112101.763        1440.440          44.000  
E27  22921991.346   120455868.106       -1563.539          42.000  
E36  24068547.554                3         47.829          21.000  
E 1  25305358.976   132980534.387        3097.412          35.000  
S36  37191409.521   195442179.522        -257.409          38.000  
G26  21770205.754   114403175.748       -2778.562          33.000  
G 5  20702104.581   108790289.431        2837.328          43.000  
G30  21030209.211   110514508.101        3257.469          43.000  
G29  22244889.587   116897672.939       -1699.262          37.000  
> 2019 11 12 13 35 34.9920000  0 19                     
G 9  18229880.101    95798665.367       -1682.386          52.000  
G 4  17968611.646    94425687.512        -993.902          47.000  
G 7  19080099.845   100266594.013        1728.024          50.000  
G 2  20973631.514   110217176.681       -1740.334          42.000  
G23  20032994.392   105274103.215       -2904.898          45.000  
G16  20237794.920   106350338.990       -1064.479          38.000  
G 6  21889089.821   115027926.276       -3770.402          37.000  
E19  21333883.867   112110327.547       -1473.303          42.000  
S23  37022580.714   194554970.663        -257.332          38.000  
E 4  22169687.043   116502504.421        1539.790          44.000  
E21  22475708.580   118110661.720        1439.762          44.000  
E27  22922288.584   120457432.150       -1564.272          42.000  
E36  24068532.425                3         55.156          21.000  
E 1  25304769.656   132977436.968        3097.309          35.000  
S36  37191458.591   195442436.641        -257.197          38.000  
G26  21770734.399   114405954.019       -2778.620          33.000  
G 5  20701564.610   108787452.545        2836.605          44.000  
G30  21029589.554   110511251.330        3256.731          43.000  
G29  22245212.974   116899373.036       -1700.564          37.000  
> 2019 11 12 13 35 35.9920000  0 19                     
G 9  18230200.208    95800347.967       -1682.888          52.000  
G 4  17968800.902    94426681.406        -994.262          47.000  
G 7  19079771.170   100264866.018        1727.845          50.000  
G 2  20973963.033   110218917.128       -1740.754          42.000  
G23  20033547.302   105277008.234       -2905.123          45.000  
G16  20237997.840   106351403.807       -1065.103          38.000  
G 6  21889807.068   115031696.632       -3770.288          37.000  
E19  21334164.248   112111800.894       -1473.484          42.000  
S23  37022629.296   194555227.683        -257.021          38.000  
E 4  22169393.643   116500964.572        1539.765          44.000  
E21  22475435.108   118109221.983        1439.611          44.000  
E27  22922586.293   120458996.515       -1564.736          42.000  
E36  24068519.459                3         41.548          21.000  
E 1  25304180.284   132974339.499        3097.571          35.000  
S36  37191507.242   195442693.585        -256.761          38.000  
G26  21771263.158   114408732.687       -2778.684          33.000  
G 5  20701024.482   108784615.877        2836.398          44.000  
G30  21028970.010   110507994.648        3256.671          43.000  
G29  22245536.763   116901073.571       -1700.570          37.000  
> 2019 11 12 13 35 36.9920000  0 19                     
G 9  18230520.498    95802030.950       -1683.328          52.000  
G 4  17968990.220    94427675.694        -994.609          47.000  
G 7  19079442.355   100263138.375        1727.389          50.000  
G 2  20974294.316   110220657.962       -1741.086          42.000  
G23  20034100.299   105279913.439       -2905.363          45.000  
G16  20238200.742   106352469.246       -1065.593          38.000  
G 6  21890524.455   115035467.066       -3770.378          37.000  
E19  21334444.176   112113274.445       -1473.556          42.000  
S23  37022678.314   194555484.596        -256.687          38.000  
E 4  22169100.619   116499424.866        1539.530          44.000  
E21  22475161.323   118107782.577        1439.225          44.000  
E27  22922884.046   120460561.202       -1564.780          42.000  
E36  24068510.324                3         45.396          21.000  
E 1  25303590.859   132971242.006        3097.812          35.000  
S36  37191556.068   195442950.391        -256.432          38.000  
G26  21771791.830   114411511.739       -2779.493          33.000  
G 5  20700484.590   108781779.450        2836.259          44.000  
G30  21028350.475   110504738.068        3256.531          43.000  
G29  22245860.849   116902774.636       -1701.395          37.000  
> 2019 11 12 13 35 37.9920000  0 19                     
G 9  18230840.893    95803714.625       -1683.950          52.000  
G 4  17969179.415    94428670.700        -995.280          47.000  
G 7  19079113.506   100261411.395        1726.705          50.000  
G 2  20974625.801   110222399.541       -1742.057          42.000  
G23  20034653.253   105282819.135       -2905.958          45.000  
G16  20238403.898   106353535.654       -1066.947          38.000  
G 6  21891242.418   115039237.903       -3770.919          37.000  
E19  21334724.670   112114748.526       -1474.279          42.000  
S23  37022727.235   194555741.708        -256.694          38.000  
E 4  22168807.892   116497885.615        1539.107          44.000  
E21  22474887.852   118106343.807        1438.583          44.000  
E27  22923181.896   120462126.568       -1565.503          42.000  
E36  24068499.767                3         46.468          22.000  
E 1  25303001.016   132968144.799        3097.306          35.000  
S36  37191605.225   195443207.422        -257.229          37.000  
G26  21772320.668   114414291.424       -2779.824          33.000  
G 5  20699945.230   108778943.590        2835.579          44.000  
G30  21027731.010   110501481.920        3255.893          44.000  
G29  22246184.821   116904476.511       -1702.722          37.000  
> 2019 11 12 13 35 38.9920000  0 19                     
G 9  18231161.183    95805398.564       -1684.009          52.000  
G 4  17969368.881    94429665.996        -995.361          47.000  
G 7  19078785.049   100259684.657        1726.562          50.000  
G 2  20974957.215   110224141.394       -1741.922          42.000  
G23  20035206.381   105285724.894       -2905.640          45.000  
G16  20238607.079   106354602.551       -1067.020          38.000  
G 6  21891959.945   115043008.723       -3770.646          37.000  
E19  21335005.104   112116222.699       -1474.149          42.000  
S23  37022776.043   194555998.605        -256.479          37.000  
E 4  22168515.200   116496346.392        1539.292          44.000  
E21  22474614.128   118104905.252        1438.504          44.000  
E27  22923479.631   120463692.162       -1565.621          41.000  
E36  24068489.148                3         50.005          22.000  
E 1  25302411.408   132965047.437        3097.294          35.000  
S36  37191653.955   195443464.258        -256.723          37.000  
G26  21772849.610   114417071.398       -2779.629          33.000  
G 5  20699406.036   108776107.862        2835.823          44.000  
G30  21027111.554   110498225.756        3256.090          43.000  
G29  22246508.705   116906178.712       -1702.202          37.000  
> 2019 11 12 13 35 39.9920000  0 19                     
G 9  18231481.630    95807082.952       -1684.866          52.000  
G 4  17969558.303    94430661.764        -996.165          47.000  
G 7  19078456.654   100257958.343        1725.878          50.000  
G 2  20975288.926   110225883.771       -1743.071          42.000  
G23  20035759.623   105288630.922       -2906.355          45.000  
G16  20238810.566   106355670.165       -1068.280          38.000  
G 6  21892677.446   115046779.686       -3771.135          37.000  
E19  21335285.651   112117697.159       -1474.856          42.000  
S23  37022824.939   194556255.485        -257.108          38.000  
E 4  22168222.385   116494807.385        1538.774          44.000  
E21  22474340.587   118103467.093        1437.812          44.000  
E27  22923777.742   120465258.166       -1566.311          41.000  
E36  24068482.622                3         46.718          22.000  
E 1  25301822.088   132961950.101        3097.052          35.000  
S36  37191702.859   195443721.123        -257.157          38.000  
G26  21773378.605   114419851.811       -2780.713          33.000  
G 5  20698866.301   108773272.462        2834.992          44.000  
G30  21026492.114   110494969.767        3255.631          43.000  
G29  22246832.765   116907881.523       -1703.361          37.000  
> 2019 11 12 13 35 40.9920000  0 19                     
G 9  18231802.435    95808767.890       -1685.360          52.000  
G 4  17969747.882    94431658.112        -996.707          47.000  
G 7  19078128.371   100256232.565        1725.253          50.000  
G 2  20975620.193   110227626.689       -1743.158          42.000  
G23  20036312.882   105291537.311       -2906.711          45.000  
G16  20239013.975   106356738.584       -1068.985          38.000  
G 6  21893395.069   115050550.904       -3771.727          37.000  
E19  21335566.286   112119172.003       -1475.253          41.000  
S23  37022873.677   194556512.388        -257.374          38.000  
E 4  22167929.535   116493268.699        1538.633          44.000  
E21  22474066.811   118102029.444        1437.273          44.000  
E27  22924076.123   120466824.686       -1566.789          41.000  
E36  24068471.829                3         54.936          22.000  
E 1  25301232.567   132958852.910        3096.952          35.000  
S36  37191751.589   195443978.142        -257.314          37.000  
G26  21773907.922   114422632.785       -2781.475          33.000  
G 5  20698326.853   108770437.471        2834.621          44.000  
G30  21025872.536   110491714.080        3255.203          44.000  
G29  22247156.894   116909585.010       -1703.889          37.000  
> 2019 11 12 13 35 41.9920000  0 19                     
G 9  18232123.100    95810453.158       -1685.739          52.000  
G 4  17969937.618    94432654.800        -997.076          48.000  
G 7  19077799.854   100254507.075        1725.011          50.000  
G 2  20975951.921   110229370.011       -1744.100          41.000  
G23  20036865.888   105294443.834       -2906.854          45.000  
G16  20239217.627   106357807.572       -1069.420          39.000  
G 6  21894112.499   115054322.155       -3771.620          37.000  
E19  21335847.034   112120646.994       -1475.248          42.000  
S23  37022922.713   194556769.153        -256.963          38.000  
E 4  22167636.721   116491730.105        1538.297          44.000  
E21  22473793.026   118100592.060        1437.102          44.000  
E27  22924373.850   120468391.493       -1567.221          42.000  
E36  24068464.125                3         40.374          22.000  
E 1  25300643.404   132955755.610        3097.430          35.000  
S36  37191800.458   195444235.019        -257.204          37.000  
G26  21774437.266   114425414.114       -2782.494          33.000  
G 5  20697787.572   108767602.685        2834.325          44.000  
G30  21025253.419   110488458.416        3255.325          44.000  
G29  22247481.084   116911288.939       -1704.726          37.000  
> 2019 11 12 13 35 42.9920000  0 19                     
G 9  18232443.704    95812139.004       -1686.128          52.000  
G 4  17970127.573    94433652.097        -997.612          48.000  
G 7  19077471.737   100252782.134        1724.673          50.000  
G 2  20976283.414   110231113.898       -1744.342          41.000  
G23  20037418.964   105297350.722       -2907.142          45.000  
G16  20239421.193   106358877.389       -1070.156          39.000  
G 6  21894830.009   115058093.663       -3771.515          37.000  
E19  21336127.938   112122122.409       -1475.746          42.000  
S23  37022971.669   194557025.996        -256.577          38.000  
E 4  22167344.220   116490191.854        1538.185          44.000  
E21  22473519.511   118099155.205        1436.638          44.000  
E27  22924671.900   120469958.850       -1567.819          41.000  
E36  24068457.258                3         41.712          22.000  
E 1  25300054.145   132952658.542        3096.867          34.000  
S36  37191849.249   195444491.972        -257.319          37.000  
G26  21774966.627   114428195.888       -2782.193          33.000  
G 5  20697248.124   108764768.334        2834.060          44.000  
G30  21024633.815   110485203.083        3255.057          43.000  
G29  22247805.475   116912993.534       -1704.842          37.000  
> 2019 11 12 13 35 43.9920000  0 19                     
G 9  18232764.710    95813825.300       -1686.580          52.000  
G 4  17970317.658    94434649.865        -998.130          48.000  
G 7  19077143.717   100251057.618        1724.280          50.000  
G 2  20976615.309   110232858.279       -1744.566          41.000  
G23  20037972.424   105300257.869       -2907.224          45.000  
G16  20239624.898   106359947.920       -1070.972          39.000  
G 6  21895547.780   115061865.344       -3771.752          37.000  
E19  21336408.808   112123598.091       -1475.913          42.000  
S23  37023020.155   194557282.826        -256.776          38.000  
E 4  22167051.458   116488653.815        1537.915          44.000  
E21  22473245.944   118097718.750        1436.251          44.000  
E27  22924970.377   120471526.612       -1568.287          41.000  
E36  24068445.846                3         52.287          22.000  
E 1  25299465.026   132949561.466        3096.728          34.000  
S36  37191897.917   195444748.884        -256.771          37.000  
G26  21775496.215   114430978.203       -2782.603          33.000  
G 5  20696708.651   108761934.321        2833.650          44.000  
G30  21024014.184   110481947.919        3254.985          43.000  
G29  22248130.075   116914698.721       -1705.795          36.000  
> 2019 11 12 13 35 44.9920000  0 19                     
G 9  18233085.724    95815512.114       -1687.013          52.000  
G 4  17970507.612    94435648.171        -998.601          48.000  
G 7  19076815.548   100249333.592        1723.843          50.000  
G 2  20976947.055   110234603.213       -1745.419          41.000  
G23  20038525.788   105303165.332       -2907.487          45.000  
G16  20239828.760   106361019.204       -1071.620          39.000  
G 6  21896265.376   115065637.236       -3771.950          37.000  
E19  21336689.626   112125074.115       -1476.031          42.000  
S23  37023068.928   194557539.673        -256.635          38.000  
E 4  22166758.870   116487116.057        1537.815          44.000  
E21  22472972.804   118096282.761        1435.818          44.000  
E27  22925268.819   120473094.840       -1568.422          41.000  
E36  24068435.794                3         46.337          21.000  
E 1  25298875.427   132946464.485        3096.806          34.000  
S36  37191946.699   195445005.800        -256.906          37.000  
G26  21776026.012   114433760.976       -2782.918          33.000  
G 5  20696169.675   108759100.670        2833.487          44.000  
G30  21023394.762   110478693.009        3254.698          43.000  
G29  22248454.736   116916404.559       -1706.335          37.000  
> 2019 11 12 13 35 45.9920000  0 19                     
G 9  18233406.947    95817199.528       -1687.875          52.000  
G 4  17970697.863    94436647.092        -999.321          48.000  
G 7  19076487.510   100247610.147        1723.022          50.000  
G 2  20977279.316   110236348.782       -1746.277          41.000  
G23  20039079.100   105306073.197       -2908.108          45.000  
G16  20240032.771   106362091.342       -1072.524          38.000  
G 6  21896983.322   115069409.427       -3772.139          38.000  
E19  21336970.644   112126550.579       -1476.786          42.000  
S23  37023117.745   194557796.698        -257.181          38.000  
E 4  22166465.794   116485578.666        1537.097          44.000  
E21  22472699.202   118094847.307        1435.175          44.000  
E27  22925567.131   120474663.646       -1569.166          41.000  
E36  24068425.848                3         42.762          21.000  
E 1  25298286.063   132943367.703        3096.490          34.000  
S36  37191995.569   195445262.795        -257.369          37.000  
G26  21776555.713   114436544.353       -2783.810          34.000  
G 5  20695630.262   108756267.498        2832.732          44.000  
G30  21022775.105   110475438.399        3254.207          43.000  
G29  22248779.546   116918111.052       -1706.865          37.000  
> 2019 11 12 13 35 46.9920000  0 19                     
G 9  18233728.293    95818887.331       -1687.959          52.000  
G 4  17970888.105    94437646.432        -999.502          48.000  
G 7  19076159.577   100245887.050        1722.994          50.000  
G 2  20977611.071   110238094.762       -1746.311          41.000  
G23  20039632.455   105308981.259       -2908.052          45.000  
G16  20240237.200   106363164.137       -1073.018          39.000  
G 6  21897701.486   115073181.735       -3772.461          38.000  
E19  21337251.253   112128027.275       -1476.943          42.000  
S23  37023166.667   194558053.552        -257.002          38.000  
E 4  22166173.267   116484041.427        1537.306          44.000  
E21  22472426.054   118093412.218        1434.989          44.000  
E27  22925865.713   120476232.797       -1569.263          41.000  
E36  24068418.152                3         43.585          22.000  
E 1  25297696.752   132940270.872        3096.998          34.000  
S36  37192044.569   195445519.689        -257.526          37.000  
G26  21777085.284   114439328.137       -2784.059          33.000  
G 5  20695091.025   108753434.584        2832.741          44.000  
G30  21022155.570   110472183.946        3254.184          43.000  
G29  22249104.207   116919818.112       -1707.311          37.000  
> 2019 11 12 13 35 47.9920000  0 19                     
G 9  18234049.543    95820575.484       -1688.587          52.000  
G 4  17971078.234    94438646.150       -1000.167          48.000  
G 7  19075831.495   100244164.288        1722.346          50.000  
G 2  20977943.113   110239841.130       -1746.930          41.000  
G23  20040185.819   105311889.505       -2908.670          45.000  
G16  20240441.411   106364237.544       -1074.077          39.000  
G 6  21898419.527   115076954.080       -3773.129          37.000  
E19  21337532.637   112129504.127       -1477.082          42.000  
S23  37023215.693   194558310.261        -256.764          38.000  
E 4  22165880.827   116482504.323        1536.669          44.000  
E21  22472152.888   118091977.416        1434.272          44.000  
E27  22926164.574   120477802.281       -1570.059          41.000  
E36  24068410.614                3         42.250          22.000  
E 1  25297107.501   132937174.023        3096.558          34.000  
S36  37192093.072   195445776.389        -257.096          37.000  
G26  21777615.352   114442112.245       -2784.071          33.000  
G 5  20694552.101   108750601.877        2832.436          44.000  
G30  21021536.148   110468929.563        3254.077          43.000  
G29  22249428.982   116921525.630       -1707.832          37.000  
> 2019 11 12 13 35 48.9920000  0 19                     
G 9  18234371.063    95822264.045       -1688.462          52.000  
G 4  17971268.389    94439646.288       -1000.107          48.000  
G 7  19075503.763   100242441.905        1722.373          50.000  
G 2  20978275.269   110241587.926       -1746.889          41.000  
G23  20040739.313   105314797.950       -2908.438          45.000  
G16  20240645.413   106365311.603       -1074.257          38.000  
G 6  21899137.630   115080726.515       -3772.281          37.000  
E19  21337814.074   112130981.249       -1477.171          42.000  
S23  37023264.117   194558566.924        -256.451          37.000  
E 4  22165588.414   116480967.372        1537.130          44.000  
E21  22471879.662   118090542.969        1434.535          44.000  
E27  22926463.348   120479372.118       -1569.946          41.000  
E36  24068403.136                3         43.613          22.000  
E 1  25296518.094   132934077.176        3096.742          34.000  
S36  37192141.645   195446033.026        -256.423          37.000  
G26  21778145.210   114444896.753       -2784.558          34.000  
G 5  20694013.168   108747769.461        2832.391          44.000  
G30  21020916.988   110465675.308        3254.389          43.000  
G29  22249754.062   116923233.667       -1708.019          37.000  
> 2019 11 12 13 35 49.9920000  0 19                     
G 9  18234692.575    95823952.979       -1688.996          52.000  
G 4  17971458.605    94440652.3423      -1000.679          47.000  
G 7  19075175.891   100240719.858        1722.135          50.000  
G 2  20978607.591   110243335.163       -1747.281          41.000  
G23  20041292.703   105317706.566       -2908.595          44.000  
G16  20240849.982   106366386.281       -1074.910          39.000  
G 6  21899855.584   115084499.053       -3772.446          38.000  
E19  21338095.328   112132458.565       -1477.456          42.000  
S23  37023312.341   194558823.474        -256.729          37.000  
E 4  22165296.245   116479430.565        1536.932          44.000  
E21  22471606.923   118089108.845        1434.051          44.000  
E27  22926762.192   120480942.303       -1570.256          41.000  
E36  24068395.668                3         40.196          22.000  
E 1  25295928.739   132930980.261        3096.605          34.000  
S36  37192190.479   195446289.458        -257.002          37.000  
G26  21778675.208   114447681.644       -2785.198          33.000  
G 5  20693474.349   108744937.291        2832.104          44.000  
G30  21020297.863   110462421.162        3254.302          43.000  
G29  22250079.116   116924942.209       -1708.732          37.000  
> 2019 11 12 13 35 50.9920000  0 19                     
G 9  18235013.790    95825641.425       -1688.331          52.000  
G 4  17971648.856    94441651.4112       -999.871          48.000  
G 7  19074848.315   100238997.317        1722.679          50.000  
G 2  20978939.826   110245081.904       -1746.550          41.000  
G23  20041845.962   105320614.489       -2907.611          44.000  
G16  20241054.437   106367460.726       -1074.547          39.000  
G 6  21900573.015   115088270.784       -3771.315          37.000  
E19  21338376.233   112133935.225       -1476.723          42.000  
S23  37023360.635   194559079.031        -255.447          37.000  
E 4  22165004.050   116477893.040        1537.669          44.000  
E21  22471333.958   118087674.196        1434.703          44.000  
E27  22927060.800   120482511.945       -1569.453          41.000  
E36  24068388.417                3         46.908          21.000  
E 1  25295338.756   132927882.431        3098.216          34.000  
S36  37192238.703   195446544.796        -255.113          37.000  
G26  21779205.032   114450466.011       -2783.799          33.000  
G 5  20692935.451   108742104.490        2832.970          44.000  
G30  21019678.773   110459166.262        3255.139          43.000  
G29  22250404.161   116926650.356       -1708.072          37.000  
> 2019 11 12 13 35 51.9920000  0 19                     
G 9  18235335.101    95827329.931       -1689.081          52.000  
G 4  17971839.151    94442651.5893      -1000.655          47.000  
G 7  19074520.469   100237274.800        1722.114          50.000  
G 2  20979272.663   110246828.774       -1747.342          41.000  
G23  20042399.222   105323522.312       -2908.200          44.000  
G16  20241258.718   106368535.504       -1075.411          39.000  
G 6  21901290.856   115092042.317       -3771.932          37.000  
E19  21338657.033   112135411.760       -1476.868          42.000  
S23  37023408.937   194559334.171        -255.504          37.000  
E 4  22164711.296   116476355.343        1537.382          44.000  
E21  22471061.168   118086239.553        1434.444          44.000  
E27  22927359.451   120484081.629       -1570.043          41.000  
E36  24068380.215                3         47.205          21.000  
E 1  25294749.131   132924784.264        3098.127          33.000  
S36  37192287.424   195446799.726        -254.975          37.000  
G26  21779734.742   114453250.458       -2785.001          33.000  
G 5  20692396.554   108739271.636        2832.300          44.000  
G30  21019059.168   110455911.181        3254.734          43.000  
G29  22250729.241   116928358.715       -1708.838          36.000  
> 2019 11 12 13 35 52.9920000  0 19                     
G 9  18235656.568    95829019.119       -1689.705          52.000  
G 4  17972029.690    94443653.4513      -1001.457          47.000  
G 7  19074192.850   100235552.953        1721.365          50.000  
G 2  20979605.360   110248576.344       -1748.109          41.000  
G23  20042952.708   105326430.600       -2908.656          44.000  
G16  20241463.156   106369611.214       -1076.331          38.000  
G 6  21902008.330   115095814.203       -3772.417          37.000  
E19  21338937.999   112136888.828       -1477.493          42.000  
S23  37023457.221   194559589.523        -255.594          37.000  
E 4  22164418.866   116474818.090        1536.852          44.000  
E21  22470788.281   118084805.546        1433.468          44.000  
E27  22927658.260   120485651.966       -1570.876          41.000  
E36  24068371.892                3         45.922          21.000  
E 1  25294159.558   132921686.387        3097.485          34.000  
S36  37192336.110   195447054.886        -255.365          37.000  
G26  21780264.871   114456035.569       -2785.962          33.000  
G 5  20691857.115   108736439.323        2831.727          44.000  
G30  21018439.615   110452656.479        3254.382          43.000  
G29  22251054.766   116930067.857       -1709.574          37.000  
> 2019 11 12 13 35 53.9920000  0 19                     
G 9  18235978.385    95830709.240       -1690.768          52.000  
G 4  17972220.255    94444654.2572      -1002.402          48.000  
G 7  19073865.423   100233831.983        1720.367          50.000  
G 2  20979938.319   110250324.869       -1749.036          41.000  
G23  20043506.220   105329339.620       -2909.490          44.000  
G16  20241667.760   106370688.089       -1077.539          38.000  
G 6  21902726.180   115099586.715       -3772.954          37.000  
E19  21339219.567   112138366.640       -1478.447          42.000  
S23  37023505.454   194559845.280        -255.709          37.000  
E 4  22164126.478   116473281.520        1536.040          45.000  
E21  22470516.075   118083372.395        1432.619          44.000  
E27  22927957.069   120487223.161       -1571.817          41.000  
E36  24068365.234                3         45.665          21.000  
E 1  25293570.142   132918588.969        3097.199          33.000  
S36  37192384.848   195447310.492        -256.237          37.000  
G26  21780795.087   114458821.577       -2786.529          33.000  
G 5  20691318.410   108733607.789        2831.059          44.000  
G30  21017820.552   110449402.439        3253.340          43.000  
G29  22251380.274   116931778.044       -1711.229          36.000  
> 2019 11 12 13 35 54.9920000  0 19                     
G 9  18236299.975    95832401.249       -1693.088          52.000  
G 4  17972411.492    94445658.9922      -1004.858          47.000  
G 7  19073538.319   100232112.889        1718.042          50.000  
G 2  20980270.990   110252075.318       -1751.742          41.000  
G23  20044060.465   105332250.340       -2911.787          45.000  
G16  20241872.905   106371767.123       -1080.338          38.000  
G 6  21903444.614   115103360.847       -3774.761          37.000  
E19  21339500.865   112139846.177       -1480.629          42.000  
S23  37023554.550   194560102.489        -258.220          37.000  
E 4  22163834.283   116471746.621        1533.925          45.000  
E21  22470243.451   118081941.098        1430.254          44.000  
E27  22928256.332   120488796.237       -1574.338          41.000  
E36  24068360.479                3         39.971          22.000  
E 1  25292980.917   132915493.091        3095.065          33.000  
S36  37192434.075   195447567.548        -258.348          38.000  
G26  21781325.905   114461609.476       -2788.885          33.000  
G 5  20690780.306   108730778.042        2828.742          45.000  
G30  21017201.557   110446150.013        3251.567          43.000  
G29  22251705.939   116933490.232       -1713.520          36.000  
> 2019 11 12 13 35 55.9920000  0 19                     
G 9  18236622.386    95834094.775       -1694.070          52.000  
G 4  17972602.982    94446664.2562      -1005.782          47.000  
G 7  19073211.563   100230395.286        1717.010          50.000  
G 2  20980604.315   110253827.308       -1752.652          41.000  
G23  20044614.518   105335162.378       -2912.576          45.000  
G16  20242078.207   106372847.904       -1081.426          38.000  
G 6  21904163.022   115107136.193       -3775.930          37.000  
E19  21339783.122   112141327.061       -1481.425          42.000  
S23  37023603.681   194560360.702        -258.580          37.000  
E 4  22163542.760   116470212.990        1533.277          44.000  
E21  22469971.445   118080511.273        1429.328          44.000  
E27  22928555.943   120490370.784       -1575.312          41.000  
E36  24068357.268                3         25.801          22.000  
E 1  25292391.946   132912398.290        3094.681          33.000  
S36  37192483.416   195447825.728        -258.603          37.000  
G26  21781856.645   114464398.901       -2789.864          33.000  
G 5  20690242.141   108727949.666        2827.902          44.000  
G30  21016583.244   110442898.848        3250.867          43.000  
G29  22252032.022   116935204.073       -1714.425          36.000  
> 2019 11 12 13 35 56.9920000  0 19                     
G 9  18236944.796    95835788.982       -1694.165          52.000  
G 4  17972794.481    94447670.2392      -1005.994          48.000  
G 7  19072884.537   100228678.337        1716.985          50.000  
G 2  20980937.798   110255580.012       -1752.455          41.000  
G23  20045168.964   105338074.909       -2912.419          45.000  
G16  20242284.067   106373929.631       -1082.061          38.000  
G 6  21904881.735   115110911.867       -3774.954          37.000  
E19  21340065.135   112142808.461       -1481.223          41.000  
S23  37023653.205   194560619.096        -258.018          38.000  
E 4  22163250.556   116468679.813        1533.326          44.000  
E21  22469699.239   118079082.069        1429.102          44.000  
E27  22928855.633   120491945.965       -1575.121          41.000  
E36  24068353.107                3         36.778          23.000  
E 1  25291803.036   132909303.774        3094.673          33.000  
S36  37192532.591   195448084.099        -257.925          37.000  
G26  21782387.629   114467188.978       -2790.285          34.000  
G 5  20689704.029   108725121.847        2827.867          44.000  
G30  21015964.686   110439648.085        3250.952          43.000  
G29  22252357.940   116936918.682       -1714.226          36.000  
> 2019 11 12 13 35 57.9920000  0 19                     
G 9  18237267.154    95837483.356       -1694.637          52.000  
G 4  17972986.040    94448676.4022      -1006.524          48.000  
G 7  19072557.642   100226961.536        1716.632          50.000  
G 2  20981271.166   110257332.908       -1752.523          41.000  
G23  20045723.078   105340987.407       -2912.576          45.000  
G16  20242490.023   106375011.775       -1082.438          38.000  
G 6  21905600.109   115114687.488       -3775.780          37.000  
E19  21340346.982   112144289.867       -1481.567          41.000  
S23  37023702.746   194560877.182        -257.830          37.000  
E 4  22162958.640   116467146.571        1533.258          44.000  
E21  22469427.478   118077652.988        1428.918          44.000  
E27  22929155.454   120493521.268       -1575.353          41.000  
E36  24068346.999                3         30.458          23.000  
E 1  25291213.856   132906209.003        3095.065          33.000  
S36  37192581.582   195448342.115        -257.713          37.000  
G26  21782918.560   114469979.231       -2790.074          33.000  
G 5  20689165.681   108722294.051        2827.871          44.000  
G30  21015346.233   110436397.234        3250.613          43.000  
G29  22252684.320   116938633.613       -1715.024          36.000  
> 2019 11 12 13 35 58.9920000  0 19                     
G 9  18237589.704    95839177.872       -1694.845          52.000  
G 4  17973177.469    94449682.7412      -1006.768          48.000  
G 7  19072230.974   100225244.854        1716.272          50.000  
G 2  20981605.007   110259086.014       -1753.299          41.000  
G23  20046277.201   105343899.874       -2912.865          45.000  
G16  20242696.101   106376094.312       -1083.242          38.000  
G 6  21906318.403   115118462.919       -3775.603          38.000  
E19  21340628.803   112145771.243       -1481.776          41.000  
S23  37023751.851   194561134.955        -258.073          38.000  
E 4  22162667.195   116465613.251        1533.050          45.000  
E21  22469155.648   118076223.992        1428.738          44.000  
E27  22929455.188   120495096.710       -1575.789          41.000  
E36  24068338.850                3         37.294          25.000  
E 1  25290625.025   132903113.955        3094.949          33.000  
S36  37192630.591   195448599.754        -257.874          38.000  
G26  21783449.509   114472769.627       -2791.099          33.000  
G 5  20688627.656   108719466.285        2827.456          44.000  
G30  21014727.937   110433146.274        3250.577          44.000  
G29  22253010.543   116940348.804       -1716.089          35.000  
> 2019 11 12 13 35 59.9920000  0 19                     
G 9  18237912.402    95840872.806       -1694.957          52.000  
G 4  17973369.195    94450689.5022      -1006.779          48.000  
G 7  19071904.175   100223528.548        1716.354          50.000  
G 2  20981938.576   110260839.552       -1753.512          41.000  
G23  20046831.368   105346812.529       -2912.588          45.000  
G16  20242902.398   106377177.498       -1083.524          38.000  
G 6  21907036.960   115122238.467       -3775.573          38.000  
E19  21340910.904   112147252.858       -1481.626          42.000  
S23  37023800.991   194561392.609        -257.355          37.000  
E 4  22162375.620   116464080.088        1533.256          44.000  
E21  22468884.052   118074795.371        1428.595          44.000  
E27  22929754.965   120496672.523       -1575.915          41.000  
E36  24068330.980                3         37.521          25.000  
E 1  25290035.966   132900018.932        3095.272          33.000  
S36  37192679.748   195448857.158        -257.330          38.000  
G26  21783980.790   114475560.378       -2790.441          33.000  
G 5  20688089.264   108716638.793        2827.411          44.000  
G30  21014109.396   110429895.419        3250.954          44.000  
G29  22253336.836   116942064.502       -1715.786          35.000  
> 2019 11 12 13 36  0.9920000  0 19                     
G 9  18238235.048    95842567.892       -1695.198          52.000  
G 4  17973560.973    94451696.4592      -1007.002          48.000  
G 7  19071577.691   100221812.396        1716.009          50.000  
G 2  20982272.224   110262593.273       -1753.932          41.000  
G23  20047385.325   105349725.172       -2912.694          44.000  
G16  20243108.642   106378261.104       -1083.870          38.000  
G 6  21907755.394   115126013.893       -3775.564          38.000  
E19  21341192.742   112148734.480       -1481.814          41.000  
S23  37023849.956   194561649.970        -257.451          37.000  
E 4  22162083.634   116462546.872        1533.285          45.000  
E21  22468612.030   118073366.859        1428.328          44.000  
E27  22930054.899   120498248.449       -1576.029          41.000  
E36  24068327.071                3         35.902          26.000  
E 1  25289446.830   132896923.656        3095.471          33.000  
S36  37192728.827   195449114.316        -256.680          37.000  
G26  21784511.861   114478351.356       -2791.782          33.000  
G 5  20687551.100   108713811.346        2827.365          44.000  
G30  21013490.934   110426644.489        3250.661          44.000  
G29  22253663.277   116943780.500       -1716.419          35.000  
> 2019 11 12 13 36  1.9920000  0 19                     
G 9  18238557.999    95844263.299       -1695.668          52.000  
G 4  17973752.428    94452703.7492      -1007.691          48.000  
G 7  19071251.258   100220096.514        1715.591          50.000  
G 2  20982605.907   110264347.364       -1754.761          41.000  
G23  20047939.701   105352637.923       -2913.018          44.000  
G16  20243315.026   106379345.248       -1084.364          38.000  
G 6  21908474.098   115129789.289       -3775.128          38.000  
E19  21341475.034   112150216.235       -1482.069          42.000  
S23  37023898.764   194561907.109        -257.190          37.000  
E 4  22161791.709   116461013.728        1533.064          45.000  
E21  22468339.963   118071938.600        1428.084          44.000  
E27  22930354.982   120499824.640       -1576.288          40.000  
E36  24068317.081                3         36.254          26.000  
E 1  25288857.754   132893828.245        3095.538          33.000  
S36  37192777.731   195449371.373        -257.441          37.000  
G26  21785043.081   114481142.556       -2791.521          33.000  
G 5  20687012.900   108710984.070        2826.922          44.000  
G30  21012872.717   110423393.579        3250.694          44.000  
G29  22253989.422   116945496.900       -1717.014          35.000  
> 2019 11 12 13 36  2.9920000  0 19                     
G 9  18238880.514    95845959.284       -1696.207          52.000  
G 4  17973944.415    94453711.6452      -1008.153          48.000  
G 7  19070925.079   100218381.202        1715.144          50.000  
G 2  20982940.140   110266102.048       -1755.055          41.000  
G23  20048494.077   105355551.067       -2913.301          45.000  
G16  20243521.628   106380430.268       -1085.554          39.000  
G 6  21909192.847   115133565.012       -3775.674          38.000  
E19  21341757.213   112151698.397       -1482.223          41.000  
S23  37023947.328   194562164.394        -257.593          37.000  
E 4  22161500.282   116459480.922        1532.850          45.000  
E21  22468068.211   118070510.892        1427.495          44.000  
E27  22930654.777   120501401.394       -1577.002          40.000  
E36  24068310.144                3         35.900          26.000  
E 1  25288268.408   132890733.052        3095.060          33.000  
S36  37192826.365   195449628.566        -257.240          37.000  
G26  21785574.597   114483934.381       -2792.266          33.000  
G 5  20686475.102   108708157.246        2826.574          44.000  
G30  21012254.194   110420143.003        3250.153          44.000  
G29  22254315.924   116947214.011       -1717.483          35.000  
> 2019 11 12 13 36  3.9920000  0 19                     
G 9  18239203.238    95847655.627       -1696.473          52.000  
G 4  17974136.455    94454719.9172      -1008.412          48.000  
G 7  19070598.847   100216666.218        1714.907          50.000  
G 2  20983274.478   110267857.123       -1755.645          41.000  
G23  20049048.453   105358464.368       -2913.315          44.000  
G16  20243728.264   106381515.864       -1085.928          38.000  
G 6  21909911.447   115137340.786       -3775.748          38.000  
E19  21342039.051   112153180.759       -1482.282          42.000  
S23  37023996.407   194562421.461        -256.826          38.000  
E 4  22161208.444   116457948.255        1532.671          45.000  
E21  22467796.503   118069083.468        1427.330          44.000  
E27  22930954.912   120502978.456       -1577.153          40.000  
E36  24068304.386                3         34.929          27.000  
E 1  25287679.271   132887637.778        3095.494          34.000  
S36  37192875.775   195449885.706        -256.889          37.000  
G26  21786105.869   114486726.529       -2792.358          33.000  
G 5  20685937.295   108705330.648        2826.556          44.000  
G30  21011635.557   110416892.488        3250.519          44.000  
G29  22254642.679   116948931.559       -1717.275          35.000  
> 2019 11 12 13 36  4.9920000  0 19                     
G 9  18239525.779    95849352.483       -1697.106          52.000  
G 4  17974328.259    94455728.7312      -1009.150          48.000  
G 7  19070272.667   100214951.732        1714.171          50.000  
G 2  20983608.780   110269612.745       -1756.099          41.000  
G23  20049603.082   105361378.004       -2913.947          44.000  
G16  20243934.954   106382602.233       -1086.666          38.000  
G 6  21910630.177   115141116.763       -3776.178          38.000  
E19  21342321.317   112154663.453       -1482.811          41.000  
S23  37024045.381   194562678.643        -257.269          37.000  
E 4  22160916.511   116456415.865        1532.063          45.000  
E21  22467525.012   118067656.524        1426.734          44.000  
E27  22931254.960   120504556.013       -1577.899          40.000  
E36  24068294.971                3         35.324          27.000  
E 1  25287090.282   132884542.633        3094.888          33.000  
S36  37192924.749   195450142.902        -257.292          37.000  
G26  21786637.010   114489519.188       -2793.080          33.000  
G 5  20685399.540   108702504.453        2825.935          44.000  
G30  21011017.261   110413642.238        3250.327          44.000  
G29  22254969.504   116950649.783       -1718.252          35.000  
> 2019 11 12 13 36  5.9920000  0 19                     
G 9  18239848.870    95851049.716       -1697.112          52.000  
G 4  17974520.237    94456737.9392      -1009.080          48.000  
G 7  19069946.968   100213237.591        1714.233          50.000  
G 2  20983943.423   110271368.761       -1755.695          41.000  
G23  20050157.754   105364291.805       -2913.513          45.000  
G16  20244141.765   106383689.257       -1087.139          39.000  
G 6  21911348.743   115144892.842       -3776.010          38.000  
E19  21342603.295   112156146.380       -1482.790          41.000  
S23  37024094.373   194562935.704        -256.945          38.000  
E 4  22160624.900   116454883.605        1532.597          45.000  
E21  22467253.408   118066229.909        1426.668          44.000  
E27  22931555.243   120506133.899       -1578.018          40.000  
E36  24068286.900                1         34.570          27.000  
E 1  25286501.346   132881447.440        3095.469          33.000  
S36  37192973.802   195450399.882        -256.747          37.000  
G26  21787168.159   114492312.217       -2792.889          33.000  
G 5  20684861.820   108699678.503        2826.217          44.000  
G30  21010398.965   110410392.111        3250.238          44.000  
G29  22255296.469   116952368.513       -1718.873          35.000  
> 2019 11 12 13 36  6.9920000  0 19                     
G 9  18240171.664    95852747.302       -1697.576          52.000  
G 4  17974712.207    94457747.0311      -1009.636          48.000  
G 7  19069620.980   100211523.780        1713.818          50.000  
G 2  20984277.734   110273125.173       -1756.206          41.000  
G23  20050712.444   105367205.773       -2913.913          45.000  
G16  20244348.689   106384776.846       -1087.575          39.000  
G 6  21912067.438   115148668.930       -3775.885          38.000  
E19  21342885.343   112157629.479       -1483.297          41.000  
S23  37024143.373   194563192.605        -256.901          38.000  
E 4  22160333.255   116453351.480        1532.281          45.000  
E21  22466981.769   118064803.582        1426.377          44.000  
E27  22931855.832   120507712.082       -1578.029          40.000  
E36  24068283.550   126479693.544          34.008          27.000  
E 1  25285912.323   132878352.185        3095.021          33.000  
S36  37193022.732   195450656.782        -256.582          38.000  
G26  21787699.684   114495105.594       -2793.519          33.000  
G 5  20684324.031   108696852.769        2825.740          44.000  
G30  21009780.434   110407142.052        3250.092          44.000  
G29  22255623.469   116954087.685       -1719.634          35.000  
> 2019 11 12 13 36  7.9920000  0 19                     
G 9  18240494.772    95854445.458       -1698.605          52.000  
G 4  17974904.395    94458757.206       -1010.617          48.000  
G 7  19069295.211   100209810.513        1712.847          50.000  
G 2  20984612.403   110274882.188       -1757.200          41.000  
G23  20051267.056   105370120.114       -2914.674          45.000  
G16  20244555.640   106385865.306       -1089.125          39.000  
G 6  21912786.030   115152445.328       -3776.869          38.000  
E19  21343167.618   112159112.960       -1483.804          41.000  
S23  37024192.347   194563449.546        -256.997          38.000  
E 4  22160041.775   116451819.685        1531.434          45.000  
E21  22466710.645   118063377.772        1425.620          44.000  
E27  22932155.958   120509290.818       -1579.037          40.000  
E36  24068278.105   126479660.061          32.835          27.000  
E 1  25285323.378   132875257.077        3094.801          33.000  
S36  37193071.645   195450913.791        -257.295          37.000  
G26  21788231.427   114497899.555       -2795.073          33.000  
G 5  20683786.180   108694027.472        2824.996          44.000  
G30  21009161.815   110403892.295        3249.599          44.000  
G29  22255951.036   116955807.505       -1719.946          35.000  
> 2019 11 12 13 36  8.9920000  0 19                     
G 9  18240817.846    95856144.004       -1698.634          52.000  
G 4  17975096.985    94459767.805       -1010.808          48.000  
G 7  19068969.136   100208097.604        1712.854          50.000  
G 2  20984946.819   110276639.639       -1757.591          41.000  
G23  20051821.702   105373034.645       -2914.633          45.000  
G16  20244762.739   106386954.373       -1089.135          39.000  
G 6  21913504.638   115156221.761       -3776.156          38.000  
E19  21343449.683   112160596.687       -1483.943          41.000  
S23  37024241.408   194563706.406        -256.526          38.000  
E 4  22159750.618   116450288.047        1531.700          45.000  
E21  22466439.748   118061952.322        1425.348          44.000  
E27  22932456.198   120510869.908       -1579.058          40.000  
E36  24068272.609   126479626.976          32.894          27.000  
E 1  25284734.137   132872161.958        3094.978          33.000  
S36  37193120.462   195451170.645        -256.500          37.000  
G26  21788763.022   114500693.849       -2794.775          32.000  
G 5  20683248.652   108691202.437        2825.071          44.000  
G30  21008543.484   110400642.651        3249.811          44.000  
G29  22256278.559   116957527.880       -1720.399          35.000  
> 2019 11 12 13 36  9.9920000  0 19                     
G 9  18241141.250    95857843.024       -1699.294          52.000  
G 4  17975289.356    94460778.883       -1011.199          48.000  
G 7  19068643.157   100206385.152        1712.328          50.000  
G 2  20985281.279   110278397.558       -1758.072          41.000  
G23  20052376.192   105375949.449       -2914.787          45.000  
G16  20244970.537   106388044.160       -1089.848          39.000  
G 6  21914223.308   115159998.413       -3776.308          38.000  
E19  21343732.115   112162080.698       -1484.178          41.000  
S23  37024290.190   194563963.260        -256.802          38.000  
E 4  22159459.147   116448756.642        1531.375          45.000  
E21  22466168.580   118060527.275        1425.000          44.000  
E27  22932756.952   120512449.418       -1579.571          40.000  
E36  24068267.984   126479594.444          32.082          28.000  
E 1  25284145.288   132869066.894        3094.991          33.000  
S36  37193169.079   195451427.505        -256.807          37.000  
G26  21789294.748   114503488.601       -2795.388          33.000  
G 5  20682710.976   108688377.752        2824.450          44.000  
G30  21007925.327   110397393.219        3249.370          44.000  
G29  22256606.117   116959248.863       -1721.352          35.000  
> 2019 11 12 13 36 10.9920000  0 19                     
G 9  18241464.812    95859542.613       -1699.694          52.000  
G 4  17975481.788    94461790.575       -1011.989          48.000  
G 7  19068317.318   100204673.252        1711.719          50.000  
G 2  20985615.660   110280156.138       -1759.290          41.000  
G23  20052930.716   105378864.648       -2915.360          45.000  
G16  20245177.985   106389134.815       -1090.941          39.000  
G 6  21914941.934   115163775.349       -3777.090          38.000  
E19  21344014.582   112163565.118       -1484.374          41.000  
S23  37024339.007   194564220.193        -256.934          38.000  
E 4  22159168.191   116447225.585        1530.802          44.000  
E21  22465897.692   118059102.766        1424.212          44.000  
E27  22933057.454   120514029.485       -1580.261          40.000  
E36  24068263.918   126479562.503          31.207          28.000  
E 1  25283556.247   132865972.004        3094.679          33.000  
S36  37193218.079   195451684.452        -256.978          37.000  
G26  21789826.683   114506283.943       -2796.090          33.000  
G 5  20682173.536   108685553.496        2824.220          44.000  
G30  21007307.485   110394144.097        3249.079          44.000  
G29  22256933.963   116960970.491       -1721.857          35.000  
> 2019 11 12 13 36 11.9920000  0 19                     
G 9  18241788.200    95861242.515       -1699.914          52.000  
G 4  17975674.020    94462802.586       -1012.116          48.000  
G 7  19067991.531   100202961.630        1711.592          50.000  
G 2  20985950.277   110281914.989       -1758.770          41.000  
G23  20053485.101   105381779.950       -2915.315          44.000  
G16  20245385.651   106390226.006       -1091.490          39.000  
G 6  21915660.927   115167552.261       -3776.466          38.000  
E19  21344297.101   112165049.688       -1484.645          41.000  
S23  37024388.164   194564476.936        -256.553          38.000  
E 4  22158876.668   116445694.588        1531.153          45.000  
E21  22465626.725   118057678.510        1424.301          44.000  
E27  22933358.199   120515609.805       -1580.439          40.000  
E36  24068256.773   126479530.875          31.183          28.000  
E 1  25282966.770   132862876.993        3095.174          33.000  
S36  37193267.070   195451941.283        -256.532          37.000  
G26  21790358.661   114509079.590       -2796.119          32.000  
G 5  20681636.043   108682729.439        2823.992          44.000  
G30  21006689.014   110390895.020        3248.917          44.000  
G29  22257262.044   116962692.545       -1721.828          36.000  
> 2019 11 12 13 36 12.9920000  0 19                     
G 9  18242111.692    95862942.799       -1700.599          52.000  
G 4  17975866.644    94463815.016       -1012.890          48.000  
G 7  19067665.893   100201250.375        1710.937          50.000  
G 2  20986284.850   110283674.324       -1759.885          41.000  
G23  20054040.070   105384695.449       -2915.876          44.000  
G16  20245593.440   106391317.837       -1092.303          39.000  
G 6  21916379.762   115171329.288       -3777.119          38.000  
E19  21344579.759   112166534.465       -1485.096          41.000  
S23  37024437.295   194564733.572        -256.340          38.000  
E 4  22158585.720   116444163.771        1530.394          45.000  
E21  22465356.177   118056254.590        1423.604          44.000  
E27  22933659.347   120517190.489       -1581.130          40.000  
E36  24068250.997   126479499.652          31.245          29.000  
E 1  25282377.476   132859781.992        3094.781          33.000  
S36  37193315.878   195452198.052        -257.191          37.000  
G26  21790890.509   114511875.572       -2796.356          32.000  
G 5  20681098.655   108679905.633        2823.404          44.000  
G30  21006070.500   110387646.047        3248.511          43.000  
G29  22257589.829   116964415.128       -1722.879          36.000  
> 2019 11 12 13 36 13.9920000  0 19                     
G 9  18242435.489    95864643.579       -1700.824          52.000  
G 4  17976059.434    94464827.961       -1012.957          48.000  
G 7  19067340.141   100199539.604        1710.815          50.000  
G 2  20986619.239   110285434.144       -1759.709          41.000  
G23  20054594.716   105387611.236       -2915.599          44.000  
G16  20245801.429   106392410.415       -1092.711          39.000  
G 6  21917098.781   115175106.507       -3776.856          38.000  
E19  21344862.357   112168019.584       -1485.111          41.000  
S23  37024485.999   194564990.231        -256.434          38.000  
E 4  22158294.171   116442633.199        1530.713          45.000  
E21  22465085.297   118054831.116        1423.592          44.000  
E27  22933959.787   120518771.626       -1581.172          40.000  
E36  24068244.156   126479469.043          30.390          29.000  
E 1  25281788.453   132856687.053        3094.841          33.000  
S36  37193364.809   195452454.772        -256.647          37.000  
G26  21791422.383   114514672.083       -2796.512          32.000  
G 5  20680561.476   108677082.213        2823.394          44.000  
G30  21005451.855   110384397.313        3248.723          43.000  
G29  22257917.579   116966138.287       -1722.903          35.000  
> 2019 11 12 13 36 14.9920000  0 19                     
G 9  18242759.086    95866344.763       -1701.305          52.000  
G 4  17976251.927    94465841.340       -1013.487          48.000  
G 7  19067014.528   100197829.240        1710.214          50.000  
G 2  20986953.856   110287194.424       -1760.487          41.000  
G23  20055149.476   105390527.254       -2916.057          44.000  
G16  20246009.540   106393503.665       -1093.365          39.000  
G 6  21917817.634   115178883.831       -3777.030          38.000  
E19  21345145.129   112169504.927       -1485.350          41.000  
S23  37024534.816   194565246.838        -256.482          38.000  
E 4  22158002.822   116441102.813        1530.283          45.000  
E21  22464814.243   118053408.018        1422.888          44.000  
E27  22934260.498   120520353.130       -1581.669          40.000  
E36  24068238.843   126479438.850          30.084          29.000  
E 1  25281199.377   132853592.112        3095.220          33.000  
S36  37193413.949   195452711.488        -256.735          37.000  
G26  21791954.754   114517468.970       -2796.256          32.000  
G 5  20680024.367   108674259.057        2823.167          44.000  
G30  21004833.977   110381148.727        3248.572          43.000  
G29  22258245.434   116967862.006       -1723.911          36.000  
> 2019 11 12 13 36 15.9920000  0 19                     
G 9  18243083.172    95868046.462       -1702.078          52.000  
G 4  17976444.935    94466855.251       -1014.225          48.000  
G 7  19066689.230   100196119.346        1709.668          50.000  
G 2  20987288.935   110288955.229       -1761.129          41.000  
G23  20055704.620   105393443.581       -2916.487          44.000  
G16  20246217.800   106394597.682       -1094.407          39.000  
G 6  21918536.025   115182661.382       -3777.756          38.000  
E19  21345427.779   112170990.624       -1485.981          41.000  
S23  37024583.685   194565503.426        -257.091          38.000  
E 4  22157711.717   116439572.699        1529.979          45.000  
E21  22464543.634   118051985.362        1422.543          44.000  
E27  22934561.183   120521935.120       -1582.462          40.000  
E36  24068231.426   126479409.199          29.399          30.000  
E 1  25280610.188   132850497.298        3094.799          33.000  
S36  37193463.167   195452968.164        -256.494          37.000  
G26  21792487.152   114520266.413       -2797.997          32.000  
G 5  20679487.214   108671436.296        2822.383          44.000  
G30  21004215.760   110377900.373        3248.105          43.000  
G29  22258573.568   116969586.354       -1725.160          36.000  
> 2019 11 12 13 36 16.9920000  0 19                     
G 9  18243407.152    95869748.693       -1702.295          52.000  
G 4  17976638.022    94467869.724       -1014.651          48.000  
G 7  19066364.202   100194409.973        1709.160          50.000  
G 2  20987624.136   110290716.613       -1761.424          41.000  
G23  20056259.877   105396360.253       -2916.662          44.000  
G16  20246426.260   106395692.492       -1095.264          39.000  
G 6  21919254.878   115186439.175       -3778.083          38.000  
E19  21345710.438   112172476.687       -1486.183          41.000  
S23  37024633.104   194565760.086        -256.610          38.000  
E 4  22157420.587   116438042.883        1529.792          45.000  
E21  22464272.859   118050563.201        1422.175          44.000  
E27  22934862.225   120523517.577       -1582.402          40.000  
E36  24068222.492   126479380.172          28.697          30.000  
E 1  25280020.920   132847402.575        3094.837          33.000  
S36  37193512.159   195453224.933        -256.720          38.000  
G26  21793019.488   114523064.322       -2798.238          32.000  
G 5  20678950.323   108668613.939        2822.250          44.000  
G30  21003597.324   110374652.300        3248.225          43.000  
G29  22258902.129   116971311.308       -1725.320          36.000  
> 2019 11 12 13 36 17.9920000  0 19                     
G 9  18243731.090    95871451.297       -1702.666          52.000  
G 4  17976831.266    94468884.581       -1014.995          48.000  
G 7  19066038.957   100192700.934        1708.933          50.000  
G 2  20987959.687   110292478.403       -1761.962          41.000  
G23  20056814.908   105399277.088       -2916.915          44.000  
G16  20246634.965   106396787.903       -1095.517          39.000  
G 6  21919973.835   115190216.968       -3777.429          38.000  
E19  21345993.131   112173962.941       -1486.373          41.000  
S23  37024681.904   194566016.599        -256.267          38.000  
E 4  22157129.404   116436513.205        1529.701          45.000  
E21  22464002.502   118049141.367        1421.722          44.000  
E27  22935163.721   120525100.387       -1582.679          40.000  
E36  24068219.534   126479351.465          29.020          29.000  
E 1  25279432.324   132844307.826        3094.894          33.000  
S36  37193561.010   195453481.541        -256.316          38.000  
G26  21793551.850   114525862.607       -2799.063          32.000  
G 5  20678413.276   108665791.836        2822.079          44.000  
G30  21002978.897   110371404.325        3247.975          43.000  
G29  22259230.839   116973036.790       -1725.824          36.000  
> 2019 11 12 13 36 18.9920000  0 19                     
G 9  18244055.105    95873154.244       -1702.624          52.000  
G 4  17977024.466    94469899.804       -1014.997          48.000  
G 7  19065713.632   100190992.203        1709.113          50.000  
G 2  20988294.879   110294240.536       -1761.878          41.000  
G23  20057370.025   105402194.071       -2916.643          44.000  
G16  20246843.495   106397883.922       -1095.851          39.000  
G 6  21920692.898   115193994.860       -3777.365          38.000  
E19  21346276.366   112175449.372       -1486.041          41.000  
S23  37024730.808   194566272.984        -255.704          38.000  
E 4  22156838.447   116434983.629        1530.042          45.000  
E21  22463731.893   118047719.807        1421.956          44.000  
E27  22935465.078   120526683.507       -1582.726          40.000  
E36  24068218.513   126479323.168          28.778          29.000  
E 1  25278843.746   132841213.008        3095.260          33.000  
S36  37193610.011   195453737.959        -255.676          38.000  
G26  21794084.623   114528661.180       -2798.343          32.000  
G 5  20677876.315   108662969.937        2822.268          44.000  
G30  21002360.749   110368156.415        3248.285          43.000  
G29  22259559.339   116974762.696       -1726.238          36.000  
> 2019 11 12 13 36 19.9920000  0 19                     
G 9  18244379.426    95874856.783       -1703.104          52.000  
G 4  17977217.753    94470914.650       -1015.355          48.000  
G 7  19065388.474   100189283.053        1708.606          50.000  
G 2  20988630.429   110296002.325       -1762.443          41.000  
G23  20057925.082   105405110.470       -2916.903          44.000  
G16  20247052.313   106398979.783       -1096.499          39.000  
G 6  21921412.222   115197772.045       -3777.823          38.000  
E19  21346559.085   112176935.225       -1486.068          42.000  
S23  37024779.730   194566528.483        -255.779          38.000  
E 4  22156547.212   116433453.430        1529.922          45.000  
E21  22463461.197   118046297.808        1421.599          44.000  
E27  22935766.417   120528266.185       -1583.250          40.000  
E36  24068207.188   126479294.496          28.307          29.000  
E 1  25278254.749   132838117.368        3095.266          34.000  
S36  37193658.540   195453993.541        -256.154          38.000  
G26  21794616.715   114531459.372       -2798.318          32.000  
G 5  20677339.136   108660147.531        2821.764          44.000  
G30  21001742.008   110364907.844        3248.074          43.000  
G29  22259888.014   116976488.305       -1726.301          36.000  
> 2019 11 12 13 36 20.9920000  0 19                     
G 9  18244703.660    95876560.499       -1704.070          52.000  
G 4  17977410.944    94471930.686       -1016.331          47.000  
G 7  19065063.463   100187575.044        1707.738          50.000  
G 2  20988966.189   110297765.296       -1763.145          41.000  
G23  20058480.304   105408027.836       -2917.584          44.000  
G16  20247261.227   106400077.077       -1097.724          39.000  
G 6  21922131.119   115201550.081       -3777.896          38.000  
E19  21346841.840   112178422.085       -1487.046          42.000  
S23  37024828.337   194566784.677        -256.805          38.000  
E 4  22156255.863   116431924.170        1529.003          45.000  
E21  22463190.771   118044876.936        1420.504          44.000  
E27  22936068.201   120529849.973       -1583.889          40.000  
E36  24068198.367   126479267.057          26.870          29.000  
E 1  25277666.345   132835022.489        3095.021          34.000  
S36  37193707.139   195454249.830        -256.154          37.000  
G26  21795149.043   114534258.762       -2799.994          32.000  
G 5  20676801.984   108657326.160        2820.958          44.000  
G30  21001123.930   110361660.171        3247.512          43.000  
G29  22260216.750   116978215.234       -1727.388          36.000  
> 2019 11 12 13 36 21.9920000  0 19                     
G 9  18245027.920    95878264.444       -1703.818          52.000  
G 4  17977604.371    94472946.979       -1016.155          47.000  
G 7  19064738.566   100185867.237        1708.079          50.000  
G 2  20989301.853   110299528.551       -1763.162          41.000  
G23  20059035.369   105410945.246       -2917.079          44.000  
G16  20247470.123   106401174.845       -1097.593          39.000  
G 6  21922849.771   115205328.039       -3777.362          38.000  
E19  21347125.118   112179909.013       -1486.458          42.000  
S23  37024877.268   194567040.563        -255.375          38.000  
E 4  22155965.195   116430394.896        1529.757          45.000  
E21  22462920.624   118043456.235        1421.053          44.000  
E27  22936369.278   120531433.971       -1583.678          40.000  
E36  24068201.473   126479239.887          27.297          29.000  
E 1  25277077.443   132831927.434        3095.641          34.000  
S36  37193755.912   195454505.917        -255.898          37.000  
G26  21795681.615   114537058.308       -2799.450          32.000  
G 5  20676265.040   108654504.877        2821.527          44.000  
G30  21000505.748   110358412.448        3248.113          43.000  
G29  22260545.512   116979942.508       -1727.768          36.000  
> 2019 11 12 13 36 22.9920000  0 19                     
G 9  18245352.215    95879968.488       -1705.052          52.000  
G 4  17977797.606    94473963.400       -1017.440          47.000  
G 7  19064413.582   100184159.518        1706.735          50.000  
G 2  20989637.621   110301291.929       -1764.509          41.000  
G23  20059590.304   105413862.557       -2918.242          44.000  
G16  20247679.299   106402272.988       -1099.437          39.000  
G 6  21923568.903   115209105.834       -3778.621          38.000  
E19  21347407.559   112181395.879       -1487.929          42.000  
S23  37024925.788   194567296.070        -256.074          38.000  
E 4  22155673.663   116428865.511        1528.470          45.000  
E21  22462650.154   118042035.600        1419.608          44.000  
E27  22936670.844   120533018.051       -1585.222          40.000  
E36  24068191.622   126479212.826          25.919          29.000  
E 1  25276488.333   132828832.086        3094.431          34.000  
S36  37193804.589   195454761.604        -256.948          37.000  
G26  21796213.960   114539858.012       -2800.814          32.000  
G 5  20675728.211   108651683.591        2820.229          44.000  
G30  20999887.521   110355164.583        3247.208          42.000  
G29  22260874.466   116981669.969       -1728.515          36.000  
> 2019 11 12 13 36 23.9920000  0 19                     
G 9  18245676.841    95881674.282       -1706.373          52.000  
G 4  17977991.531    94474981.591       -1018.713          47.000  
G 7  19064088.799   100182453.517        1705.516          50.000  
G 2  20989974.052   110303057.093       -1765.779          41.000  
G23  20060145.447   105416781.417       -2919.295          44.000  
G16  20247888.475   106403373.110       -1100.737          39.000  
G 6  21924287.852   115212885.070       -3779.443          37.000  
E19  21347691.029   112182884.321       -1489.023          42.000  
S23  37024974.413   194567552.829        -257.012          37.000  
E 4  22155382.925   116427337.622        1527.489          44.000  
E21  22462380.243   118040616.661        1418.385          44.000  
E27  22936972.541   120534603.824       -1586.434          40.000  
E36  24068189.781   126479187.567          24.521          29.000  
E 1  25275899.772   132825738.079        3093.580          34.000  
S36  37193853.345   195455018.498        -256.522          37.000  
G26  21796746.854   114542659.394       -2801.543          32.000  
G 5  20675191.355   108648863.921        2819.031          43.000  
G30  20999269.941   110351918.187        3246.385          43.000  
G29  22261203.595   116983399.330       -1730.131          36.000  
> 2019 11 12 13 36 24.9920000  0 19                     
G 9  18246001.677    95883380.335       -1705.928          52.000  
G 4  17978185.437    94476000.072       -1018.263          48.000  
G 7  19063764.216   100180747.748        1706.113          50.000  
G 2  20990310.213   110304822.546       -1765.469          42.000  
G23  20060701.176   105419700.362       -2918.611          44.000  
G16  20248097.904   106404473.758       -1100.778          39.000  
G 6  21925006.688   115216664.277       -3778.973          37.000  
E19  21347974.656   112184372.858       -1488.227          42.000  
S23  37025022.951   194567809.382        -256.073          38.000  
E 4  22155092.431   116425809.779        1528.173          45.000  
E21  22462109.869   118039197.933        1419.017          44.000  
E27  22937274.211   120536189.824       -1585.763          40.000  
E36  24068182.408   126479162.672          25.036          28.000  
E 1  25275310.783   132822643.918        3094.297          34.000  
S36  37193902.537   195455275.258        -256.483          37.000  
G26  21797279.706   114545461.076       -2801.893          32.000  
G 5  20674654.612   108646044.372        2819.759          44.000  
G30  20998652.177   110348671.816        3246.771          43.000  
G29  22261533.334   116985129.042       -1728.882          37.000  
> 2019 11 12 13 36 25.9920000  0 19                     
G 9  18246326.775    95885087.163       -1707.773          52.000  
G 4  17978379.353    94477019.343       -1020.282          48.000  
G 7  19063439.720   100179042.736        1703.981          50.000  
G 2  20990646.348   110306588.776       -1766.887          41.000  
G23  20061256.869   105422619.856       -2920.299          45.000  
G16  20248307.629   106405575.395       -1102.570          40.000  
G 6  21925725.567   115220443.901       -3780.474          37.000  
E19  21348257.489   112185861.992       -1490.193          42.000  
S23  37025071.463   194568066.246        -257.864          37.000  
E 4  22154801.832   116424282.466        1526.534          44.000  
E21  22461840.019   118037779.925        1417.091          44.000  
E27  22937576.563   120537776.562       -1587.817          40.000  
E36  24068178.395   126479138.471          23.832          27.000  
E 1  25274721.777   132819550.116        3092.932          34.000  
S36  37193951.389   195455532.271        -257.470          38.000  
G26  21797813.019   114548263.513       -2803.765          33.000  
G 5  20674118.323   108643225.457        2818.072          43.000  
G30  20998034.840   110345425.918        3245.386          43.000  
G29  22261862.698   116986859.645       -1731.233          37.000  
> 2019 11 12 13 36 26.9920000  0 19                     
G 9  18246651.593    95886795.135       -1708.259          52.000  
G 4  17978573.792    94478039.785       -1020.717          48.000  
G 7  19063115.548   100177338.838        1703.773          50.000  
G 2  20990982.823   110308356.207       -1767.725          41.000  
G23  20061812.781   105425540.303       -2920.368          44.000  
G16  20248517.721   106406678.479       -1103.662          40.000  
G 6  21926444.891   115224224.432       -3781.019          38.000  
E19  21348541.238   112187352.095       -1490.132          42.000  
S23  37025120.114   194568323.724        -257.528          37.000  
E 4  22154511.138   116422756.072        1526.250          44.000  
E21  22461570.361   118036363.020        1416.677          44.000  
E27  22937878.914   120539364.381       -1587.837          40.000  
E36  24068172.410   126479115.557          22.457          26.000  
E 1  25274133.670   132816457.049        3092.501          34.000  
S36  37194000.206   195455789.929        -257.544          37.000  
G26  21798346.280   114551067.035       -2804.090          32.000  
G 5  20673582.078   108640407.593        2817.638          43.000  
G30  20997418.176   110342180.910        3244.934          43.000  
G29  22262192.228   116988591.514       -1732.191          37.000  
> 2019 11 12 13 36 27.9920000  0 19                     
G 9  18246976.560    95888503.832       -1708.826          52.000  
G 4  17978768.283    94479060.967       -1021.271          48.000  
G 7  19062791.584   100175635.637        1703.126          50.000  
G 2  20991319.394   110310124.381       -1768.349          42.000  
G23  20062368.788   105428461.296       -2920.970          44.000  
G16  20248727.795   106407782.516       -1104.432          40.000  
G 6  21927164.233   115228005.345       -3780.628          38.000  
E19  21348824.682   112188842.767       -1490.588          42.000  
S23  37025168.887   194568581.423        -257.410          37.000  
E 4  22154220.766   116421230.159        1525.935          44.000  
E21  22461301.043   118034946.782        1416.055          44.000  
E27  22938180.838   120540952.909       -1588.635          40.000  
E36  24068167.105   126479093.357          22.091          27.000  
E 1  25273545.205   132813364.280        3093.028          34.000  
S36  37194049.215   195456047.804        -257.772          37.000  
G26  21798879.864   114553871.266       -2803.732          32.000  
G 5  20673046.095   108637590.303        2817.195          43.000  
G30  20996800.761   110338936.353        3244.788          43.000  
G29  22262522.002   116990324.262       -1733.455          37.000  
> 2019 11 12 13 36 28.9920000  0 19                     
G 9  18247301.666    95890212.960       -1709.279          52.000  
G 4  17978962.565    94480082.612       -1021.755          48.000  
G 7  19062467.429   100173932.849        1702.678          50.000  
G 2  20991656.062   110311893.028       -1768.801          41.000  
G23  20062924.691   105431382.519       -2921.125          44.000  
G16  20248937.765   106408887.248       -1104.986          40.000  
G 6  21927883.618   115231786.408       -3781.034          37.000  
E19  21349108.518   112190333.695       -1490.902          42.000  
S23  37025217.678   194568839.073        -257.573          37.000  
E 4  22153930.142   116419704.451        1525.747          44.000  
E21  22461031.664   118033530.932        1415.831          44.000  
E27  22938482.883   120542541.815       -1588.733          40.000  
E36  24068164.426   126479071.601          21.572          26.000  
E 1  25272957.107   132810271.561        3092.901          35.000  
S36  37194098.189   195456305.570        -257.341          37.000  
G26  21799413.832   114556676.012       -2805.624          32.000  
G 5  20672509.954   108634773.307        2816.902          43.000  
G30  20996183.259   110335691.972        3244.562          43.000  
G29  22262851.672   116992057.480       -1733.141          36.000  
> 2019 11 12 13 36 29.9920000  0 19                     
G 9  18247627.016    95891922.400       -1709.521          52.000  
G 4  17979157.031    94481104.595       -1022.020          48.000  
G 7  19062143.283   100172230.348        1702.532          50.000  
G 2  20991992.755   110313662.022       -1769.016          41.000  
G23  20063480.516   105434303.854       -2921.241          44.000  
G16  20249147.997   106409992.545       -1105.548          40.000  
G 6  21928602.802   115235567.489       -3780.941          37.000  
E19  21349392.372   112191824.789       -1491.213          42.000  
S23  37025266.425   194569096.565        -257.321          37.000  
E 4  22153639.805   116418178.837        1525.586          44.000  
E21  22460761.971   118032115.357        1415.373          44.000  
E27  22938785.235   120544131.037       -1589.160          40.000  
E36  24068162.271   126479050.242          21.159          27.000  
E 1  25272369.078   132807178.740        3093.226          35.000  
S36  37194147.015   195456563.159        -257.083          37.000  
G26  21799947.704   114559480.957       -2804.890          32.000  
G 5  20671973.892   108631956.522        2816.862          43.000  
G30  20995566.062   110332447.653        3244.453          43.000  
G29  22263181.533   116993791.205       -1733.984          37.000  
> 2019 11 12 13 36 30.9920000  0 19                     
G 9  18247952.114    95893632.087       -1709.876          52.000  
G 4  17979351.330    94482126.858       -1022.456          48.000  
G 7  19061819.328   100170528.083        1702.074          50.000  
G 2  20992329.256   110315431.291       -1769.637          41.000  
G23  20064036.698   105437225.270       -2921.558          45.000  
G16  20249358.464   106411098.342       -1106.134          40.000  
G 6  21929322.720   115239348.512       -3781.604          38.000  
E19  21349675.860   112193315.943       -1491.300          42.000  
S23  37025315.233   194569353.802        -257.046          37.000  
E 4  22153349.460   116416653.223        1525.512          44.000  
E21  22460492.635   118030699.979        1415.125          44.000  
E27  22939088.083   120545720.450       -1589.583          40.000  
E36  24068156.556   126479029.131          21.096          28.000  
E 1  25271780.578   132804085.772        3092.470          34.000  
S36  37194195.980   195456820.551        -257.307          37.000  
G26  21800481.716   114562286.189       -2805.565          32.000  
G 5  20671437.865   108629139.874        2816.499          43.000  
G30  20994948.787   110329203.299        3244.115          43.000  
G29  22263511.142   116995525.249       -1734.489          37.000  
> 2019 11 12 13 36 31.9920000  0 19                     
G 9  18248277.622    95895342.041       -1710.181          52.000  
G 4  17979545.935    94483149.392       -1022.730          48.000  
G 7  19061495.539   100168826.032        1701.945          50.000  
G 2  20992666.019   110317200.839       -1769.702          41.000  
G23  20064592.557   105440146.721       -2921.345          44.000  
G16  20249568.782   106412204.655       -1106.538          39.000  
G 6  21930042.323   115243129.497       -3781.426          38.000  
E19  21349959.548   112194807.185       -1491.215          42.000  
S23  37025363.876   194569610.843        -256.979          37.000  
E 4  22153059.716   116415127.641        1525.503          44.000  
E21  22460223.605   118029284.792        1415.074          44.000  
E27  22939390.225   120547310.090       -1589.860          40.000  
E36  24068153.598   126479008.363          20.381          28.000  
E 1  25271191.729   132800992.618        3093.310          34.000  
S36  37194244.544   195457077.629        -256.899          37.000  
G26  21801015.658   114565091.709       -2806.484          32.000  
G 5  20670902.013   108626323.319        2816.423          43.000  
G30  20994331.398   110325958.928        3244.421          43.000  
G29  22263840.846   116997259.695       -1735.059          36.000  
> 2019 11 12 13 36 32.9920000  0 19                     
G 9  18248603.487    95897052.548       -1710.632          52.000  
G 4  17979740.200    94484172.505       -1023.367          47.000  
G 7  19061171.419   100167124.527        1701.359          50.000  
G 2  20993002.520   110318970.978       -1770.276          41.000  
G23  20065148.835   105443068.544       -2921.729          45.000  
G16  20249779.450   106413311.780       -1107.467          40.000  
G 6  21930761.848   115246910.705       -3781.256          38.000  
E19  21350243.585   112196298.836       -1491.818          42.000  
S23  37025412.789   194569867.926        -257.197          37.000  
E 4  22152769.406   116413602.388        1525.043          44.000  
E21  22459954.680   118027870.143        1414.495          44.000  
E27  22939693.047   120548900.221       -1590.182          40.000  
E36  24068150.972   126478988.167          19.880          28.000  
E 1  25270602.924   132797899.654        3092.738          34.000  
S36  37194293.326   195457334.816        -257.316          37.000  
G26  21801549.660   114567897.672       -2806.152          32.000  
G 5  20670366.177   108623507.210        2816.102          43.000  
G30  20993714.018   110322714.873        3244.037          44.000  
G29  22264170.585   116998994.810       -1735.429          35.000  
> 2019 11 12 13 36 33.9920000  0 19                     
G 9  18248929.038    95898763.432       -1711.159          52.000  
G 4  17979934.979    94485196.012       -1023.514          47.000  
G 7  19060847.866   100165423.367        1701.003          50.000  
G 2  20993339.597   110320741.537       -1770.667          41.000  
G23  20065705.017   105445990.547       -2921.976          45.000  
G16  20249990.205   106414419.529       -1108.006          40.000  
G 6  21931481.521   115250692.017       -3781.326          38.000  
E19  21350527.308   112197790.678       -1491.980          42.000  
S23  37025461.911   194570124.904        -257.245          38.000  
E 4  22152479.043   116412077.257        1524.980          44.000  
E21  22459685.589   118026455.799        1414.179          44.000  
E27  22939995.974   120550490.700       -1590.388          40.000  
E36  24068143.913   126478968.431          18.977          28.000  
E 1  25270014.538   132794806.638        3092.830          34.000  
S36  37194342.326   195457591.845        -256.788          37.000  
G26  21802083.829   114570704.008       -2805.286          32.000  
G 5  20669830.211   108620691.354        2815.676          43.000  
G30  20993096.315   110319470.907        3244.265          43.000  
G29  22264500.587   117000730.348       -1735.965          35.000  
> 2019 11 12 13 36 34.9920000  0 19                     
G 9  18249254.415    95900474.625       -1711.425          52.000  
G 4  17980129.854    94486219.870       -1024.015          47.000  
G 7  19060523.972   100163722.499        1700.785          50.000  
G 2  20993676.657   110322512.432       -1771.167          41.000  
G23  20066260.946   105448912.666       -2922.295          45.000  
G16  20250201.362   106415527.858       -1108.933          40.000  
G 6  21932200.872   115254473.344       -3781.349          38.000  
E19  21350810.892   112199282.677       -1492.199          42.000  
S23  37025510.615   194570381.720        -256.676          37.000  
E 4  22152189.011   116410552.243        1524.882          44.000  
E21  22459416.603   118025041.741        1413.916          44.000  
E27  22940298.544   120552081.484       -1591.033          40.000  
E36  24068142.954   126478948.953          19.123          28.000  
E 1  25269426.108   132791713.534        3092.752          34.000  
S36  37194391.065   195457848.752        -257.239          37.000  
G26  21802618.094   114573510.766       -2807.393          32.000  
G 5  20669294.560   108617875.705        2815.437          43.000  
G30  20992478.804   110316227.028        3243.861          43.000  
G29  22264830.675   117002466.407       -1736.055          34.000  
> 2019 11 12 13 36 35.9920000  0 19                     
G 9  18249580.036    95902186.336       -1712.001          52.000  
G 4  17980325.078    94487244.269       -1024.729          48.000  
G 7  19060201.082   100162022.131        1700.133          50.000  
G 2  20994013.185   110324283.876       -1771.780          41.000  
G23  20066817.390   105451835.108       -2922.656          45.000  
G16  20250412.466   106416636.942       -1109.604          40.000  
G 6  21932920.335   115258254.885       -3781.893          37.000  
E19  21351095.374   112200775.025       -1492.729          42.000  
S23  37025559.249   194570638.546        -257.230          37.000  
E 4  22151899.024   116409027.494        1524.510          44.000  
E21  22459147.494   118023628.137        1413.338          44.000  
E27  22940601.383   120553672.722       -1591.473          40.000  
E36  24068140.153   126478930.061          18.678          29.000  
E 1  25268837.686   132788620.539        3092.714          34.000  
S36  37194439.908   195458105.726        -256.886          37.000  
G26  21803147.725   114576317.983       -2808.146          32.000  
G 5  20668758.751   108615060.423        2815.220          43.000  
G30  20991861.416   110312983.369        3243.684          43.000  
G29  22265160.580   117004203.010       -1736.772          34.000  
> 2019 11 12 13 36 36.9920000  0 19                     
G 9  18249905.963    95903898.381       -1712.369          52.000  
G 4  17980520.111    94488269.011       -1025.015          48.000  
G 7  19059877.259   100160322.062        1699.829          50.000  
G 2  20994350.192   110326055.675       -1772.177          41.000  
G23  20067373.712   105454757.691       -2923.014          45.000  
G16  20250623.718   106417746.615       -1109.866          40.000  
G 6  21933639.878   115262036.435       -3781.666          37.000  
E19  21351379.429   112202267.510       -1492.653          42.000  
S23  37025607.987   194570895.197        -256.570          37.000  
E 4  22151608.905   116407502.843        1524.496          44.000  
E21  22458878.551   118022214.828        1413.010          44.000  
E27  22940904.363   120555264.258       -1591.798          40.000  
E36  24068135.912   126478911.576          18.112          29.000  
E 1  25268248.881   132785527.451        3093.047          34.000  
S36  37194488.725   195458362.601        -256.861          37.000  
G26  21803685.070   114579125.453       -2807.352          32.000  
G 5  20668223.038   108612245.367        2814.763          43.000  
G30  20991244.044   110309739.794        3243.320          44.000  
G29  22265490.904   117005940.144       -1737.329          34.000  
> 2019 11 12 13 36 37.9920000  0 19                     
G 9  18250231.819    95905610.897       -1712.591          52.000  
G 4  17980715.073    94489294.253       -1025.344          48.000  
G 7  19059554.011   100158622.444        1699.514          50.000  
G 2  20994687.522   110327828.000       -1772.536          41.000  
G23  20067929.588   105457680.538       -2922.654          44.000  
G16  20250834.874   106418857.009       -1110.596          39.000  
G 6  21934359.472   115265818.135       -3781.187          37.000  
E19  21351663.466   112203760.324       -1492.746          42.000  
S23  37025656.944   194571151.850        -256.396          37.000  
E 4  22151319.205   116405978.437        1524.567          44.000  
E21  22458609.888   118020801.935        1412.893          44.000  
E27  22941207.447   120556856.229       -1592.174          40.000  
E36  24068132.065   126478893.566          17.557          29.000  
E 1  25267660.207   132782434.439        3093.232          34.000  
S36  37194537.507   195458619.453        -257.074          37.000  
G26  21804220.163   114581933.389       -2807.265          31.000  
G 5  20667687.700   108609430.644        2814.869          43.000  
G30  20990626.856   110306496.413        3243.333          44.000  
G29  22265821.236   117007677.783       -1737.234          34.000  
> 2019 11 12 13 36 38.9920000  0 19                     
G 9  18250557.789    95907324.025       -1713.294          52.000  
G 4  17980910.429    94490320.134       -1026.137          48.000  
G 7  19059230.684   100156923.419        1698.816          50.000  
G 2  20995024.704   110329600.970       -1773.527          41.000  
G23  20068485.779   105460603.819       -2923.441          44.000  
G16  20251046.249   106419968.271       -1111.802          40.000  
G 6  21935079.407   115269600.208       -3782.073          38.000  
E19  21351947.538   112205253.574       -1493.399          42.000  
S23  37025705.743   194571408.647        -256.954          37.000  
E 4  22151028.903   116404454.419        1523.759          44.000  
E21  22458340.858   118019389.614        1412.095          44.000  
E27  22941510.950   120558448.781       -1592.920          40.000  
E36  24068127.362   126478876.218          17.105          29.000  
E 1  25267071.934   132779341.627        3092.524          35.000  
S36  37194586.577   195458876.393        -257.018          37.000  
G26  21804756.810   114584741.994       -2808.664          32.000  
G 5  20667152.223   108606616.424        2814.003          44.000  
G30  20990009.904   110303253.385        3242.840          44.000  
G29  22266151.883   117009416.223       -1738.726          34.000  
> 2019 11 12 13 36 39.9920000  0 18                     
G 9  18250884.135    95909037.552       -1713.890          52.000  
G 4  17981105.810    94491346.437       -1026.649          48.000  
G 7  19058907.637   100155224.792        1698.193          50.000  
G 2  20995361.772   110331374.354       -1773.913          41.000  
G23  20069042.136   105463527.307       -2923.735          44.000  
G16  20251257.964   106421080.177       -1112.310          39.000  
G 6  21935799.133   115273382.366       -3782.606          38.000  
E19  21352231.645   112206747.069       -1493.614          41.000  
S23  37025754.403   194571665.364        -256.611          37.000  
E 4  22150738.872   116402930.562        1523.695          44.000  
E21  22458072.220   118017977.644        1411.858          44.000  
E27  22941814.121   120560041.695       -1593.022          40.000  
E36  24068125.713   126478859.345          16.065          29.000  
E 1  25266483.495   132776248.815        3092.735          35.000  
S36  37194635.464   195459133.289        -256.775          37.000  
G26  21805290.516   114587550.991       -2809.461          31.000  
G 5  20666616.675   108603802.470        2813.719          44.000  
G30  20989392.821   110300010.497        3242.759          43.000  
> 2019 11 12 13 36 40.9920000  0 18                     
G 9  18251210.279    95910751.496       -1714.093          52.000  
G 4  17981301.122    94492373.179       -1026.973          48.000  
G 7  19058584.407   100153526.536        1698.036          50.000  
G 2  20995699.181   110333148.177       -1774.302          41.000  
G23  20069598.422   105466451.013       -2923.870          44.000  
G16  20251469.774   106422192.767       -1113.120          39.000  
G 6  21936518.910   115277164.608       -3782.164          37.000  
E19  21352516.249   112208240.810       -1493.906          42.000  
S23  37025802.862   194571922.013        -256.550          37.000  
E 4  22150448.684   116401406.892        1523.513          44.000  
E21  22457803.810   118016566.052        1411.404          44.000  
E27  22942117.371   120561634.989       -1593.451          41.000  
E36  24068123.261   126478842.810          16.747          29.000  
E 1  25265895.056   132773156.014        3092.616          35.000  
S36  37194684.202   195459390.137        -257.043          37.000  
G26  21805825.383   114590360.341       -2809.447          31.000  
G 5  20666081.355   108600988.821        2813.418          44.000  
G30  20988775.694   110296767.739        3242.657          43.000  
> 2019 11 12 13 36 41.9920000  0 18                     
G 9  18251536.616    95912465.978       -1714.638          52.000  
G 4  17981496.826    94493400.483       -1027.513          48.000  
G 7  19058261.360   100151828.794        1697.550          50.000  
G 2  20996036.529   110334922.559       -1774.476          41.000  
G23  20070154.823   105469375.053       -2924.148          44.000  
G16  20251681.847   106423306.119       -1113.537          39.000  
G 6  21937238.714   115280947.124       -3782.762          37.000  
E19  21352800.330   112209734.910       -1494.031          42.000  
S23  37025851.435   194572178.705        -256.776          36.000  
E 4  22150158.469   116399883.535        1523.272          44.000  
E21  22457535.452   118015154.938        1410.947          44.000  
E27  22942420.508   120563228.781       -1594.030          40.000  
E36  24068119.753   126478826.981          15.585          29.000  
E 1  25265306.486   132770063.313        3092.931          35.000  
S36  37194732.941   195459647.006        -257.126          37.000  
G26  21806359.612   114593170.231       -2809.882          31.000  
G 5  20665546.131   108598175.572        2813.121          43.000  
G30  20988158.549   110293525.281        3242.387          43.000  
> 2019 11 12 13 36 42.9920000  0 18                     
G 9  18251862.830    95914180.841       -1715.031          52.000  
G 4  17981692.486    94494428.185       -1027.961          48.000  
G 7  19057938.208   100150131.408        1697.153          50.000  
G 2  20996374.278   110336697.376       -1775.135          41.000  
G23  20070711.275   105472299.271       -2924.370          44.000  
G16  20251893.815   106424420.124       -1114.296          39.000  
G 6  21937958.239   115284729.698       -3782.484          37.000  
E19  21353084.516   112211229.231       -1494.560          42.000  
S23  37025899.981   194572435.282        -256.337          36.000  
E 4  22149868.359   116398360.318        1522.969          44.000  
E21  22457266.701   118013744.161        1410.338          44.000  
E27  22942723.723   120564822.912       -1594.471          40.000  
E36  24068121.926   126478811.491          15.376          29.000  
E 1  25264718.187   132766970.625        3092.258          35.000  
S36  37194781.758   195459903.821        -256.722          37.000  
G26  21806895.046   114595980.485       -2810.651          31.000  
G 5  20665011.124   108595362.580        2812.716          44.000  
G30  20987541.789   110290282.920        3242.156          44.000  
> 2019 11 12 13 36 43.9920000  0 18                     
G 9  18252189.428    95915896.345       -1715.703          52.000  
G 4  17981887.745    94495456.561       -1028.656          48.000  
G 7  19057615.318   100148434.653        1696.511          50.000  
G 2  20996712.035   110338472.842       -1775.455          41.000  
G23  20071267.518   105475223.946       -2924.737          44.000  
G16  20252105.556   106425535.004       -1115.058          39.000  
G 6  21938677.834   115288512.621       -3783.535          36.000  
E19  21353369.260   112212724.020       -1495.127          42.000  
S23  37025949.017   194572692.023        -256.437          37.000  
E 4  22149578.799   116396837.515        1522.631          44.000  
E21  22456998.447   118012333.967        1409.998          44.000  
E27  22943027.208   120566417.640       -1595.033          40.000  
E36  24068119.675   126478796.743          14.418          29.000  
E 1  25264129.356   132763878.148        3092.312          35.000  
S36  37194830.610   195460160.839        -257.198          37.000  
G26  21807429.886   114598791.406       -2811.639          32.000  
G 5  20664475.987   108592550.105        2812.428          44.000  
G30  20986924.828   110287040.945        3241.624          44.000  
> 2019 11 12 13 36 44.9920000  0 18                     
G 9  18252516.000    95917612.203       -1716.109          52.000  
G 4  17982083.354    94496485.332       -1029.113          48.000  
G 7  19057292.183   100146738.239        1696.144          50.000  
G 2  20997050.116   110340248.730       -1776.181          41.000  
G23  20071824.267   105478148.791       -2925.106          44.000  
G16  20252317.899   106426650.525       -1115.856          39.000  
G 6  21939397.568   115292295.570       -3782.743          37.000  
E19  21353653.637   112214219.005       -1495.012          42.000  
S23  37025997.301   194572948.645        -256.641          36.000  
E 4  22149289.134   116395314.847        1522.600          44.000  
E21  22456729.976   118010924.114        1409.668          44.000  
E27  22943330.894   120568012.710       -1595.285          40.000  
E36  24068116.333   126478782.391          14.224          29.000  
E 1  25263541.135   132760785.604        3092.888          35.000  
S36  37194879.444   195460417.714        -257.015          37.000  
G26  21807965.085   114601602.629       -2811.764          32.000  
G 5  20663941.182   108589737.898        2811.863          44.000  
G30  20986308.311   110283799.090        3241.420          44.000  
> 2019 11 12 13 36 45.9920000  0 18                     
G 9  18252842.302    95919328.402       -1716.572          52.000  
G 4  17982279.433    94497514.445       -1029.439          48.000  
G 7  19056969.171   100145042.125        1695.876          50.000  
G 2  20997388.362   110342024.950       -1776.718          41.000  
G23  20072380.868   105481073.769       -2925.230          44.000  
G16  20252530.119   106427766.616       -1116.371          40.000  
G 6  21940116.997   115296078.585       -3782.579          36.000  
E19  21353938.137   112215714.166       -1495.493          42.000  
S23  37026046.249   194573205.057        -256.139          37.000  
E 4  22148999.565   116393792.276        1522.370          45.000  
E21  22456461.958   118009514.526        1409.181          44.000  
E27  22943634.624   120569608.049       -1595.537          40.000  
E36  24068102.652   126478768.363          13.600          29.000  
E 1  25262952.810   132757693.040        3092.325          35.000  
S36  37194928.401   195460674.362        -256.573          37.000  
G26  21808500.021   114604414.175       -2811.765          32.000  
G 5  20663406.019   108586925.871        2811.767          43.000  
G30  20985691.804   110280557.254        3241.619          44.000  
> 2019 11 12 13 36 46.9920000  0 18                     
G 9  18253168.796    95921045.071       -1716.342          52.000  
G 4  17982475.233    94498544.063       -1029.428          47.000  
G 7  19056646.525   100143346.484        1695.907          50.000  
G 2  20997726.678   110343801.699       -1776.573          41.000  
G23  20072937.373   105483999.040       -2925.067          44.000  
G16  20252742.419   106428883.463       -1116.821          40.000  
G 6  21940836.871   115299861.797       -3782.939          37.000  
E19  21354223.064   112217209.633       -1495.350          42.000  
S23  37026095.581   194573461.507        -255.852          37.000  
E 4  22148710.398   116392269.961        1522.577          45.000  
E21  22456193.984   118008105.380        1409.345          44.000  
E27  22943938.092   120571203.848       -1595.546          40.000  
E36  24068110.025   126478754.934          13.082          29.000  
E 1  25262364.694   132754600.522        3092.685          35.000  
S36  37194977.209   195460931.033        -256.461          37.000  
G26  21809034.914   114607226.225       -2812.000          32.000  
G 5  20662871.065   108584114.216        2811.889          44.000  
G30  20985074.834   110277315.656        3242.066          44.000  
> 2019 11 12 13 36 47.9920000  0 18                     
G 9  18253495.586    95922762.292       -1717.692          52.000  
G 4  17982671.461    94499574.239       -1030.516          47.000  
G 7  19056323.783   100141651.353        1694.827          50.000  
G 2  20998064.828   110345579.005       -1777.564          41.000  
G23  20073493.957   105486924.638       -2925.755          44.000  
G16  20252955.276   106430001.055       -1118.002          40.000  
G 6  21941556.884   115303645.208       -3783.024          37.000  
E19  21354507.616   112218705.457       -1495.975          42.000  
S23  37026144.834   194573718.016        -256.624          37.000  
E 4  22148420.968   116390747.943        1521.903          45.000  
E21  22455925.451   118006696.720        1408.391          44.000  
E27  22944241.734   120572800.149       -1596.560          40.000  
E36  24068111.124   126478741.956          12.860          29.000  
E 1  25261776.063   132751508.140        3092.359          34.000  
S36  37195026.035   195461187.778        -256.599          37.000  
G26  21809570.077   114610038.721       -2811.289          32.000  
G 5  20662336.128   108581302.948        2811.164          43.000  
G30  20984458.257   110274074.337        3241.165          44.000  
> 2019 11 12 13 36 48.9920000  0 18                     
G 9  18253822.821    95924479.931       -1717.380          52.000  
G 4  17982867.296    94500604.889       -1030.482          47.000  
G 7  19056001.015   100139956.641        1695.029          50.000  
G 2  20998403.005   110347356.789       -1777.468          41.000  
G23  20074050.427   105489850.505       -2925.712          44.000  
G16  20253167.942   106431119.378       -1118.260          39.000  
G 6  21942277.334   115307428.799       -3783.595          38.000  
E19  21354792.683   112220201.562       -1495.853          42.000  
S23  37026193.738   194573974.440        -255.472          37.000  
E 4  22148130.972   116389226.136        1522.061          45.000  
E21  22455657.442   118005288.467        1408.461          44.000  
E27  22944545.447   120574396.846       -1596.611          40.000  
E36  24068102.024   126478729.591          11.969          28.000  
E 1  25261186.882   132748415.803        3092.542          34.000  
S36  37195075.026   195461444.549        -256.533          37.000  
G26  21810105.589   114612851.706       -2811.978          32.000  
G 5  20661801.392   108578492.018        2811.144          43.000  
G30  20983841.636   110270833.190        3241.421          44.000  
> 2019 11 12 13 36 49.9920000  0 18                     
G 9  18254149.419    95926196.946       -1716.577          52.000  
G 4  17983063.131    94501634.910       -1029.477          47.000  
G 7  19055678.012   100138261.266        1695.962          49.000  
G 2  20998741.077   110349133.966       -1776.764          41.000  
G23  20074607.123   105492775.499       -2924.330          44.000  
G16  20253380.730   106432237.281       -1117.305          39.000  
G 6  21942997.295   115311211.390       -3781.635          37.000  
E19  21355076.894   112221696.852       -1494.687          42.000  
S23  37026242.503   194574229.777        -254.314          37.000  
E 4  22147841.141   116387703.461        1523.326          45.000  
E21  22455389.110   118003879.508        1409.567          44.000  
E27  22944849.177   120575992.844       -1594.999          40.000  
E36  24068100.366   126478716.546          13.114          29.000  
E 1  25260598.042   132745322.383        3094.118          34.000  
S36  37195123.660   195461700.160        -254.712          37.000  
G26  21810640.692   114615664.032       -2810.901          32.000  
G 5  20661266.386   108575680.322        2812.364          44.000  
G30  20983224.832   110267591.150        3242.690          44.000  
> 2019 11 12 13 36 50.9920000  0 18                     
G 9  18254476.236    95927913.911       -1717.820          52.000  
G 4  17983259.062    94502664.916       -1030.859          47.000  
G 7  19055355.733   100136565.826        1694.644          50.000  
G 2  20999079.236   110350911.125       -1777.957          41.000  
G23  20075163.951   105495700.260       -2925.385          44.000  
G16  20253593.797   106433355.415       -1118.964          40.000  
G 6  21943717.195   115314993.656       -3782.812          37.000  
E19  21355361.630   112223191.928       -1495.697          42.000  
S23  37026291.285   194574484.584        -255.244          37.000  
E 4  22147551.476   116386180.499        1522.275          45.000  
E21  22455121.057   118002470.456        1408.413          44.000  
E27  22945152.854   120577588.799       -1596.845          40.000  
E36  24068095.489   126478703.449          12.148          29.000  
E 1  25260009.246   132742228.511        3093.202          34.000  
S36  37195172.259   195461955.252        -255.534          37.000  
G26  21811178.158   114618476.330       -2812.741          32.000  
G 5  20660731.040   108572868.462        2810.929          44.000  
G30  20982607.618   110264348.798        3241.574          44.000  
> 2019 11 12 13 36 51.9920000  0 18                     
G 9  18254803.558    95929632.824       -1719.660          52.000  
G 4  17983455.421    94503696.893       -1032.760          47.000  
G 7  19055033.453   100134872.314        1692.711          50.000  
G 2  20999417.692   110352690.277       -1780.167          41.000  
G23  20075720.822   105498626.809       -2927.371          44.000  
G16  20253806.934   106434475.727       -1120.945          40.000  
G 6  21944437.121   115318777.562       -3784.657          37.000  
E19  21355646.339   112224688.804       -1497.639          42.000  
S23  37026340.102   194574740.839        -256.831          38.000  
E 4  22147261.925   116384659.275        1520.533          45.000  
E21  22454853.240   118001063.326        1406.373          44.000  
E27  22945457.133   120579186.653       -1598.689          40.000  
E36  24068089.294   126478692.425          10.346          29.000  
E 1  25259420.877   132739136.200        3091.909          34.000  
S36  37195220.840   195462211.759        -257.030          37.000  
G26  21811710.468   114621290.532       -2814.776          32.000  
G 5  20660196.356   108570058.418        2809.366          44.000  
G30  20981990.622   110261108.123        3239.954          43.000  
> 2019 11 12 13 36 52.9920000  0 18                     
G 9  18255130.497    95931352.040       -1718.920          52.000  
G 4  17983651.919    94504729.188       -1032.068          47.000  
G 7  19054711.662   100133179.070        1693.583          50.000  
G 2  20999756.662   110354469.738       -1779.191          41.000  
G23  20076277.676   105501553.432       -2926.337          44.000  
G16  20254020.368   106435596.620       -1120.792          40.000  
G 6  21945157.100   115322561.465       -3783.521          37.000  
E19  21355931.196   112226185.791       -1496.757          42.000  
S23  37026389.242   194574996.910        -255.610          38.000  
E 4  22146972.417   116383138.105        1521.443          45.000  
E21  22454585.614   117999656.430        1407.131          44.000  
E27  22945761.552   120580784.755       -1597.895          40.000  
E36  24068085.848   126478681.683          11.357          29.000  
E 1  25258832.351   132736043.782        3093.269          34.000  
S36  37195269.457   195462468.078        -255.849          37.000  
G26  21812244.306   114624105.050       -2813.967          32.000  
G 5  20659661.420   108567248.556        2810.087          44.000  
G30  20981373.809   110257867.485        3241.275          43.000  
> 2019 11 12 13 36 53.9920000  0 18                     
G 9  18255457.741    95933071.115       -1719.793          52.000  
G 4  17983848.487    94505761.370       -1032.803          47.000  
G 7  19054389.479   100131485.675        1692.787          50.000  
G 2  21000095.475   110356249.089       -1779.868          41.000  
G23  20076834.321   105504479.718       -2926.869          44.000  
G16  20254233.644   106436717.587       -1121.726          40.000  
G 6  21945877.017   115326344.920       -3784.130          37.000  
E19  21356216.463   112227682.485       -1497.341          42.000  
S23  37026438.007   194575252.360        -255.903          38.000  
E 4  22146683.066   116381616.562        1521.032          45.000  
E21  22454317.806   117998249.352        1406.623          44.000  
E27  22946065.814   120582382.679       -1598.725          40.000  
E36  24068082.471   126478670.881          10.035          29.000  
E 1  25258243.668   132732950.829        3092.614          34.000  
S36  37195318.343   195462723.792        -256.155          37.000  
G26  21812780.804   114626919.354       -2814.698          32.000  
G 5  20659126.850   108564438.433        2809.519          43.000  
G30  20980756.882   110254626.436        3240.603          43.000  
> 2019 11 12 13 36 54.9920000  0 18                     
G 9  18255785.142    95934791.600       -1721.633          52.000  
G 4  17984045.133    94506794.997       -1034.927          47.000  
G 7  19054067.462   100129793.681        1690.691          50.000  
G 2  21000434.123   110358029.909       -1782.022          41.000  
G23  20077391.498   105507407.231       -2928.563          44.000  
G16  20254447.174   106437840.241       -1123.897          39.000  
G 6  21946597.092   115330129.514       -3786.184          37.000  
E19  21356501.373   112229180.417       -1499.192          42.000  
S23  37026486.946   194575508.680        -257.076          38.000  
E 4  22146393.873   116380096.215        1519.306          45.000  
E21  22454050.128   117996843.666        1404.302          44.000  
E27  22946369.980   120583981.992       -1600.545          40.000  
E36  24068080.115   126478661.530           8.398          29.000  
E 1  25257655.648   132729858.860        3090.947          34.000  
S36  37195367.361   195462980.435        -257.430          37.000  
G26  21813320.286   114629735.096       -2816.484          31.000  
G 5  20658592.411   108561629.595        2807.666          43.000  
G30  20980140.340   110251386.569        3238.474          43.000  
> 2019 11 12 13 36 55.9920000  0 18                     
G 9  18256112.682    95936513.844       -1722.922          52.000  
G 4  17984241.937    94507830.404       -1036.113          47.000  
G 7  19053746.247   100128103.409        1689.590          50.000  
G 2  21000773.451   110359812.492       -1783.057          41.000  
G23  20077949.241   105510336.297       -2929.623          44.000  
G16  20254661.384   106438964.895       -1125.376          39.000  
G 6  21947317.288   115333915.546       -3786.621          37.000  
E19  21356786.798   112230679.932       -1500.067          42.000  
S23  37026535.990   194575766.365        -258.352          38.000  
E 4  22146104.975   116378577.385        1518.377          45.000  
E21  22453782.948   117995439.664        1403.304          44.000  
E27  22946674.557   120585583.003       -1601.562          40.000  
E36  24068077.803   126478653.969           6.949          29.000  
E 1  25257067.436   132726768.238        3090.223          34.000  
S36  37195416.222   195463238.345        -258.217          37.000  
G26  21813855.318   114632552.634       -2818.540          31.000  
G 5  20658058.015   108558822.380        2806.678          43.000  
G30  20979524.321   110248148.165        3237.824          43.000  
> 2019 11 12 13 36 56.9920000  0 18                     
G 9  18256440.598    95938236.790       -1723.244          52.000  
G 4  17984439.046    94508866.530       -1036.354          47.000  
G 7  19053424.945   100126413.829        1689.402          50.000  
G 2  21001112.526   110361595.822       -1783.553          41.000  
G23  20078506.802   105513265.896       -2929.784          44.000  
G16  20254875.507   106440090.523       -1126.309          39.000  
G 6  21948037.345   115337701.942       -3786.293          36.000  
E19  21357072.048   112232179.991       -1500.272          42.000  
S23  37026585.234   194576024.217        -257.809          38.000  
E 4  22145815.948   116377059.032        1518.189          45.000  
E21  22453515.698   117994036.322        1403.171          44.000  
E27  22946979.490   120587184.720       -1602.119          40.000  
E36  24068075.561   126478647.154           6.503          29.000  
E 1  25256479.442   132723677.933        3090.482          34.000  
S36  37195465.353   195463496.522        -258.561          37.000  
G26  21814391.354   114635370.747       -2817.727          32.000  
G 5  20657524.126   108556015.759        2806.329          43.000  
G30  20978908.294   110244910.213        3237.889          43.000  
> 2019 11 12 13 36 57.9920000  0 18                     
G 9  18256768.426    95939960.169       -1723.326          52.000  
G 4  17984636.155    94509903.110       -1036.420          47.000  
G 7  19053103.660   100124724.665        1689.221          50.000  
G 2  21001452.047   110363379.607       -1783.702          41.000  
G23  20079064.127   105516195.709       -2929.652          44.000  
G16  20255089.272   106441216.803       -1126.198          39.000  
G 6  21948757.472   115341488.519       -3786.108          37.000  
E19  21357357.446   112233680.303       -1500.038          42.000  
S23  37026634.714   194576281.990        -257.305          38.000  
E 4  22145526.675   116375540.886        1518.230          45.000  
E21  22453248.701   117992633.373        1403.004          44.000  
E27  22947284.189   120588786.785       -1602.173          40.000  
E36  24068075.500   126478640.800           6.506          29.000  
E 1  25255891.326   132720587.650        3090.453          34.000  
S36  37195514.536   195463754.579        -257.803          37.000  
G26  21814927.486   114638189.392       -2818.831          31.000  
G 5  20656989.434   108553209.425        2806.463          43.000  
G30  20978292.222   110241672.430        3238.226          43.000  
> 2019 11 12 13 36 58.9920000  0 18                     
G 9  18257096.325    95941683.664       -1723.561          52.000  
G 4  17984833.648    94510939.840       -1036.789          47.000  
G 7  19052782.297   100123035.588        1688.998          50.000  
G 2  21001791.733   110365163.538       -1784.183          41.000  
G23  20079621.452   105519125.446       -2929.765          44.000  
G16  20255303.823   106442343.473       -1126.833          39.000  
G 6  21949478.236   115345274.877       -3785.785          37.000  
E19  21357642.801   112235180.577       -1500.268          42.000  
S23  37026683.749   194576539.422        -257.017          38.000  
E 4  22145237.639   116374022.619        1518.260          45.000  
E21  22452981.878   117991230.480        1402.952          44.000  
E27  22947588.852   120590388.953       -1602.303          40.000  
E36  24068069.802   126478634.586           6.074          29.000  
E 1  25255303.297   132717497.083        3090.458          34.000  
S36  37195563.702   195464012.281        -257.906          37.000  
G26  21815463.644   114641008.090       -2818.985          31.000  
G 5  20656455.684   108550403.087        2806.286          43.000  
G30  20977675.837   110238434.497        3237.835          43.000  
> 2019 11 12 13 36 59.9920000  0 19                     
G 9  18257424.398    95943407.601       -1724.379          52.000  
G 4  17985031.298    94511977.039       -1037.598          47.000  
G 7  19052460.960   100121346.946        1688.197          50.000  
G 2  21002130.895   110366947.953       -1785.051          41.000  
G23  20080178.865   105522055.441       -2930.352          44.000  
G16  20255518.487   106443470.842       -1127.659          39.000  
G 6  21950198.773   115349061.442       -3787.411          37.000  
E19  21357928.338   112236681.123       -1500.860          42.000  
S23  37026732.715   194576796.812        -257.742          38.000  
E 4  22144948.759   116372504.569        1517.747          45.000  
E21  22452714.934   117989828.016        1401.910          44.000  
E27  22947894.100   120591991.524       -1603.057          40.000  
E36  24068073.589   126478628.877           5.450          29.000  
E 1  25254715.321   132714406.550        3090.070          34.000  
S36  37195613.008   195464269.921        -258.241          37.000  
G26  21816000.238   114643827.236       -2819.716          31.000  
G 5  20655921.795   108547597.093        2805.625          43.000  
G30  20977059.713   110235196.736        3237.491          43.000  
G29  22273125.732                3      -1751.543          34.000  
> 2019 11 12 13 37  0.9920000  0 19                     
G 9  18257752.662    95945132.001       -1724.438          52.000  
G 4  17985228.721    94513014.718       -1037.781          47.000  
G 7  19052139.631   100119658.745        1688.088          50.000  
G 2  21002470.598   110368732.846       -1784.936          41.000  
G23  20080736.294   105524985.698       -2930.424          44.000  
G16  20255733.377   106444598.948       -1128.427          39.000  
G 6  21950918.978   115352848.078       -3786.765          36.000  
E19  21358213.667   112238181.962       -1500.742          42.000  
S23  37026781.540   194577054.169        -257.067          38.000  
E 4  22144660.176   116370986.756        1517.632          45.000  
E21  22452448.015   117988425.942        1401.947          44.000  
E27  22948199.016   120593594.510       -1603.052          40.000  
E36  24068072.385   126478623.677           5.062          29.000  
E 1  25254126.934   132711316.070        3090.414          34.000  
S36  37195661.737   195464527.513        -257.512          37.000  
G26  21816536.762   114646646.813       -2819.972          31.000  
G 5  20655388.019   108544791.416        2805.718          43.000  
G30  20976443.930   110231959.181        3237.705          43.000  
G29  22273459.022                3      -1752.148          35.000  
> 2019 11 12 13 37  1.9920000  0 19                     
G 9  18258080.884    95946856.528       -1724.948          52.000  
G 4  17985426.170    94514052.537       -1038.232          47.000  
G 7  19051818.573   100117970.633        1687.678          50.000  
G 2  21002810.267   110370517.897       -1785.415          41.000  
G23  20081293.567   105527915.884       -2930.577          44.000  
G16  20255948.085   106445727.406       -1129.138          40.000  
G 6  21951639.236   115356634.560       -3786.614          36.000  
E19  21358499.310   112239682.763       -1501.137          41.000  
S23  37026830.680   194577311.163        -257.435          38.000  
E 4  22144370.982   116369468.824        1517.560          45.000  
E21  22452181.402   117987023.946        1401.714          44.000  
E27  22948504.273   120595197.597       -1603.431          40.000  
E36  24068081.189   126478618.629           4.582          30.000  
E 1  25253538.653   132708225.279        3090.879          34.000  
S36  37195710.764   195464784.699        -257.239          37.000  
G26  21817073.392   114649466.480       -2820.075          32.000  
G 5  20654853.929   108541985.747        2805.378          43.000  
G30  20975827.562   110228721.507        3237.350          43.000  
G29  22273792.496   117049569.5262      -1752.133          34.000  
> 2019 11 12 13 37  2.9920000  0 19                     
G 9  18258409.166    95948581.543       -1725.281          52.000  
G 4  17985623.715    94515090.895       -1038.698          47.000  
G 7  19051497.315   100116283.016        1687.228          50.000  
G 2  21003149.857   110372303.501       -1786.216          41.000  
G23  20081851.276   105530846.373       -2930.770          44.000  
G16  20256163.167   106446856.610       -1129.649          40.000  
G 6  21952360.000   115360421.244       -3786.932          36.000  
E19  21358784.882   112241183.882       -1501.248          42.000  
S23  37026879.637   194577568.181        -257.043          38.000  
E 4  22144082.085   116367951.160        1517.428          45.000  
E21  22451914.475   117985622.417        1401.210          44.000  
E27  22948809.111   120596801.140       -1603.851          40.000  
E36  24068073.659   126478614.128           3.840          30.000  
E 1  25252949.996   132705134.616        3090.545          33.000  
S36  37195759.590   195465041.897        -257.614          37.000  
G26  21817608.956   114652286.631       -2819.980          31.000  
G 5  20654320.083   108539180.477        2804.971          43.000  
G30  20975211.709   110225484.064        3237.188          43.000  
G29  22274125.909   117051322.6752      -1753.682          34.000  
> 2019 11 12 13 37  3.9920000  0 19                     
G 9  18258737.622    95950307.058       -1725.735          52.000  
G 4  17985821.775    94516129.765       -1039.204          47.000  
G 7  19051176.022   100114595.859        1686.918          50.000  
G 2  21003489.456   110374089.600       -1786.380          41.000  
G23  20082409.002   105533777.161       -2930.944          44.000  
G16  20256378.206   106447986.590       -1130.648          39.000  
G 6  21953080.328   115364208.130       -3787.335          36.000  
E19  21359070.682   112242685.350       -1501.474          42.000  
S23  37026928.646   194577825.190        -256.869          37.000  
E 4  22143793.537   116366433.768        1517.337          45.000  
E21  22451648.158   117984221.326        1401.016          44.000  
E27  22949114.350   120598405.135       -1604.142          40.000  
E36  24068069.497   126478610.135           4.234          30.000  
E 1  25252361.609   132702044.029        3090.743          34.000  
S36  37195808.502   195465299.029        -257.140          37.000  
G26  21818146.379   114655107.340       -2821.775          31.000  
G 5  20653786.132   108536375.553        2804.712          43.000  
G30  20974595.917   110222246.821        3237.354          43.000  
G29  22274459.496   117053076.3022      -1753.374          35.000  
> 2019 11 12 13 37  4.9920000  0 19                     
G 9  18259065.905    95952032.932       -1726.494          52.000  
G 4  17986019.434    94517169.010       -1039.902          47.000  
G 7  19050854.999   100112909.045        1686.155          50.000  
G 2  21003829.237   110375876.083       -1787.108          41.000  
G23  20082966.476   105536708.110       -2931.365          44.000  
G16  20256593.176   106449117.145       -1131.281          39.000  
G 6  21953800.812   115367995.039       -3787.253          36.000  
E19  21359356.560   112244186.996       -1502.290          42.000  
S23  37026977.053   194578082.080        -257.478          38.000  
E 4  22143504.876   116364916.497        1516.739          45.000  
E21  22451381.440   117982820.551        1400.240          44.000  
E27  22949419.938   120600009.448       -1604.763          40.000  
E36  24068076.407   126478606.572           2.922          30.000  
E 1  25251773.188   132698953.400        3090.446          33.000  
S36  37195857.407   195465556.071        -257.477          37.000  
G26  21818683.244   114657928.313       -2821.531          31.000  
G 5  20653252.391   108533570.860        2804.145          43.000  
G30  20973979.907   110219009.703        3236.555          43.000  
G29  22274792.899   117054830.4802      -1755.086          34.000  
> 2019 11 12 13 37  5.9920000  0 19                     
G 9  18259394.492    95953759.336       -1726.446          52.000  
G 4  17986217.197    94518208.816       -1039.922          47.000  
G 7  19050534.054   100111222.741        1686.304          50.000  
G 2  21004169.307   110377663.154       -1787.287          41.000  
G23  20083524.071   105539639.400       -2931.124          44.000  
G16  20256808.389   106450248.488       -1131.607          40.000  
G 6  21954521.515   115371782.185       -3786.566          36.000  
E19  21359642.299   112245689.013       -1502.131          42.000  
S23  37027026.280   194578338.989        -256.672          38.000  
E 4  22143216.170   116363399.544        1516.976          45.000  
E21  22451114.679   117981420.267        1400.219          44.000  
E27  22949725.247   120601614.274       -1605.214          40.000  
E36  24068072.524   126478603.586           2.407          30.000  
E 1  25251185.194   132695862.899        3090.576          34.000  
S36  37195906.372   195465813.155        -256.930          37.000  
G26  21819221.121   114660749.889       -2822.375          31.000  
G 5  20652718.694   108530766.602        2804.276          43.000  
G30  20973363.731   110215772.851        3236.928          43.000  
G29  22275126.399   117056585.2372      -1754.297          34.000  
> 2019 11 12 13 37  6.9920000  0 19                     
G 9  18259723.054    95955486.056       -1726.991          52.000  
G 4  17986415.143    94519248.956       -1040.483          47.000  
G 7  19050213.607   100109536.724        1685.812          50.000  
G 2  21004509.700   110379450.538       -1787.784          41.000  
G23  20084081.955   105542570.817       -2931.512          44.000  
G16  20257023.699   106451380.407       -1132.474          39.000  
G 6  21955241.973   115375569.399       -3787.429          36.000  
E19  21359927.784   112247191.160       -1502.369          42.000  
S23  37027075.140   194578595.759        -257.173          37.000  
E 4  22142927.579   116361882.667        1516.631          45.000  
E21  22450848.118   117980020.246        1399.732          44.000  
E27  22950030.835   120603219.360       -1605.513          40.000  
E36  24068078.484   126478600.888           2.103          30.000  
E 1  25250596.686   132692772.290        3090.613          33.000  
S36  37195955.398   195466070.065        -256.859          37.000  
G26  21819758.352   114663571.645       -2822.073          32.000  
G 5  20652184.708   108527962.522        2803.971          43.000  
G30  20972747.869   110212536.047        3236.380          43.000  
G29  22275461.557   117058340.4052      -1754.889          34.000  
> 2019 11 12 13 37  7.9920000  0 19                     
G 9  18260051.528    95957213.377       -1727.516          52.000  
G 4  17986613.282    94520289.720       -1040.861          47.000  
G 7  19049892.584   100107851.299        1685.262          50.000  
G 2  21004850.276   110381238.560       -1788.091          41.000  
G23  20084639.891   105545502.650       -2931.895          44.000  
G16  20257239.078   106452513.164       -1132.975          39.000  
G 6  21955962.440   115379356.823       -3787.103          36.000  
E19  21360213.549   112248693.746       -1502.545          42.000  
S23  37027123.957   194578852.597        -256.355          37.000  
E 4  22142638.847   116360366.151        1516.462          45.000  
E21  22450581.906   117978620.782        1399.322          44.000  
E27  22950336.144   120604824.998       -1605.809          40.000  
E36  24068074.540   126478598.889           1.916          30.000  
E 1  25250008.535   132689681.932        3090.012          33.000  
S36  37196004.364   195466327.091        -256.852          37.000  
G26  21820293.969   114666394.044       -2822.366          31.000  
G 5  20651651.220   108525158.930        2803.536          43.000  
G30  20972132.173   110209299.579        3236.477          43.000  
G29  22275793.722   117060096.4022      -1756.082          34.000  
> 2019 11 12 13 37  8.9920000  0 19                     
G 9  18260380.447    95958941.137       -1728.084          52.000  
G 4  17986811.333    94521330.947       -1041.462          47.000  
G 7  19049571.806   100106166.282        1684.767          50.000  
G 2  21005190.791   110383027.049       -1788.851          41.000  
G23  20085197.870   105548434.701       -2932.146          44.000  
G16  20257454.518   106453646.613       -1133.576          39.000  
G 6  21956683.213   115383144.451       -3787.777          36.000  
E19  21360499.558   112250196.615       -1503.117          42.000  
S23  37027172.722   194579109.450        -257.032          37.000  
E 4  22142350.326   116358849.851        1516.189          45.000  
E21  22450315.572   117977221.711        1398.822          44.000  
E27  22950641.724   120606431.033       -1606.138          40.000  
E36  24068077.175   126478597.327           1.868          30.000  
E 1  25249420.305   132686591.546        3090.272          33.000  
S36  37196053.565   195466584.075        -257.516          37.000  
G26  21820830.650   114669216.903       -2823.266          31.000  
G 5  20651117.767   108522355.650        2803.146          43.000  
G30  20971516.469   110206063.279        3236.362          43.000  
G29  22276127.780   117061852.8392      -1756.090          34.000  
> 2019 11 12 13 37  9.9920000  0 19                     
G 9  18260709.113    95960669.104       -1728.483          52.000  
G 4  17987009.393    94522372.409       -1041.969          47.000  
G 7  19049251.341   100104481.460        1684.329          50.000  
G 2  21005531.157   110384815.767       -1789.189          41.000  
G23  20085755.928   105551366.778       -2932.357          44.000  
G16  20257670.064   106454780.539       -1134.413          39.000  
G 6  21957403.994   115386931.936       -3787.764          36.000  
E19  21360785.593   112251699.520       -1503.326          42.000  
S23  37027221.111   194579365.983        -256.893          37.000  
E 4  22142061.987   116357333.528        1515.987          45.000  
E21  22450049.526   117975822.807        1398.426          44.000  
E27  22950947.190   120608037.258       -1606.670          40.000  
E36  24068076.268   126478596.070           0.598          30.000  
E 1  25248832.224   132683500.969        3090.502          33.000  
S36  37196102.486   195466840.704        -256.537          38.000  
G26  21821367.689   114672039.894       -2823.567          31.000  
G 5  20650584.227   108519552.456        2802.943          43.000  
G30  20970900.511   110202826.950        3236.068          43.000  
G29  22276459.509   117063609.7342      -1757.331          34.000  
> 2019 11 12 13 37 10.9920000  0 19                     
G 9  18261038.181    95962397.662       -1728.730          52.000  
G 4  17987207.898    94523414.493       -1042.268          47.000  
G 7  19048930.728   100102797.209        1684.094          50.000  
G 2  21005872.021   110386605.134       -1789.637          41.000  
G23  20086313.890   105554299.253       -2932.520          44.000  
G16  20257885.984   106455915.308       -1134.958          39.000  
G 6  21958124.679   115390719.728       -3787.488          36.000  
E19  21361071.603   112253202.847       -1503.583          42.000  
S23  37027270.111   194579622.646        -256.688          37.000  
E 4  22141773.299   116355817.570        1515.958          45.000  
E21  22449783.288   117974424.439        1398.288          44.000  
E27  22951252.804   120609644.045       -1607.019          40.000  
E36  24068077.445   126478595.441          -0.712          30.000  
E 1  25248244.789   132680410.589        3090.484          34.000  
S36  37196151.120   195467097.503        -256.551          38.000  
G26  21821905.252   114674863.526       -2824.323          31.000  
G 5  20650050.913   108516749.756        2802.579          43.000  
G30  20970284.579   110199590.938        3235.935          43.000  
G29  22276797.197   117065367.2242      -1758.009          34.000  
> 2019 11 12 13 37 11.9920000  0 19                     
G 9  18261367.396    95964126.711       -1729.151          52.000  
G 4  17987406.455    94524457.086       -1042.646          47.000  
G 7  19048610.360   100101113.433        1683.735          50.000  
G 2  21006212.780   110388395.013       -1790.109          41.000  
G23  20086871.896   105557232.010       -2932.392          44.000  
G16  20258102.052   106457050.840       -1135.793          39.000  
G 6  21958845.600   115394507.709       -3787.508          36.000  
E19  21361357.917   112254706.495       -1503.521          42.000  
S23  37027318.894   194579879.282        -256.012          38.000  
E 4  22141484.926   116354301.879        1515.734          45.000  
E21  22449517.199   117973026.532        1397.858          44.000  
E27  22951558.428   120611251.269       -1607.354          41.000  
E36  24068076.023   126478595.243           0.299          30.000  
E 1  25247656.507   132677320.308        3090.657          33.000  
S36  37196200.321   195467354.354        -256.993          38.000  
G26  21822442.736   114677687.595       -2823.715          31.000  
G 5  20649517.687   108513947.412        2802.252          43.000  
G30  20969668.604   110196355.152        3236.113          43.000  
G29  22277129.187   117067125.3392      -1757.604          34.000  
> 2019 11 12 13 37 12.9920000  0 19                     
G 9  18261696.429    95965856.101       -1729.499          52.000  
G 4  17987604.917    94525500.045       -1042.999          47.000  
G 7  19048290.043   100099429.970        1683.395          50.000  
G 2  21006553.583   110390185.247       -1790.184          42.000  
G23  20087429.814   105560164.938       -2932.958          44.000  
G16  20258318.514   106458186.938       -1136.296          39.000  
G 6  21959566.504   115398295.727       -3787.638          36.000  
E19  21361644.057   112256210.328       -1503.755          42.000  
S23  37027367.615   194580135.793        -256.057          38.000  
E 4  22141196.683   116352786.303        1515.498          45.000  
E21  22449250.856   117971628.929        1397.462          44.000  
E27  22951864.382   120612858.796       -1607.632          41.000  
E36  24068078.405   126478595.521          -0.713          30.000  
E 1  25247068.470   132674229.980        3090.142          33.000  
S36  37196249.251   195467611.204        -256.474          38.000  
G26  21822980.264   114680512.012       -2824.199          31.000  
G 5  20648984.661   108511145.268        2802.080          43.000  
G30  20969052.637   110193119.476        3235.662          43.000  
G29  22277465.933   117068883.4131      -1757.975          34.000  
> 2019 11 12 13 37 13.9920000  0 19                     
G 9  18262025.540    95967586.000       -1730.135          52.000  
G 4  17987803.727    94526543.541       -1043.882          48.000  
G 7  19047969.692   100097746.992        1682.747          50.000  
G 2  21006894.377   110391976.043       -1791.221          42.000  
G23  20087987.750   105563098.151       -2933.268          44.000  
G16  20258535.018   106459323.798       -1137.205          39.000  
G 6  21960287.381   115402083.995       -3788.879          36.000  
E19  21361930.328   112257714.479       -1504.167          42.000  
S23  37027416.275   194580392.364        -256.744          38.000  
E 4  22140908.589   116351270.985        1515.324          45.000  
E21  22448985.299   117970231.757        1396.958          44.000  
E27  22952170.913   120614466.797       -1608.279          41.000  
E36  24068077.646   126478596.318          -1.303          31.000  
E 1  25246480.520   132671139.727        3089.993          34.000  
S36  37196298.156   195467868.066        -257.198          37.000  
G26  21823517.661   114683336.961       -2825.850          31.000  
G 5  20648451.479   108508343.519        2801.613          43.000  
G30  20968437.325   110189884.009        3235.452          44.000  
G29  22277799.275   117070642.670       -1760.322          34.000  
> 2019 11 12 13 37 14.9920000  0 19                     
G 9  18262354.704    95969316.406       -1730.616          52.000  
G 4  17988002.215    94527587.571       -1044.424          48.000  
G 7  19047649.420   100096064.526        1682.169          50.000  
G 2  21007235.293   110393767.383       -1791.837          41.000  
G23  20088545.747   105566031.700       -2933.602          44.000  
G16  20258751.541   106460461.426       -1137.932          39.000  
G 6  21961008.118   115405872.390       -3788.954          36.000  
E19  21362216.546   112259219.002       -1504.755          42.000  
S23  37027465.222   194580648.948        -257.018          38.000  
E 4  22140619.971   116349755.971        1514.925          45.000  
E21  22448719.453   117968835.077        1396.464          44.000  
E27  22952477.216   120616075.268       -1608.654          41.000  
E36  24068077.751   126478597.659          -1.451          31.000  
E 1  25245892.500   132668049.587        3089.738          34.000  
S36  37196347.069   195468124.844        -256.802          37.000  
G26  21824055.468   114686162.331       -2825.651          31.000  
G 5  20647918.418   108505542.177        2801.194          43.000  
G30  20967822.100   110186648.820        3234.936          44.000  
G29  22278133.578   117072402.436       -1760.426          34.000  
> 2019 11 12 13 37 15.9920000  0 19                     
G 9  18262684.111    95971047.197       -1731.167          52.000  
G 4  17988200.842    94528631.995       -1044.741          47.000  
G 7  19047329.348   100094382.400        1681.833          50.000  
G 2  21007576.506   110395559.104       -1792.081          41.000  
G23  20089104.005   105568965.435       -2934.061          44.000  
G16  20258968.325   106461599.703       -1138.706          40.000  
G 6  21961728.865   115409660.881       -3788.590          36.000  
E19  21362502.887   112260723.726       -1505.006          42.000  
S23  37027514.223   194580905.327        -256.212          38.000  
E 4  22140331.632   116348241.100        1514.633          45.000  
E21  22448453.896   117967438.727        1396.009          44.000  
E27  22952783.058   120617684.083       -1609.126          40.000  
E36  24068078.379   126478599.431          -1.785          31.000  
E 1  25245304.872   132664959.376        3090.144          34.000  
S36  37196395.711   195468381.579        -256.921          37.000  
G26  21824593.292   114688988.070       -2825.751          32.000  
G 5  20647385.183   108502741.067        2801.011          43.000  
G30  20967206.465   110183413.734        3234.796          44.000  
G29  22278469.634   117074162.719       -1759.694          34.000  
> 2019 11 12 13 37 16.9920000  0 19                     
G 9  18263013.467    95972778.583       -1731.505          52.000  
G 4  17988399.687    94529677.057       -1045.244          47.000  
G 7  19047009.320   100092700.868        1681.338          50.000  
G 2  21007917.544   110397351.485       -1792.651          41.000  
G23  20089662.656   105571899.576       -2934.268          44.000  
G16  20259185.135   106462738.811       -1139.354          40.000  
G 6  21962449.873   115413449.687       -3788.826          36.000  
E19  21362789.236   112262228.892       -1505.267          42.000  
S23  37027562.987   194581161.921        -256.427          37.000  
E 4  22140044.000   116346726.598        1514.500          45.000  
E21  22448188.408   117966042.932        1395.579          44.000  
E27  22953089.239   120619293.468       -1609.691          40.000  
E36  24068078.300   126478601.884          -2.919          30.000  
E 1  25244717.140   132661869.438        3089.823          34.000  
S36  37196444.545   195468638.397        -256.534          37.000  
G26  21825131.213   114691814.459       -2826.561          32.000  
G 5  20646852.061   108499940.470        2800.410          43.000  
G30  20966590.935   110180178.993        3234.676          44.000  
G29  22278807.636   117075923.881       -1762.594          34.000  
> 2019 11 12 13 37 17.9920000  0 19                     
G 9  18263342.622    95974510.438       -1732.052          52.000  
G 4  17988598.724    94530722.592       -1045.773          47.000  
G 7  19046689.501   100091019.762        1680.963          50.000  
G 2  21008258.801   110399144.334       -1793.038          41.000  
G23  20090221.090   105574833.966       -2934.357          44.000  
G16  20259401.841   106463878.645       -1140.169          40.000  
G 6  21963171.012   115417238.646       -3789.049          36.000  
E19  21363075.978   112263734.343       -1505.515          42.000  
S23  37027611.857   194581418.449        -256.453          37.000  
E 4  22139755.565   116345212.334        1514.276          45.000  
E21  22447922.650   117964647.552        1395.162          44.000  
E27  22953395.874   120620903.263       -1609.969          40.000  
E36  24068079.042   126478604.780          -2.591          30.000  
E 1  25244129.007   132658779.502        3090.282          34.000  
S36  37196493.179   195468895.227        -256.669          37.000  
G26  21825669.098   114694641.236       -2826.971          32.000  
G 5  20646319.062   108497140.199        2800.136          43.000  
G30  20965975.213   110176944.454        3234.470          44.000  
G29  22279144.687   117077685.487       -1762.411          34.000  
> 2019 11 12 13 37 18.9920000  0 19                     
G 9  18263672.291    95976242.790       -1732.274          52.000  
G 4  17988797.901    94531768.680       -1046.266          47.000  
G 7  19046369.516   100089339.154        1680.674          50.000  
G 2  21008599.804   110400937.739       -1793.594          41.000  
G23  20090779.549   105577768.682       -2934.478          44.000  
G16  20259618.921   106465019.237       -1140.576          40.000  
G 6  21963892.290   115421027.783       -3788.140          36.000  
E19  21363362.755   112265240.134       -1505.694          42.000  
S23  37027660.892   194581675.021        -256.512          38.000  
E 4  22139467.646   116343698.361        1513.982          45.000  
E21  22447657.058   117963252.640        1394.950          44.000  
E27  22953702.457   120622513.543       -1610.266          40.000  
E36  24068079.679   126478608.272          -3.771          31.000  
E 1  25243541.170   132655689.728        3089.890          34.000  
S36  37196542.066   195469151.997        -256.017          38.000  
G26  21826206.993   114697468.543       -2827.020          32.000  
G 5  20645786.333   108494340.322        2799.907          43.000  
G30  20965359.892   110173710.162        3234.425          44.000  
G29  22279478.283   117079447.672       -1762.212          34.000  
> 2019 11 12 13 37 19.9920000  0 19                     
G 9  18264001.882    95977974.814       -1732.382          52.000  
G 4  17988997.034    94532814.423       -1045.929          47.000  
G 7  19046049.715   100087658.177        1680.765          50.000  
G 2  21008941.052   110402730.811       -1793.503          41.000  
G23  20091337.834   105580702.854       -2934.177          44.000  
G16  20259836.194   106466159.721       -1140.693          40.000  
G 6  21964613.246   115424816.331       -3788.794          36.000  
E19  21363648.973   112266745.416       -1505.488          42.000  
S23  37027709.892   194581930.733        -255.447          38.000  
E 4  22139179.682   116342183.799        1514.332          45.000  
E21  22447391.448   117961857.339        1394.949          44.000  
E27  22954008.595   120624123.444       -1610.300          40.000  
E36  24068080.901   126478611.469          -4.580          30.000  
E 1  25242952.251   132652599.158        3090.400          33.000  
S36  37196590.770   195469407.976        -256.314          38.000  
G26  21826745.053   114700295.489       -2827.362          32.000  
G 5  20645253.368   108491539.986        2800.085          43.000  
G30  20964744.414   110170475.271        3234.827          44.000  
G29  22279813.824   117081209.683       -1762.092          34.000  
> 2019 11 12 13 37 20.9920000  0 19                     
G 9  18264331.639    95979707.561       -1733.057          52.000  
G 4  17989196.281    94533860.945       -1046.907          48.000  
G 7  19045729.704   100085977.925        1680.002          50.000  
G 2  21009282.596   110404524.642       -1793.802          42.000  
G23  20091896.372   105583637.559       -2934.808          44.000  
G16  20260053.248   106467301.210       -1141.773          40.000  
G 6  21965334.481   115428605.256       -3789.171          36.000  
E19  21363935.724   112268251.264       -1506.008          42.000  
S23  37027759.040   194582186.704        -256.129          38.000  
E 4  22138891.640   116340669.744        1513.812          45.000  
E21  22447126.310   117960462.723        1394.262          44.000  
E27  22954315.222   120625734.019       -1610.854          41.000  
E36  24068077.733   126478615.365          -4.213          31.000  
E 1  25242364.519   132649508.925        3090.193          34.000  
S36  37196639.421   195469664.141        -256.226          37.000  
G26  21827283.243   114703123.117       -2827.385          33.000  
G 5  20644720.701   108488740.276        2799.304          43.000  
G30  20964128.840   110167240.856        3234.247          44.000  
G29  22280150.291   117082972.541       -1763.735          34.000  
> 2019 11 12 13 37 21.9920000  0 19                     
G 9  18264661.273    95981440.594       -1733.438          52.000  
G 4  17989395.641    94534907.770       -1047.163          48.000  
G 7  19045409.911   100084297.930        1679.700          50.000  
G 2  21009624.193   110406318.810       -1794.514          42.000  
G23  20092455.014   105586572.372       -2935.029          44.000  
G16  20260270.582   106468443.236       -1142.382          40.000  
G 6  21966055.664   115432394.176       -3788.857          36.000  
E19  21364222.152   112269757.245       -1506.197          42.000  
S23  37027807.823   194582442.476        -255.493          38.000  
E 4  22138603.432   116339155.743        1513.842          45.000  
E21  22446861.206   117959068.364        1393.924          44.000  
E27  22954621.935   120627344.867       -1611.378          40.000  
E36  24068087.532   126478619.636          -4.939          31.000  
E 1  25241776.429   132646418.590        3090.247          34.000  
S36  37196687.985   195469920.100        -255.841          37.000  
G26  21827821.085   114705951.082       -2828.259          33.000  
G 5  20644188.102   108485940.702        2799.370          43.000  
G30  20963513.458   110164006.460        3234.121          44.000  
G29  22280485.780   117084735.805       -1763.597          34.000  
> 2019 11 12 13 37 22.9920000  0 19                     
G 9  18264991.170    95983174.784       -1734.596          52.000  
G 4  17989595.088    94535955.765       -1048.427          48.000  
G 7  19045090.860   100082619.071        1678.422          50.000  
G 2  21009965.781   110408114.149       -1795.593          42.000  
G23  20093013.657   105589508.133       -2936.057          44.000  
G16  20260487.942   106469586.675       -1144.054          39.000  
G 6  21966776.838   115436183.956       -3789.707          36.000  
E19  21364509.103   112271264.190       -1507.253          42.000  
S23  37027856.517   194582698.921        -256.672          38.000  
E 4  22138315.591   116337642.670        1512.766          45.000  
E21  22446595.587   117957675.098        1392.906          44.000  
E27  22954928.283   120628956.807       -1612.403          41.000  
E36  24068088.980   126478625.076          -6.212          31.000  
E 1  25241188.026   132643329.002        3089.469          34.000  
S36  37196736.819   195470176.717        -256.636          37.000  
G26  21828359.712   114708780.160       -2829.596          32.000  
G 5  20643655.801   108483142.190        2798.202          43.000  
G30  20962898.364   110160772.940        3233.268          44.000  
G29  22280821.662   117086500.319       -1765.467          34.000  
> 2019 11 12 13 37 23.9920000  0 19                     
G 9  18265321.101    95984909.142       -1734.578          52.000  
G 4  17989794.387    94537003.967       -1048.599          48.000  
G 7  19044771.320   100080940.363        1678.483          50.000  
G 2  21010307.369   110409909.701       -1795.999          42.000  
G23  20093572.378   105592443.876       -2936.025          43.000  
G16  20260705.922   106470730.539       -1144.300          39.000  
G 6  21967498.352   115439973.583       -3789.543          36.000  
E19  21364795.880   112272771.142       -1507.083          42.000  
S23  37027905.186   194582955.058        -256.030          38.000  
E 4  22138027.846   116336129.553        1512.849          45.000  
E21  22446330.396   117956281.954        1392.971          44.000  
E27  22955235.276   120630568.893       -1612.476          41.000  
E36  24068084.679   126478630.728          -5.603          31.000  
E 1  25240599.936   132640239.176        3089.910          34.000  
S36  37196785.671   195470432.955        -255.788          37.000  
G26  21828898.217   114711609.400       -2829.820          32.000  
G 5  20643123.273   108480343.718        2798.422          43.000  
G30  20962282.764   110157539.352        3233.226          43.000  
G29  22281157.535   117088265.057       -1764.729          34.000  
> 2019 11 12 13 37 24.9920000  0 19                     
G 9  18265650.919    95986644.577       -1735.790          52.000  
G 4  17989993.930    94538053.266       -1049.731          48.000  
G 7  19044452.104   100079262.716        1677.223          50.000  
G 2  21010649.446   110411706.352       -1796.990          42.000  
G23  20094131.160   105595380.501       -2937.090          43.000  
G16  20260923.953   106471875.731       -1145.708          39.000  
G 6  21968219.962   115443764.009       -3790.895          37.000  
E19  21365082.683   112274279.025       -1508.235          42.000  
S23  37027953.942   194583211.797        -256.931          38.000  
E 4  22137739.760   116334617.279        1511.908          45.000  
E21  22446065.476   117954889.865        1391.562          44.000  
E27  22955541.981   120632182.021       -1613.682          41.000  
E36  24068086.284   126478637.511          -6.833          31.000  
E 1  25240012.003   132637150.035        3088.985          34.000  
S36  37196834.628   195470689.801        -257.013          38.000  
G26  21829436.871   114714439.666       -2830.531          32.000  
G 5  20642591.093   108477546.240        2796.904          43.000  
G30  20961667.540   110154306.579        3232.564          43.000  
G29  22281493.582   117090031.109       -1766.870          34.000  
> 2019 11 12 13 37 25.9920000  0 19                     
G 9  18265981.635    95988380.201       -1735.849          52.000  
G 4  17990193.578    94539102.773       -1049.722          48.000  
G 7  19044133.105   100077585.238        1677.363          50.000  
G 2  21010991.452   110413503.225       -1797.079          42.000  
G23  20094689.960   105598317.115       -2936.678          43.000  
G16  20261142.011   106473021.365       -1145.929          39.000  
G 6  21968941.302   115447554.290       -3790.040          37.000  
E19  21365369.521   112275786.915       -1508.047          42.000  
S23  37028002.733   194583468.209        -256.715          38.000  
E 4  22137452.364   116333104.953        1512.343          45.000  
E21  22445800.442   117953497.905        1391.851          44.000  
E27  22955848.790   120633795.278       -1613.306          41.000  
E36  24068081.738   126478644.563          -7.437          31.000  
E 1  25239424.044   132634060.670        3089.361          34.000  
S36  37196883.087   195470946.371        -256.319          37.000  
G26  21829975.638   114717270.125       -2830.471          32.000  
G 5  20642058.330   108474748.792        2797.490          42.000  
G30  20961052.114   110151073.736        3232.627          43.000  
G29  22281830.162   117091797.371       -1766.342          34.000  
> 2019 11 12 13 37 26.9920000  0 19                     
G 9  18266312.064    95990116.672       -1736.792          52.000  
G 4  17990393.671    94540153.152       -1050.807          48.000  
G 7  19043813.923   100075908.583        1676.244          50.000  
G 2  21011333.547   110415300.943       -1797.881          42.000  
G23  20095248.864   105601254.370       -2937.537          43.000  
G16  20261360.209   106474168.078       -1147.189          39.000  
G 6  21969663.060   115451345.155       -3791.453          37.000  
E19  21365656.604   112277295.476       -1508.830          42.000  
S23  37028051.419   194583724.957        -256.439          37.000  
E 4  22137164.636   116331593.247        1511.497          45.000  
E21  22445535.966   117952106.745        1390.815          44.000  
E27  22956156.228   120635409.364       -1614.455          41.000  
E36  24068084.408   126478652.446          -8.772          31.000  
E 1  25238836.330   132630971.761        3088.533          34.000  
S36  37196931.782   195471203.338        -257.164          37.000  
G26  21830514.649   114720101.479       -2832.824          31.000  
G 5  20641525.836   108471952.067        2796.565          42.000  
G30  20960437.064   110147841.472        3232.223          43.000  
G29  22282166.472   117093564.647       -1767.914          35.000  
> 2019 11 12 13 37 27.9920000  0 19                     
G 9  18266642.650    95991853.267       -1736.524          52.000  
G 4  17990593.659    94541203.682       -1050.440          48.000  
G 7  19043494.968   100074232.036        1676.564          50.000  
G 2  21011675.562   110417098.847       -1797.767          41.000  
G23  20095807.768   105604191.573       -2936.993          44.000  
G16  20261578.537   106475315.183       -1147.015          39.000  
G 6  21970384.234   115455135.771       -3789.801          37.000  
E19  21365943.250   112278804.001       -1508.237          41.000  
S23  37028099.782   194583981.390        -256.160          38.000  
E 4  22136876.637   116330081.447        1511.989          45.000  
E21  22445271.613   117950715.680        1391.072          44.000  
E27  22956463.151   120637023.525       -1614.165          41.000  
E36  24068087.916   126478660.489          -7.392          30.000  
E 1  25238248.475   132627882.519        3089.480          34.000  
S36  37196980.625   195471460.010        -256.388          37.000  
G26  21831053.372   114722932.779       -2830.543          31.000  
G 5  20640993.910   108469155.368        2796.798          42.000  
G30  20959822.127   110144609.071        3232.878          43.000  
G29  22282502.938   117095332.149       -1767.122          34.000  
> 2019 11 12 13 37 28.9920000  0 19                     
G 9  18266973.331    95993590.545       -1738.125          52.000  
G 4  17990793.438    94542254.926       -1052.145          48.000  
G 7  19043176.170   100072556.151        1675.068          50.000  
G 2  21012017.892   110418897.476       -1799.472          42.000  
G23  20096366.707   105607129.265       -2938.504          43.000  
G16  20261796.796   106476463.227       -1148.939          39.000  
G 6  21971105.992   115458926.857       -3791.697          37.000  
E19  21366230.602   112280313.052       -1509.676          41.000  
S23  37028148.826   194584238.039        -257.413          38.000  
E 4  22136588.944   116328570.104        1510.657          45.000  
E21  22445007.242   117949325.237        1389.638          44.000  
E27  22956770.555   120638638.351       -1615.794          41.000  
E36  24068089.643   126478669.325          -9.842          30.000  
E 1  25237661.049   132624793.637        3088.301          34.000  
S36  37197029.677   195471716.904        -257.533          38.000  
G26  21831592.296   114725764.923       -2832.740          31.000  
G 5  20640462.027   108466359.229        2795.309          43.000  
G30  20959207.303   110141377.122        3231.169          43.000  
G29  22282839.457   117097100.454       -1769.789          34.000  
> 2019 11 12 13 37 29.9920000  0 19                     
G 9  18267304.222    95995328.940       -1738.788          52.000  
G 4  17990994.037    94543307.299       -1052.778          48.000  
G 7  19042857.642   100070881.365        1674.409          50.000  
G 2  21012360.570   110420697.224       -1800.240          42.000  
G23  20096925.838   105610067.861       -2938.828          43.000  
G16  20262015.377   106477612.635       -1149.963          39.000  
G 6  21971828.117   115462718.662       -3791.622          37.000  
E19  21366518.077   112281823.048       -1510.158          42.000  
S23  37028198.097   194584495.255        -257.010          38.000  
E 4  22136301.862   116327059.643        1510.127          45.000  
E21  22444742.872   117947935.874        1389.080          44.000  
E27  22957077.879   120640254.229       -1616.314          41.000  
E36  24068091.790   126478679.273         -10.283          31.000  
E 1  25237073.762   132621705.423        3088.255          34.000  
S36  37197079.044   195471974.376        -257.384          38.000  
G26  21832129.527   114728598.096       -2833.225          31.000  
G 5  20639930.293   108463564.086        2794.885          43.000  
G30  20958592.384   110138145.998        3230.995          43.000  
G29  22283176.464   117098869.965       -1770.269          34.000  
> 2019 11 12 13 37 30.9920000  0 19                     
G 9  18267635.201    95997068.009       -1738.840          52.000  
G 4  17991194.374    94544360.377       -1053.008          48.000  
G 7  19042538.862   100069207.237        1674.277          50.000  
G 2  21012703.362   110422497.687       -1800.531          42.000  
G23  20097485.336   105613006.959       -2938.968          44.000  
G16  20262234.177   106478762.984       -1150.452          39.000  
G 6  21972550.390   115466510.875       -3791.672          37.000  
E19  21366805.255   112283333.568       -1510.559          42.000  
S23  37028247.298   194584752.746        -257.164          38.000  
E 4  22136014.204   116325549.639        1510.122          45.000  
E21  22444478.684   117946547.147        1388.910          44.000  
E27  22957385.806   120641870.764       -1616.508          41.000  
E36  24068093.613   126478689.926         -10.231          31.000  
E 1  25236486.248   132618617.506        3087.841          34.000  
S36  37197128.132   195472232.057        -257.455          38.000  
G26  21832667.744   114731431.917       -2833.468          31.000  
G 5  20639398.585   108460769.518        2794.750          43.000  
G30  20957977.464   110134915.311        3230.787          43.000  
G29  22283513.419   117100640.294       -1770.815          34.000  
> 2019 11 12 13 37 31.9920000  0 19                     
G 9  18267966.397    95998807.490       -1739.380          52.000  
G 4  17991394.903    94545413.902       -1053.486          48.000  
G 7  19042220.116   100067533.501        1673.871          50.000  
G 2  21013046.059   110424298.573       -1800.627          42.000  
G23  20098044.773   105615946.265       -2939.180          44.000  
G16  20262453.133   106479913.990       -1151.279          39.000  
G 6  21973272.175   115470303.194       -3791.992          38.000  
E19  21367092.887   112284844.321       -1510.639          42.000  
S23  37028296.333   194585010.119        -257.500          38.000  
E 4  22135727.252   116324039.804        1510.148          45.000  
E21  22444214.374   117945158.800        1388.281          44.000  
E27  22957693.784   120643487.662       -1616.646          41.000  
E36  24068095.410   126478701.050         -10.955          31.000  
E 1  25235898.969   132615529.584        3087.997          34.000  
S36  37197177.245   195472489.712        -257.383          38.000  
G26  21833208.081   114734266.187       -2833.656          31.000  
G 5  20638867.086   108457975.237        2794.476          43.000  
G30  20957362.353   110131684.769        3230.867          43.000  
G29  22283850.627   117102411.129       -1770.756          34.000  
> 2019 11 12 13 37 32.9920000  0 19                     
G 9  18268297.436    96000547.226       -1740.009          52.000  
G 4  17991595.485    94546467.694       -1054.077          48.000  
G 7  19041901.623   100065860.013        1673.130          50.000  
G 2  21013388.973   110426099.779       -1801.507          42.000  
G23  20098604.192   105618885.623       -2939.667          44.000  
G16  20262672.142   106481065.503       -1151.849          39.000  
G 6  21973994.021   115474095.480       -3792.334          38.000  
E19  21367380.354   112286355.158       -1511.044          42.000  
S23  37028345.778   194585267.220        -256.791          38.000  
E 4  22135439.891   116322530.005        1509.744          45.000  
E21  22443950.178   117943770.651        1387.874          44.000  
E27  22958001.406   120645104.787       -1617.378          41.000  
E36  24068097.496   126478712.448         -11.286          31.000  
E 1  25235311.246   132612441.486        3088.179          34.000  
S36  37197226.638   195472747.124        -257.618          38.000  
G26  21833745.399   114737100.626       -2834.041          31.000  
G 5  20638335.526   108455181.103        2793.845          43.000  
G30  20956747.259   110128454.228        3230.578          43.000  
G29  22284187.704   117104182.304       -1770.840          34.000  
> 2019 11 12 13 37 33.9920000  0 19                     
G 9  18268628.772    96002287.432       -1740.437          52.000  
G 4  17991796.223    94547521.978       -1054.616          48.000  
G 7  19041583.279   100064186.962        1672.806          50.000  
G 2  21013731.555   110427901.441       -1801.961          42.000  
G23  20099163.585   105621825.250       -2939.752          44.000  
G16  20262891.247   106482217.730       -1152.546          38.000  
G 6  21974715.954   115477887.908       -3792.633          38.000  
E19  21367668.212   112287866.283       -1511.205          42.000  
S23  37028394.429   194585524.314        -256.914          38.000  
E 4  22135152.538   116321020.434        1509.533          45.000  
E21  22443686.034   117942382.926        1387.512          44.000  
E27  22958309.097   120646722.326       -1617.642          41.000  
E36  24068099.433   126478724.415         -12.787          30.000  
E 1  25234724.046   132609353.482        3088.083          35.000  
S36  37197275.612   195473004.495        -257.432          38.000  
G26  21834280.606   114739935.593       -2835.338          30.000  
G 5  20637803.940   108452387.291        2793.668          43.000  
G30  20956132.304   110125223.890        3230.274          43.000  
G29  22284524.703   117105954.146       -1772.249          34.000  
> 2019 11 12 13 37 34.9920000  0 19                     
G 9  18268959.908    96004028.003       -1740.717          52.000  
G 4  17991996.945    94548576.661       -1054.952          48.000  
G 7  19041265.066   100062514.273        1672.487          50.000  
G 2  21014074.714   110429703.526       -1802.359          42.000  
G23  20099722.960   105624765.055       -2939.918          44.000  
G16  20263110.422   106483370.583       -1153.013          38.000  
G 6  21975437.756   115481680.395       -3792.466          37.000  
E19  21367955.801   112289377.628       -1511.424          42.000  
S23  37028443.394   194585781.267        -256.522          38.000  
E 4  22134865.412   116319511.029        1509.281          45.000  
E21  22443421.907   117940995.524        1387.287          44.000  
E27  22958617.154   120648340.208       -1617.890          41.000  
E36  24068102.068   126478736.743         -12.484          31.000  
E 1  25234136.009   132606265.461        3088.034          35.000  
S36  37197324.534   195473261.693        -256.816          38.000  
G26  21834822.383   114742770.907       -2836.066          30.000  
G 5  20637272.511   108449593.748        2793.448          43.000  
G30  20955517.271   110121993.664        3230.176          43.000  
G29  22284861.797   117107726.445       -1773.163          34.000  
> 2019 11 12 13 37 35.9920000  0 19                     
G 9  18269291.261    96005768.973       -1741.255          52.000  
G 4  17992198.015    94549631.751       -1055.435          48.000  
G 7  19040947.018   100060841.950        1672.036          50.000  
G 2  21014417.750   110431506.017       -1802.822          42.000  
G23  20100282.545   105627705.049       -2940.393          44.000  
G16  20263330.050   106484524.062       -1154.039          39.000  
G 6  21976159.610   115485472.949       -3792.235          37.000  
E19  21368243.328   112290889.196       -1511.839          42.000  
S23  37028492.237   194586038.200        -257.167          38.000  
E 4  22134578.278   116318001.760        1508.994          45.000  
E21  22443157.711   117939608.482        1386.738          44.000  
E27  22958925.229   120649958.435       -1618.289          41.000  
E36  24068104.807   126478749.502         -13.226          31.000  
E 1  25233548.521   132603177.400        3087.895          35.000  
S36  37197373.394   195473518.833        -257.246          38.000  
G26  21835362.799   114745606.521       -2835.187          30.000  
G 5  20636741.056   108446800.487        2792.772          43.000  
G30  20954902.753   110118763.570        3229.754          43.000  
G29  22285199.058   117109499.206       -1773.219          34.000  
> 2019 11 12 13 37 36.9920000  0 19                     
G 9  18269622.780    96007510.349       -1741.467          52.000  
G 4  17992398.718    94550687.288       -1055.639          48.000  
G 7  19040628.578   100059170.035        1671.746          50.000  
G 2  21014760.848   110433308.954       -1803.182          42.000  
G23  20100842.034   105630645.256       -2940.179          44.000  
G16  20263549.766   106485678.231       -1154.387          39.000  
G 6  21976881.212   115489265.675       -3792.903          37.000  
E19  21368531.021   112292401.007       -1511.847          42.000  
S23  37028541.316   194586295.040        -256.749          38.000  
E 4  22134291.222   116316492.697        1509.094          45.000  
E21  22442893.873   117938221.808        1386.507          44.000  
E27  22959233.339   120651577.060       -1618.677          41.000  
E36  24068107.538   126478762.748         -14.020          31.000  
E 1  25232960.710   132600089.370        3087.566          35.000  
S36  37197422.246   195473775.949        -257.208          37.000  
G26  21835905.064   114748442.579       -2835.757          30.000  
G 5  20636209.313   108444007.518        2792.882          43.000  
G30  20954288.200   110115533.640        3229.808          43.000  
G29  22285536.458   117111272.521       -1773.388          34.000  
> 2019 11 12 13 37 37.9920000  0 19                     
G 9  18269954.116    96009252.057       -1741.914          52.000  
G 4  17992599.631    94551743.178       -1056.204          48.000  
G 7  19040310.155   100057498.417        1671.368          50.000  
G 2  21015103.937   110435112.257       -1803.480          42.000  
G23  20101401.200   105633585.594       -2940.499          44.000  
G16  20263769.508   106486832.979       -1155.312          39.000  
G 6  21977602.656   115493058.379       -3792.711          37.000  
E19  21368819.203   112293912.987       -1512.266          42.000  
S23  37028589.819   194586551.761        -256.588          38.000  
E 4  22134003.834   116314983.718        1508.912          45.000  
E21  22442629.833   117936835.407        1386.251          44.000  
E27  22959541.126   120653195.960       -1619.071          41.000  
E36  24068110.199   126478776.275         -13.225          31.000  
E 1  25232372.708   132597001.228        3088.094          34.000  
S36  37197471.238   195474032.968        -256.950          37.000  
G26  21836442.540   114751278.979       -2836.312          31.000  
G 5  20635678.006   108441214.759        2792.610          43.000  
G30  20953673.534   110112303.751        3229.633          43.000  
G29  22285873.692   117113046.296       -1774.109          34.000  
> 2019 11 12 13 37 38.9920000  0 19                     
G 9  18270285.636    96010994.341       -1742.480          52.000  
G 4  17992800.667    94552799.652       -1056.677          48.000  
G 7  19039991.976   100055827.349        1670.939          50.000  
G 2  21015447.278   110436916.153       -1804.070          42.000  
G23  20101961.003   105636526.296       -2940.576          44.000  
G16  20263989.363   106487988.534       -1155.945          39.000  
G 6  21978324.633   115496851.378       -3792.968          37.000  
E19  21369106.695   112295425.367       -1512.463          42.000  
S23  37028638.313   194586808.527        -256.613          37.000  
E 4  22133716.621   116313475.094        1508.536          45.000  
E21  22442366.213   117935449.544        1385.625          44.000  
E27  22959849.157   120654815.403       -1619.735          42.000  
E36  24068113.122   126478790.520         -14.707          31.000  
E 1  25231784.723   132593913.282        3088.177          34.000  
S36  37197519.688   195474290.074        -257.133          37.000  
G26  21836980.574   114754115.898       -2836.684          32.000  
G 5  20635146.665   108438422.463        2792.032          43.000  
G30  20953059.094   110109074.175        3229.529          43.000  
G29  22286211.336   117114820.704       -1774.558          34.000  
> 2019 11 12 13 37 39.9920000  0 19                     
G 9  18270617.364    96012737.020       -1742.696          52.000  
G 4  17993001.772    94553856.557       -1056.905          48.000  
G 7  19039674.077   100054156.665        1670.769          50.000  
G 2  21015790.690   110438720.480       -1804.427          42.000  
G23  20102520.954   105639467.236       -2940.991          44.000  
G16  20264209.594   106489144.749       -1156.637          39.000  
G 6  21979045.981   115500644.413       -3792.793          37.000  
E19  21369394.693   112296937.970       -1512.541          42.000  
S23  37028686.991   194587065.203        -256.506          37.000  
E 4  22133429.704   116311966.625        1508.738          45.000  
E21  22442103.116   117934064.026        1385.581          44.000  
E27  22960157.642   120656435.185       -1619.618          41.000  
E36  24068116.386   126478805.109         -14.473          31.000  
E 1  25231197.261   132590825.350        3088.171          34.000  
S36  37197568.313   195474547.048        -256.663          37.000  
G26  21837522.665   114756953.218       -2837.612          32.000  
G 5  20634615.279   108435630.433        2792.073          43.000  
G30  20952444.375   110105844.771        3229.534          43.000  
G29  22286548.867   117116595.694       -1775.009          34.000  
> 2019 11 12 13 37 40.9920000  0 19                     
G 9  18270949.023    96014480.051       -1743.220          52.000  
G 4  17993202.720    94554913.859       -1057.675          48.000  
G 7  19039356.204   100052486.334        1670.062          50.000  
G 2  21016134.145   110440525.196       -1805.216          42.000  
G23  20103080.775   105642408.325       -2941.282          44.000  
G16  20264429.650   106490301.580       -1157.093          39.000  
G 6  21979767.993   115504437.567       -3793.459          38.000  
E19  21369682.474   112298450.793       -1513.147          42.000  
S23  37028735.354   194587321.760        -256.420          37.000  
E 4  22133142.526   116310458.320        1508.085          45.000  
E21  22441839.548   117932678.843        1384.800          44.000  
E27  22960466.022   120658055.314       -1620.518          41.000  
E36  24068119.631   126478820.170         -15.338          31.000  
E 1  25230608.892   132587737.380        3087.750          34.000  
S36  37197616.973   195474803.965        -257.225          37.000  
G26  21838066.771   114759790.866       -2838.301          32.000  
G 5  20634083.650   108432838.674        2791.397          43.000  
G30  20951829.595   110102615.460        3229.127          43.000  
G29  22286886.642   117118371.169       -1776.475          34.000  
> 2019 11 12 13 37 41.9920000  0 19                     
G 9  18271280.944    96016223.668       -1743.866          52.000  
G 4  17993404.217    94555971.738       -1058.173          48.000  
G 7  19039038.400   100050816.542        1669.500          50.000  
G 2  21016477.958   110442330.503       -1805.431          42.000  
G23  20103640.473   105645349.786       -2941.590          44.000  
G16  20264649.749   106491459.232       -1158.065          39.000  
G 6  21980489.716   115508230.918       -3793.457          38.000  
E19  21369970.280   112299964.000       -1513.329          42.000  
S23  37028783.743   194587578.401        -256.752          37.000  
E 4  22132855.592   116308950.345        1507.729          45.000  
E21  22441576.556   117931294.177        1384.394          44.000  
E27  22960774.655   120659675.951       -1620.920          41.000  
E36  24068123.942   126478835.790         -15.873          30.000  
E 1  25230021.692   132584649.544        3087.791          35.000  
S36  37197665.729   195475061.034        -257.322          37.000  
G26  21838607.004   114762629.073       -2838.319          32.000  
G 5  20633552.343   108430047.350        2791.214          43.000  
G30  20951215.182   110099386.457        3228.970          43.000  
G29  22287224.513   117120147.244       -1776.307          34.000  
> 2019 11 12 13 37 42.9920000  0 19                     
G 9  18271612.707    96017967.707       -1743.922          52.000  
G 4  17993605.654    94557030.087       -1058.271          48.000  
G 7  19038720.641   100049147.174        1669.407          50.000  
G 2  21016821.614   110444136.287       -1805.639          42.000  
G23  20104200.285   105648291.484       -2941.664          44.000  
G16  20264870.111   106492617.562       -1158.671          39.000  
G 6  21981211.614   115512024.441       -3793.314          38.000  
E19  21370258.095   112301477.464       -1513.347          42.000  
S23  37028832.063   194587835.033        -256.959          37.000  
E 4  22132568.728   116307442.581        1507.775          45.000  
E21  22441312.865   117929909.911        1384.356          44.000  
E27  22961083.358   120661297.002       -1621.207          41.000  
E36  24068133.749   126478851.942         -16.212          30.000  
E 1  25229434.056   132581561.777        3087.356          35.000  
S36  37197714.756   195475318.061        -256.851          37.000  
G26  21839145.291   114765467.702       -2838.996          32.000  
G 5  20633021.429   108427256.337        2791.105          43.000  
G30  20950600.585   110096157.649        3228.835          43.000  
G29  22287562.367   117121923.907       -1777.328          34.000  
> 2019 11 12 13 37 43.9920000  0 19                     
G 9  18271944.724    96019712.021       -1744.624          52.000  
G 4  17993806.829    94558088.724       -1058.863          48.000  
G 7  19038403.099   100047478.064        1668.809          50.000  
G 2  21017165.296   110445942.374       -1806.274          42.000  
G23  20104760.061   105651233.256       -2941.989          44.000  
G16  20265090.455   106493776.412       -1159.039          39.000  
G 6  21981933.914   115515817.947       -3793.871          38.000  
E19  21370546.242   112302991.061       -1513.704          42.000  
S23  37028880.627   194588091.351        -256.382          37.000  
E 4  22132281.393   116305934.859        1507.545          45.000  
E21  22441049.315   117928525.874        1383.750          44.000  
E27  22961391.948   120662918.281       -1621.575          42.000  
E36  24068134.926   126478868.376         -16.734          29.000  
E 1  25228846.472   132578473.834        3088.118          34.000  
S36  37197763.372   195475574.960        -257.013          37.000  
G26  21839685.855   114768306.597       -2839.300          32.000  
G 5  20632490.541   108424465.485        2790.646          43.000  
G30  20949985.823   110092928.833        3228.791          42.000  
G29  22287900.491   117123700.934       -1777.537          34.000  
> 2019 11 12 13 37 44.9920000  0 19                     
G 9  18272276.836    96021456.990       -1745.209          52.000  
G 4  17994008.161    94559148.057       -1059.589          47.000  
G 7  19038085.514   100045809.595        1668.204          50.000  
G 2  21017508.917   110447749.135       -1806.939          41.000  
G23  20105319.908   105654175.509       -2942.395          44.000  
G16  20265311.217   106494936.185       -1160.170          40.000  
G 6  21982655.820   115519611.779       -3794.469          38.000  
E19  21370834.598   112304505.130       -1514.269          42.000  
S23  37028929.461   194588347.926        -256.775          37.000  
E 4  22131994.564   116304427.565        1507.209          45.000  
E21  22440786.244   117927142.443        1383.165          44.000  
E27  22961700.546   120664540.163       -1622.065          41.000  
E36  24068136.863   126478885.478         -17.049          29.000  
E 1  25228259.037   132575386.185        3087.512          35.000  
S36  37197812.328   195475831.989        -256.861          38.000  
G26  21840227.108   114771146.150       -2840.274          31.000  
G 5  20631959.487   108421675.194        2789.896          43.000  
G30  20949371.148   110089700.431        3228.195          42.000  
G29  22288239.051   117125478.739       -1778.197          34.000  
> 2019 11 12 13 37 45.9920000  0 19                     
G 9  18272609.385    96023202.368       -1745.632          52.000  
G 4  17994209.772    94560207.810       -1059.944          47.000  
G 7  19037768.382   100044141.502        1667.945          50.000  
G 2  21017852.389   110449556.328       -1807.165          41.000  
G23  20105879.720   105657117.946       -2942.498          44.000  
G16  20265532.128   106496096.608       -1160.385          39.000  
G 6  21983378.015   115523405.705       -3794.021          38.000  
E19  21371122.727   112306019.445       -1514.353          42.000  
S23  37028977.572   194588604.395        -256.169          37.000  
E 4  22131707.682   116302920.455        1506.954          45.000  
E21  22440523.112   117925759.385        1382.916          44.000  
E27  22962008.944   120666162.438       -1622.389          41.000  
E36  24068136.785   126478903.155         -18.190          30.000  
E 1  25227671.776   132572298.493        3087.671          34.000  
S36  37197861.023   195476088.899        -256.624          37.000  
G26  21840767.681   114773986.004       -2839.161          32.000  
G 5  20631428.320   108418885.164        2789.946          43.000  
G30  20948756.926   110086472.161        3228.171          43.000  
G29  22288577.490   117127257.070       -1778.372          34.000  
> 2019 11 12 13 37 46.9920000  0 19                     
G 9  18272941.480    96024948.126       -1745.850          52.000  
G 4  17994411.496    94561267.966       -1060.168          48.000  
G 7  19037450.762   100042473.786        1667.549          50.000  
G 2  21018196.342   110451363.955       -1807.801          41.000  
G23  20106439.497   105660060.565       -2942.701          44.000  
G16  20265753.092   106497257.680       -1161.258          38.000  
G 6  21984099.739   115527199.681       -3793.955          37.000  
E19  21371410.970   112307533.980       -1514.632          42.000  
S23  37029026.179   194588860.763        -256.158          37.000  
E 4  22131420.835   116301413.481        1507.023          45.000  
E21  22440259.989   117924376.656        1382.577          44.000  
E27  22962317.577   120667785.045       -1622.722          42.000  
E36  24068142.264   126478921.058         -17.952          29.000  
E 1  25227084.733   132569210.827        3087.844          34.000  
S36  37197910.530   195476345.663        -256.604          38.000  
G26  21841312.451   114776826.333       -2840.385          32.000  
G 5  20630897.484   108416095.421        2789.682          43.000  
G30  20948142.460   110083244.026        3228.047          42.000  
G29  22288915.797   117129035.848       -1778.869          34.000  
> 2019 11 12 13 37 47.9920000  0 19                     
G 9  18273273.645    96026694.344       -1746.479          52.000  
G 4  17994613.395    94562328.613       -1060.834          48.000  
G 7  19037133.666   100040806.517        1667.061          50.000  
G 2  21018540.076   110453172.032       -1808.203          41.000  
G23  20106999.108   105663003.453       -2943.040          43.000  
G16  20265973.863   106498419.445       -1161.973          38.000  
G 6  21984821.645   115530993.834       -3793.965          37.000  
E19  21371699.361   112309048.796       -1514.879          42.000  
S23  37029074.813   194589117.086        -256.385          37.000  
E 4  22131134.599   116299906.754        1506.702          45.000  
E21  22439996.447   117922994.351        1382.169          44.000  
E27  22962626.987   120669408.065       -1623.056          42.000  
E36  24068136.776   126478939.636         -18.731          29.000  
E 1  25226497.089   132566123.217        3087.566          34.000  
S36  37197959.425   195476602.335        -256.819          38.000  
G26  21841850.964   114779667.060       -2840.389          32.000  
G 5  20630366.474   108413305.995        2789.361          43.000  
G30  20947528.274   110080016.087        3228.101          43.000  
G29  22289254.532   117130815.226       -1779.441          34.000  
> 2019 11 12 13 37 48.9920000  0 19                     
G 9  18273605.714    96028440.913       -1746.514          52.000  
G 4  17994815.399    94563389.631       -1060.942          48.000  
G 7  19036816.037   100039139.564        1667.172          49.000  
G 2  21018884.020   110454980.538       -1808.655          41.000  
G23  20107559.225   105665946.491       -2943.014          44.000  
G16  20266195.123   106499581.814       -1162.492          39.000  
G 6  21985543.604   115534788.048       -3793.883          37.000  
E19  21371987.857   112310563.803       -1514.951          42.000  
S23  37029123.988   194589373.299        -255.662          37.000  
E 4  22130847.578   116298400.158        1506.631          45.000  
E21  22439733.054   117921612.351        1381.973          44.000  
E27  22962935.812   120671031.409       -1623.277          42.000  
E36  24068150.335   126478958.537         -19.037          29.000  
E 1  25225909.252   132563035.521        3087.912          35.000  
S36  37198008.862   195476858.894        -256.543          38.000  
G26  21842389.330   114782508.147       -2840.848          32.000  
G 5  20629835.473   108410516.850        2789.092          43.000  
G30  20946913.913   110076788.239        3227.960          43.000  
G29  22289593.433   117132595.128       -1779.986          34.000  
> 2019 11 12 13 37 49.9920000  0 19                     
G 9  18273938.289    96030187.207       -1746.209          52.000  
G 4  17995017.097    94564450.399       -1060.736          47.000  
G 7  19036498.888   100037472.332        1667.244          50.000  
G 2  21019227.728   110456788.770       -1808.381          41.000  
G23  20108119.577   105668889.067       -2942.467          44.000  
G16  20266416.305   106500744.167       -1162.414          39.000  
G 6  21986265.075   115538581.650       -3793.083          37.000  
E19  21372276.134   112312078.358       -1514.386          42.000  
S23  37029172.831   194589628.749        -254.958          37.000  
E 4  22130560.845   116296893.049        1507.328          45.000  
E21  22439470.201   117920230.052        1382.248          44.000  
E27  22963244.472   120672654.427       -1622.823          42.000  
E36  24068148.066   126478977.188         -18.723          29.000  
E 1  25225321.808   132559947.156        3088.893          35.000  
S36  37198057.478   195477114.736        -255.713          38.000  
G26  21842930.025   114785348.912       -2840.777          32.000  
G 5  20629304.882   108407727.279        2789.679          43.000  
G30  20946299.778   110073559.862        3228.455          43.000  
G29  22289932.159   117134374.790       -1779.623          34.000  
> 2019 11 12 13 37 50.9920000  0 19                     
G 9  18274270.445    96031934.257       -1747.400          52.000  
G 4  17995219.092    94565511.954       -1061.933          47.000  
G 7  19036181.852   100035805.843        1666.105          50.000  
G 2  21019571.576   110458597.776       -1809.220          41.000  
G23  20108679.564   105671832.199       -2943.397          44.000  
G16  20266637.809   106501907.531       -1163.616          40.000  
G 6  21986987.017   115542375.719       -3793.655          38.000  
E19  21372564.325   112313593.523       -1515.410          42.000  
S23  37029221.613   194589884.518        -255.725          37.000  
E 4  22130274.382   116295386.467        1506.370          45.000  
E21  22439208.046   117918848.432        1381.309          44.000  
E27  22963553.349   120674278.169       -1624.111          42.000  
E36  24068151.565   126478996.702         -20.416          28.000  
E 1  25224734.207   132556859.219        3087.219          35.000  
S36  37198106.400   195477370.931        -256.171          37.000  
G26  21843470.859   114788190.423       -2841.842          33.000  
G 5  20628774.404   108404938.358        2788.638          43.000  
G30  20945684.955   110070331.977        3227.963          42.000  
G29  22290271.286   117136155.337       -1780.896          35.000  
> 2019 11 12 13 37 51.9920000  0 19                     
G 9  18274602.601    96033681.427       -1747.138          52.000  
G 4  17995421.209    94566573.647       -1061.590          47.000  
G 7  19035864.773   100034139.445        1666.444          50.000  
G 2  21019915.581   110460406.926       -1809.034          41.000  
G23  20109239.803   105674775.273       -2942.952          44.000  
G16  20266859.401   106503071.253       -1163.937          40.000  
G 6  21987708.766   115546169.628       -3794.327          38.000  
E19  21372852.698   112315108.625       -1515.017          42.000  
S23  37029270.378   194590139.894        -255.276          37.000  
E 4  22129987.475   116293879.780        1506.893          45.000  
E21  22438945.377   117917466.905        1381.683          44.000  
E27  22963862.140   120675902.014       -1623.890          42.000  
E36  24068160.011   126479016.265         -19.529          28.000  
E 1  25224146.797   132553770.937        3088.332          35.000  
S36  37198154.902   195477626.650        -255.226          37.000  
G26  21844012.008   114791032.060       -2841.122          33.000  
G 5  20628243.873   108402149.445        2788.881          43.000  
G30  20945070.637   110067103.951        3228.585          42.000  
G29  22290610.161   117137936.139       -1780.637          34.000  
> 2019 11 12 13 37 52.9920000  0 19                     
G 9  18274935.176    96035428.609       -1747.519          52.000  
G 4  17995623.231    94567635.401       -1062.100          48.000  
G 7  19035547.240   100032473.073        1666.019          50.000  
G 2  21020260.013   110462216.161       -1809.413          41.000  
G23  20109800.103   105677718.167       -2943.102          44.000  
G16  20267081.210   106504235.264       -1164.384          40.000  
G 6  21988430.403   115549963.198       -3793.865          38.000  
E19  21373140.862   112316623.607       -1515.270          42.000  
S23  37029318.558   194590394.782        -255.255          37.000  
E 4  22129700.541   116292372.909        1506.678          45.000  
E21  22438682.489   117916085.376        1381.258          44.000  
E27  22964170.441   120677525.833       -1623.967          41.000  
E36  24068165.115   126479035.988         -20.090          29.000  
E 1  25223559.074   132550682.285        3088.453          35.000  
S36  37198203.152   195477881.782        -255.052          37.000  
G26  21844554.570   114793873.730       -2842.467          34.000  
G 5  20627713.081   108399360.435        2788.711          43.000  
G30  20944456.800   110063875.729        3228.003          42.000  
G29  22290949.288   117139717.075       -1781.150          35.000  
> 2019 11 12 13 37 53.9920000  0 19                     
G 9  18275267.830    96037176.412       -1748.453          52.000  
G 4  17995825.479    94568697.771       -1063.122          47.000  
G 7  19035230.711   100030807.277        1665.220          50.000  
G 2  21020604.219   110464026.025       -1810.526          41.000  
G23  20110360.499   105680661.471       -2943.822          44.000  
G16  20267302.985   106505400.161       -1165.721          40.000  
G 6  21989152.318   115553757.086       -3794.272          37.000  
E19  21373428.992   112318139.007       -1516.020          42.000  
S23  37029367.061   194590649.797        -255.270          37.000  
E 4  22129413.598   116290866.390        1506.101          45.000  
E21  22438419.619   117914704.385        1380.418          44.000  
E27  22964479.607   120679150.197       -1624.961          41.000  
E36  24068163.519   126479056.378         -21.486          30.000  
E 1  25222971.246   132547593.846        3087.957          35.000  
S36  37198251.402   195478136.974        -255.564          37.000  
G26  21845095.536   114796715.909       -2842.427          33.000  
G 5  20627182.298   108396571.915        2787.695          43.000  
G30  20943842.622   110060647.817        3227.448          43.000  
G29  22291288.189   117141498.722       -1782.162          35.000  
> 2019 11 12 13 37 54.9920000  0 19                     
G 9  18275600.440    96038925.541       -1750.283          52.000  
G 4  17996027.875    94569761.493       -1064.864          47.000  
G 7  19034914.268   100029142.795        1663.293          50.000  
G 2  21020948.739   110465837.247       -1812.683          41.000  
G23  20110921.088   105683605.913       -2945.605          44.000  
G16  20267525.039   106506566.603       -1167.900          40.000  
G 6  21989874.783   115557552.002       -3795.688          38.000  
E19  21373717.932   112319655.564       -1517.555          42.000  
S23  37029415.624   194590905.671        -256.865          37.000  
E 4  22129127.109   116289360.995        1504.265          45.000  
E21  22438157.220   117913324.717        1378.333          44.000  
E27  22964788.982   120680775.858       -1626.777          41.000  
E36  24068172.104   126479078.045         -22.957          30.000  
E 1  25222383.680   132544506.325        3086.680          34.000  
S36  37198300.446   195478393.070        -256.813          37.000  
G26  21845636.719   114799559.455       -2844.965          32.000  
G 5  20626652.003   108393784.584        2786.313          43.000  
G30  20943228.767   110057421.014        3225.681          43.000  
G29  22291627.814   117143281.822       -1784.706          34.000  
> 2019 11 12 13 37 55.9920000  0 19                     
G 9  18275933.521    96040676.686       -1751.986          52.000  
G 4  17996230.917    94570827.282       -1066.770          48.000  
G 7  19034597.608   100027480.336        1661.571          50.000  
G 2  21021294.122   110467650.491       -1814.076          41.000  
G23  20111481.815   105686552.173       -2947.113          44.000  
G16  20267747.189   106507735.338       -1170.100          39.000  
G 6  21990597.441   115561348.634       -3797.264          38.000  
E19  21374006.768   112321174.010       -1519.226          42.000  
S23  37029464.363   194591163.094        -257.977          37.000  
E 4  22128841.021   116287857.395        1502.884          45.000  
E21  22437894.996   117911947.000        1376.910          44.000  
E27  22965098.697   120682403.531       -1628.525          41.000  
E36  24068167.122   126479101.880         -25.331          30.000  
E 1  25221796.366   132541420.401        3085.630          34.000  
S36  37198349.385   195478650.755        -258.619          37.000  
G26  21846177.964   114802404.999       -2846.314          32.000  
G 5  20626121.813   108390999.176        2784.697          43.000  
G30  20942615.095   110054195.955        3224.201          43.000  
G29  22291967.107   117145067.019       -1785.979          34.000  
> 2019 11 12 13 37 56.9920000  0 19                     
G 9  18276267.291    96042428.821       -1752.528          52.000  
G 4  17996434.107    94571894.057       -1067.170          48.000  
G 7  19034281.174   100025818.819        1661.140          50.000  
G 2  21021639.418   110469464.772       -1814.557          41.000  
G23  20112042.727   105689499.221       -2947.432          44.000  
G16  20267970.020   106508905.275       -1170.585          39.000  
G 6  21991320.255   115565145.962       -3797.791          38.000  
E19  21374296.076   112322693.254       -1519.528          42.000  
S23  37029513.695   194591421.056        -258.627          37.000  
E 4  22128555.405   116286354.551        1502.530          45.000  
E21  22437632.859   117910570.236        1376.477          44.000  
E27  22965408.456   120684032.130       -1628.935          41.000  
E36  24068174.905   126479126.618         -25.153          31.000  
E 1  25221208.730   132538335.111        3085.275          34.000  
S36  37198398.464   195478908.914        -258.536          37.000  
G26  21846719.357   114805251.522       -2847.158          32.000  
G 5  20625591.894   108388214.653        2784.065          43.000  
G30  20942001.912   110050971.622        3224.083          43.000  
G29  22292306.994   117146853.345       -1786.677          34.000  
> 2019 11 12 13 37 57.9920000  0 19                     
G 9  18276600.686    96044181.271       -1752.292          52.000  
G 4  17996637.254    94572961.189       -1067.175          48.000  
G 7  19033965.203   100024157.614        1661.262          50.000  
G 2  21021985.107   110471279.406       -1814.617          41.000  
G23  20112603.524   105692446.400       -2947.122          44.000  
G16  20268192.754   106510075.797       -1170.284          39.000  
G 6  21992042.449   115568943.271       -3797.391          37.000  
E19  21374585.042   112324212.652       -1519.520          42.000  
S23  37029562.835   194591678.790        -257.163          37.000  
E 4  22128269.474   116284851.796        1502.745          45.000  
E21  22437370.547   117909193.757        1376.454          44.000  
E27  22965718.634   120685661.035       -1629.053          41.000  
E36  24068180.035   126479151.834         -25.457          31.000  
E 1  25220621.513   132535249.743        3085.384          34.000  
S36  37198447.263   195479166.886        -257.598          37.000  
G26  21847260.872   114808098.312       -2846.565          31.000  
G 5  20625062.158   108385430.329        2784.320          43.000  
G30  20941388.371   110047747.343        3224.599          43.000  
G29  22292646.845   117148640.095       -1787.041          34.000  
> 2019 11 12 13 37 58.9920000  0 19                     
G 9  18276933.977    96045933.957       -1752.617          52.000  
G 4  17996840.244    94574028.584       -1067.491          48.000  
G 7  19033649.215   100022496.637        1660.881          50.000  
G 2  21022330.395   110473094.286       -1815.102          41.000  
G23  20113164.365   105695393.611       -2947.277          44.000  
G16  20268415.812   106511246.849       -1171.335          39.000  
G 6  21992765.089   115572740.518       -3796.686          38.000  
E19  21374874.140   112325732.126       -1519.596          42.000  
S23  37029612.254   194591936.356        -257.429          37.000  
E 4  22127983.116   116283349.051        1502.818          45.000  
E21  22437108.881   117907817.464        1376.214          44.000  
E27  22966028.846   120687290.103       -1629.136          41.000  
E36  24068189.013   126479177.248         -25.245          31.000  
E 1  25220033.842   132532164.186        3085.566          34.000  
S36  37198496.159   195479424.672        -258.130          37.000  
G26  21847802.405   114810945.357       -2847.457          32.000  
G 5  20624532.430   108382646.143        2784.038          43.000  
G30  20940774.952   110044523.078        3224.091          43.000  
G29  22292986.837   117150427.189       -1787.064          34.000  
> 2019 11 12 13 37 59.9920000  0 19                     
G 9  18277267.529    96047686.861       -1753.020          52.000  
G 4  17997043.338    94575096.216       -1067.945          48.000  
G 7  19033333.697   100020835.840        1660.547          50.000  
G 2  21022675.473   110474909.435       -1815.571          41.000  
G23  20113724.989   105698340.836       -2947.412          44.000  
G16  20268638.974   106512418.320       -1171.851          39.000  
G 6  21993487.903   115576537.715       -3797.515          38.000  
E19  21375163.526   112327251.646       -1519.846          42.000  
S23  37029661.716   194592193.595        -257.142          37.000  
E 4  22127697.317   116281846.303        1502.376          45.000  
E21  22436847.067   117906441.347        1375.773          44.000  
E27  22966338.553   120688919.359       -1629.588          41.000  
E36  24068193.673   126479202.980         -25.738          31.000  
E 1  25219446.040   132529078.463        3085.550          33.000  
S36  37198545.054   195479682.147        -257.607          37.000  
G26  21848344.156   114813792.568       -2847.634          31.000  
G 5  20624002.423   108379862.026        2783.899          43.000  
G30  20940161.673   110041298.739        3224.295          43.000  
G29  22293327.090   117152214.606       -1787.804          34.000  
> 2019 11 12 13 38  0.9920000  0 19                     
G 9  18277601.142    96049440.188       -1753.792          52.000  
G 4  17997246.581    94576164.287       -1068.415          48.000  
G 7  19033018.224   100019175.462        1660.054          50.000  
G 2  21023020.900   110476725.014       -1816.129          41.000  
G23  20114285.839   105701288.289       -2947.569          44.000  
G16  20268862.328   106513590.486       -1172.766          39.000  
G 6  21994210.674   115580334.947       -3797.465          38.000  
E19  21375452.676   112328771.415       -1520.063          42.000  
S23  37029710.612   194592450.785        -257.683          37.000  
E 4  22127411.290   116280343.739        1502.192          45.000  
E21  22436585.113   117905065.605        1375.236          44.000  
E27  22966648.660   120690549.001       -1629.888          41.000  
E36  24068192.879   126479229.147         -26.792          30.000  
E 1  25218859.128   132525992.739        3085.477          34.000  
S36  37198594.203   195479939.509        -257.626          37.000  
G26  21848886.028   114816640.250       -2848.494          31.000  
G 5  20623472.731   108377078.231        2783.486          43.000  
G30  20939548.350   110038074.580        3224.042          43.000  
G29  22293667.264   117154002.558       -1787.756          35.000  
> 2019 11 12 13 38  1.9920000  0 19                     
G 9  18277934.991    96051193.872       -1753.969          52.000  
G 4  17997450.077    94577232.737       -1068.703          48.000  
G 7  19032702.479   100017515.415        1659.880          50.000  
G 2  21023366.458   110478540.964       -1816.182          41.000  
G23  20114846.654   105704235.910       -2947.815          44.000  
G16  20269085.490   106514763.249       -1173.143          39.000  
G 6  21994933.898   115584132.279       -3797.394          39.000  
E19  21375741.756   112330291.370       -1520.129          42.000  
S23  37029759.725   194592707.831        -256.954          38.000  
E 4  22127125.648   116278841.291        1502.479          45.000  
E21  22436323.534   117903690.186        1375.144          44.000  
E27  22966958.585   120692178.955       -1630.252          41.000  
E36  24068197.765   126479255.661         -26.442          30.000  
E 1  25218271.649   132522906.972        3085.542          34.000  
S36  37198643.081   195480196.765        -257.502          37.000  
G26  21849427.666   114819488.181       -2848.084          31.000  
G 5  20622942.864   108374294.662        2783.577          43.000  
G30  20938934.844   110034850.514        3223.951          43.000  
G29  22294007.326   117155791.037       -1789.226          34.000  
> 2019 11 12 13 38  2.9920000  0 19                     
G 9  18278268.473    96052947.819       -1754.108          52.000  
G 4  17997653.310    94578301.495       -1069.082          48.000  
G 7  19032386.526   100015855.629        1659.631          50.000  
G 2  21023712.050   110480357.234       -1816.345          41.000  
G23  20115407.591   105707183.605       -2947.781          44.000  
G16  20269308.827   106515936.549       -1173.435          39.000  
G 6  21995656.739   115587929.542       -3797.142          38.000  
E19  21376031.325   112331811.441       -1520.181          42.000  
S23  37029808.630   194592964.698        -257.263          37.000  
E 4  22126839.900   116277338.917        1502.324          45.000  
E21  22436062.235   117902314.993        1374.972          44.000  
E27  22967268.928   120693809.150       -1630.354          41.000  
E36  24068204.605   126479282.609         -27.504          29.000  
E 1  25217684.598   132519821.083        3085.849          34.000  
S36  37198691.785   195480453.885        -256.929          37.000  
G26  21849969.460   114822336.439       -2848.236          30.000  
G 5  20622413.250   108371511.291        2783.326          43.000  
G30  20938321.408   110031626.485        3223.657          43.000  
G29  22294347.701   117157579.848       -1789.480          35.000  
> 2019 11 12 13 38  3.9920000  0 19                     
G 9  18278602.479    96054702.282       -1755.003          52.000  
G 4  17997856.928    94579370.780       -1069.822          48.000  
G 7  19032070.991   100014196.339        1658.822          50.000  
G 2  21024057.765   110482174.033       -1817.244          41.000  
G23  20115968.642   105710131.621       -2948.221          44.000  
G16  20269532.154   106517110.612       -1174.944          39.000  
G 6  21996379.762   115591727.057       -3798.121          39.000  
E19  21376320.214   112333331.847       -1520.743          42.000  
S23  37029857.647   194593221.546        -257.223          37.000  
E 4  22126553.673   116275836.817        1501.765          45.000  
E21  22435800.446   117900940.271        1374.237          44.000  
E27  22967578.966   120695439.816       -1631.230          41.000  
E36  24068205.469   126479309.998         -27.693          30.000  
E 1  25217097.380   132516735.310        3085.364          34.000  
S36  37198740.741   195480711.053        -257.044          37.000  
G26  21850510.949   114825185.117       -2848.781          30.000  
G 5  20621883.374   108368728.288        2782.555          43.000  
G30  20937708.364   110028402.685        3223.427          43.000  
G29  22294688.259   117159369.231       -1789.548          34.000  
> 2019 11 12 13 38  4.9920000  0 19                     
G 9  18278936.694    96056457.137       -1755.129          52.000  
G 4  17998060.459    94580440.475       -1069.874          48.000  
G 7  19031755.273   100012537.421        1658.748          50.000  
G 2  21024403.297   110483991.250       -1817.464          41.000  
G23  20116529.282   105713079.835       -2948.361          43.000  
G16  20269755.831   106518285.299       -1175.093          40.000  
G 6  21997102.175   115595524.602       -3797.736          38.000  
E19  21376609.590   112334852.478       -1520.616          41.000  
S23  37029905.906   194593478.292        -256.788          37.000  
E 4  22126267.751   116274334.878        1501.929          45.000  
E21  22435538.911   117899565.886        1374.175          44.000  
E27  22967889.659   120697070.826       -1631.490          41.000  
E36  24068218.539   126479337.829         -27.465          30.000  
E 1  25216510.242   132513649.503        3085.900          34.000  
S36  37198789.349   195480968.084        -257.163          37.000  
G26  21851051.478   114828034.180       -2848.598          29.000  
G 5  20621353.480   108365945.575        2782.507          42.000  
G30  20937094.762   110025179.016        3223.769          43.000  
G29  22295028.722   117161159.163       -1790.286          34.000  
> 2019 11 12 13 38  5.9920000  0 19                     
G 9  18279270.526    96058212.273       -1755.144          52.000  
G 4  17998264.225    94581510.490       -1070.092          48.000  
G 7  19031439.764   100010878.783        1658.540          50.000  
G 2  21024749.527   110485808.784       -1817.799          41.000  
G23  20117090.438   105716028.126       -2948.271          44.000  
G16  20269979.578   106519460.530       -1175.481          40.000  
G 6  21997824.893   115599322.133       -3797.345          38.000  
E19  21376898.837   112336373.256       -1520.963          42.000  
S23  37029954.609   194593734.815        -256.388          37.000  
E 4  22125982.231   116272833.008        1501.877          45.000  
E21  22435277.769   117898191.763        1373.960          44.000  
E27  22968200.142   120698702.084       -1631.149          41.000  
E36  24068222.483   126479366.027         -28.165          30.000  
E 1  25215922.981   132510563.611        3085.858          34.000  
S36  37198838.166   195481224.881        -256.721          37.000  
G26  21851590.585   114830883.569       -2849.412          30.000  
G 5  20620823.866   108363163.030        2782.532          43.000  
G30  20936481.256   110021955.389        3223.726          43.000  
G29  22295369.271   117162949.549       -1790.647          34.000  
> 2019 11 12 13 38  6.9920000  0 19                     
G 9  18279604.663    96059967.800       -1755.684          52.000  
G 4  17998467.764    94582580.919       -1070.576          48.000  
G 7  19031124.003   100009220.518        1658.129          50.000  
G 2  21025095.076   110487626.722       -1818.364          41.000  
G23  20117651.733   105718976.607       -2948.470          44.000  
G16  20270203.246   106520636.409       -1175.938          40.000  
G 6  21998547.533   115603119.782       -3797.992          38.000  
E19  21377188.205   112337894.225       -1521.019          42.000  
S23  37030003.348   194593991.286        -256.154          37.000  
E 4  22125696.100   116271331.297        1501.660          45.000  
E21  22435016.330   117896817.977        1373.769          44.000  
E27  22968510.607   120700333.681       -1631.520          41.000  
E36  24068226.488   126479394.683         -28.631          30.000  
E 1  25215335.956   132507477.691        3086.278          34.000  
S36  37198887.070   195481481.574        -257.307          37.000  
G26  21852130.582   114833733.363       -2850.189          29.000  
G 5  20620294.313   108360380.754        2782.363          42.000  
G30  20935868.256   110018731.884        3223.659          43.000  
G29  22295710.188   117164740.359       -1790.953          35.000  
> 2019 11 12 13 38  7.9920000  0 19                     
G 9  18279938.826    96061723.812       -1756.479          52.000  
G 4  17998671.618    94583651.863       -1071.395          48.000  
G 7  19030808.459   100007562.719        1657.347          50.000  
G 2  21025441.009   110489445.175       -1818.880          41.000  
G23  20118212.583   105721925.393       -2949.193          44.000  
G16  20270427.342   106521813.031       -1177.218          40.000  
G 6  21999270.234   115606917.587       -3798.289          39.000  
E19  21377477.852   112339415.526       -1521.635          42.000  
S23  37030052.147   194594247.708        -256.366          37.000  
E 4  22125410.501   116269829.848        1501.147          45.000  
E21  22434755.109   117895444.653        1372.753          44.000  
E27  22968821.012   120701965.758       -1632.462          41.000  
E36  24068232.560   126479423.825         -29.725          30.000  
E 1  25214748.956   132504391.864        3085.722          34.000  
S36  37198935.957   195481738.233        -257.038          38.000  
G26  21852670.152   114836583.525       -2850.442          29.000  
G 5  20619765.048   108357598.869        2781.385          43.000  
G30  20935254.663   110015508.638        3223.204          43.000  
G29  22296051.112   117166531.818       -1792.305          35.000  
> 2019 11 12 13 38  8.9920000  0 19                     
G 9  18280273.625    96063480.376       -1756.782          52.000  
G 4  17998875.445    94584723.380       -1071.600          48.000  
G 7  19030493.561   100005905.449        1657.251          50.000  
G 2  21025787.117   110491264.229       -1819.524          41.000  
G23  20118773.738   105724874.526       -2948.996          44.000  
G16  20270651.438   106522990.446       -1177.732          40.000  
G 6  21999992.777   115610715.630       -3798.156          38.000  
E19  21377767.683   112340937.209       -1521.718          42.000  
S23  37030100.816   194594504.247        -256.272          37.000  
E 4  22125124.727   116268328.725        1501.080          45.000  
E21  22434493.879   117894071.818        1372.671          44.000  
E27  22969131.765   120703598.334       -1632.716          41.000  
E36  24068237.063   126479453.620         -30.727          30.000  
E 1  25214161.940   132501306.176        3085.785          34.000  
S36  37198984.835   195481994.962        -256.485          37.000  
G26  21853215.209   114839434.281       -2850.738          29.000  
G 5  20619235.801   108354817.413        2781.404          43.000  
G30  20934641.681   110012285.673        3223.026          43.000  
G29  22296392.168   117168323.886       -1792.205          35.000  
> 2019 11 12 13 38  9.9920000  0 19                     
G 9  18280607.736    96065237.401       -1757.271          52.000  
G 4  17999079.482    94585795.378       -1072.137          48.000  
G 7  19030178.166   100004248.629        1656.654          50.000  
G 2  21026133.233   110493083.761       -1819.850          41.000  
G23  20119335.347   105727823.927       -2949.385          44.000  
G16  20270875.673   106524168.576       -1178.441          40.000  
G 6  22000715.679   115614513.821       -3798.163          39.000  
E19  21378057.008   112342459.192       -1522.106          42.000  
S23  37030149.633   194594760.782        -256.180          37.000  
E 4  22124839.111   116266827.838        1500.799          45.000  
E21  22434232.379   117892699.417        1372.046          44.000  
E27  22969442.519   120705231.339       -1633.198          41.000  
E36  24068239.802   126479483.820         -30.621          30.000  
E 1  25213574.583   132498220.601        3085.677          34.000  
S36  37199033.530   195482251.676        -256.396          37.000  
G26  21853756.070   114842285.459       -2851.456          29.000  
G 5  20618706.501   108352036.289        2781.185          43.000  
G30  20934028.209   110009062.907        3222.667          43.000  
G29  22296732.997   117170116.540       -1792.583          35.000  
> 2019 11 12 13 38 10.9920000  0 19                     
G 9  18280942.021    96066994.691       -1757.576          52.000  
G 4  17999283.615    94586867.678       -1072.665          48.000  
G 7  19029862.797   100002592.070        1656.129          50.000  
G 2  21026479.620   110494903.567       -1820.032          41.000  
G23  20119896.546   105730773.399       -2949.786          44.000  
G16  20271100.135   106525347.242       -1179.193          40.000  
G 6  22001438.301   115618311.981       -3798.315          38.000  
E19  21378346.576   112343981.279       -1522.440          41.000  
S23  37030198.755   194595017.096        -256.787          38.000  
E 4  22124553.721   116265326.985        1500.706          45.000  
E21  22433971.445   117891327.227        1371.929          44.000  
E27  22969753.316   120706864.547       -1633.469          41.000  
E36  24068247.140   126479514.333         -30.574          30.000  
E 1  25212987.217   132495134.837        3085.586          34.000  
S36  37199082.722   195482508.191        -256.730          38.000  
G26  21854298.405   114845136.896       -2851.694          28.000  
G 5  20618177.366   108349255.347        2780.762          43.000  
G30  20933414.965   110005840.167        3222.483          43.000  
G29  22297074.411   117171909.585       -1793.084          35.000  
> 2019 11 12 13 38 11.9920000  0 19                     
G 9  18281276.603    96068752.487       -1757.977          52.000  
G 4  17999487.616    94587940.493       -1072.980          48.000  
G 7  19029547.445   100000935.976        1656.008          50.000  
G 2  21026826.269   110496723.938       -1820.556          41.000  
G23  20120457.562   105733723.176       -2949.702          44.000  
G16  20271324.693   106526526.641       -1179.708          40.000  
G 6  22002160.705   115622110.329       -3798.613          38.000  
E19  21378636.154   112345503.690       -1522.487          41.000  
S23  37030247.712   194595273.432        -256.348          37.000  
E 4  22124268.253   116263826.419        1500.674          45.000  
E21  22433710.495   117889955.510        1371.608          44.000  
E27  22970064.375   120708498.233       -1633.553          41.000  
E36  24068256.886   126479545.476         -31.042          29.000  
E 1  25212399.817   132492049.178        3086.356          33.000  
S36  37199131.469   195482764.712        -256.038          38.000  
G26  21854841.404   114847988.854       -2852.300          28.000  
G 5  20617648.546   108346474.782        2780.487          42.000  
G30  20932801.424   110002617.656        3222.367          43.000  
G29  22297415.493   117173703.217       -1793.520          35.000  
> 2019 11 12 13 38 12.9920000  0 19                     
G 9  18281611.333    96070510.745       -1758.079          52.000  
G 4  17999691.758    94589013.812       -1073.198          48.000  
G 7  19029232.495    99999280.356        1655.724          50.000  
G 2  21027172.629   110498544.789       -1820.806          41.000  
G23  20121018.647   105736673.227       -2949.786          43.000  
G16  20271549.243   106527706.779       -1180.129          40.000  
G 6  22002883.668   115625908.837       -3798.258          38.000  
E19  21378925.802   112347026.414       -1522.475          41.000  
S23  37030296.433   194595529.808        -255.978          37.000  
E 4  22123982.479   116262326.090        1500.614          45.000  
E21  22433449.728   117888584.228        1371.485          44.000  
E27  22970375.058   120710132.376       -1634.285          41.000  
E36  24068257.985   126479577.082         -31.551          30.000  
E 1  25211812.416   132488963.654        3085.780          34.000  
S36  37199180.286   195483021.224        -255.750          37.000  
G26  21855381.418   114850841.187       -2852.108          28.000  
G 5  20617119.543   108343694.578        2780.350          43.000  
G30  20932188.058   109999395.374        3222.836          43.000  
G29  22297756.793   117175497.450       -1793.993          35.000  
> 2019 11 12 13 38 13.9920000  0 19                     
G 9  18281945.941    96072269.266       -1758.789          52.000  
G 4  17999895.864    94590087.420       -1074.104          48.000  
G 7  19028917.431    99997624.981        1654.950          50.000  
G 2  21027519.164   110500365.928       -1821.446          41.000  
G23  20121579.681   105739623.357       -2950.493          43.000  
G16  20271773.993   106528887.413       -1181.177          39.000  
G 6  22003606.674   115629707.285       -3798.618          39.000  
E19  21379215.606   112348549.241       -1523.375          41.000  
S23  37030345.154   194595785.903        -256.255          37.000  
E 4  22123697.072   116260825.794        1500.155          45.000  
E21  22433188.707   117887213.160        1370.748          44.000  
E27  22970686.135   120711766.706       -1634.851          41.000  
E36  24068263.918   126479609.016         -32.573          30.000  
E 1  25211224.885   132485877.940        3085.139          33.000  
S36  37199229.330   195483277.508        -256.593          37.000  
G26  21855923.021   114853693.781       -2852.815          27.000  
G 5  20616590.819   108340914.509        2779.813          43.000  
G30  20931574.752   109996173.096        3221.523          42.000  
G29  22298098.093   117177292.069       -1795.306          35.000  
> 2019 11 12 13 38 14.9920000  0 19                     
G 9  18282280.505    96074028.333       -1759.400          52.000  
G 4  18000100.267    94591161.580       -1074.414          48.000  
G 7  19028602.341    99995970.125        1654.572          50.000  
G 2  21027865.516   110502187.650       -1821.941          41.000  
G23  20122141.202   105742573.834       -2950.717          43.000  
G16  20271998.926   106530068.840       -1181.853          39.000  
G 6  22004329.471   115633505.971       -3798.618          39.000  
E19  21379505.829   112350072.429       -1523.517          42.000  
S23  37030394.119   194596042.078        -256.183          37.000  
E 4  22123411.770   116259325.834        1499.730          45.000  
E21  22432928.001   117885842.599        1370.327          44.000  
E27  22970996.967   120713401.549       -1635.169          41.000  
E36  24068274.799   126479641.525         -33.164          30.000  
E 1  25210637.554   132482792.373        3085.226          33.000  
S36  37199278.199   195483533.674        -256.091          37.000  
G26  21856466.482   114856546.939       -2853.397          27.000  
G 5  20616061.833   108338134.878        2779.514          43.000  
G30  20930961.150   109992951.100        3221.862          42.000  
G29  22298439.820   117179087.315       -1795.363          35.000  
> 2019 11 12 13 38 15.9920000  0 19                     
G 9  18282615.427    96075787.943       -1759.587          52.000  
G 4  18000304.627    94592236.326       -1074.785          48.000  
G 7  19028287.443    99994315.804        1654.425          50.000  
G 2  21028212.313   110504009.934       -1822.258          41.000  
G23  20122702.654   105745524.635       -2950.629          44.000  
G16  20272223.920   106531251.088       -1182.543          39.000  
G 6  22005052.564   115637304.911       -3798.624          39.000  
E19  21379795.948   112351596.003       -1523.674          41.000  
S23  37030442.552   194596298.242        -255.653          37.000  
E 4  22123126.110   116257826.180        1499.732          45.000  
E21  22432667.234   117884472.533        1370.102          44.000  
E27  22971308.322   120715036.907       -1635.421          41.000  
E36  24068278.411   126479674.611         -33.421          30.000  
E 1  25210049.621   132479706.963        3085.537          33.000  
S36  37199326.807   195483789.772        -255.968          37.000  
G26  21857008.241   114859400.632       -2853.895          27.000  
G 5  20615533.065   108335355.681        2779.370          43.000  
G30  20930347.854   109989729.394        3222.031          43.000  
G29  22298781.627   117180883.223       -1795.515          35.000  
> 2019 11 12 13 38 16.9920000  0 19                     
G 9  18282949.965    96077547.976       -1760.126          52.000  
G 4  18000509.117    94593311.511       -1075.342          48.000  
G 7  19027972.703    99992661.905        1653.781          50.000  
G 2  21028559.189   110505832.680       -1822.956          41.000  
G23  20123264.394   105748475.667       -2951.068          44.000  
G16  20272448.697   106532434.001       -1183.258          39.000  
G 6  22005775.326   115641103.958       -3799.244          38.000  
E19  21380085.779   112353119.822       -1523.850          41.000  
S23  37030491.614   194596554.462        -256.141          37.000  
E 4  22122840.773   116256326.724        1499.512          45.000  
E21  22432406.353   117883102.858        1369.634          44.000  
E27  22971619.494   120716672.653       -1635.915          41.000  
E36  24068282.180   126479708.205         -34.323          31.000  
E 1  25209462.265   132476621.561        3085.245          33.000  
S36  37199375.475   195484045.859        -256.296          37.000  
G26  21857553.962   114862254.702       -2854.459          28.000  
G 5  20615004.262   108332576.785        2778.746          42.000  
G30  20929734.784   109986507.838        3221.773          42.000  
G29  22299123.564   117182679.671       -1796.134          35.000  
> 2019 11 12 13 38 17.9920000  0 19                     
G 9  18283285.184    96079308.567       -1761.032          52.000  
G 4  18000713.799    94594387.269       -1076.070          48.000  
G 7  19027658.066    99991008.557        1652.876          50.000  
G 2  21028906.849   110507655.991       -1823.777          41.000  
G23  20123826.291   105751427.068       -2951.572          44.000  
G16  20272673.804   106533617.705       -1184.125          39.000  
G 6  22006498.192   115644903.234       -3799.410          38.000  
E19  21380375.897   112354644.056       -1524.629          42.000  
S23  37030540.413   194596810.684        -256.420          37.000  
E 4  22122555.950   116254827.599        1498.858          45.000  
E21  22432145.751   117881733.700        1368.663          44.000  
E27  22971930.737   120718308.903       -1636.520          41.000  
E36  24068294.613   126479742.335         -34.215          31.000  
E 1  25208875.126   132473536.313        3085.079          33.000  
S36  37199424.327   195484302.066        -256.453          37.000  
G26  21858095.835   114865109.288       -2854.689          28.000  
G 5  20614475.495   108329798.333        2778.220          42.000  
G30  20929121.740   109983286.645        3220.711          43.000  
G29  22299465.553   117184476.806       -1797.361          35.000  
> 2019 11 12 13 38 18.9920000  0 19                     
G 9  18283620.167    96081069.626       -1761.279          52.000  
G 4  18000918.543    94595463.535       -1076.478          48.000  
G 7  19027343.614    99989355.657        1652.670          50.000  
G 2  21029253.690   110509479.810       -1824.073          41.000  
G23  20124388.031   105754378.748       -2951.859          44.000  
G16  20272899.191   106534802.141       -1184.858          38.000  
G 6  22007221.321   115648702.695       -3799.486          39.000  
E19  21380666.138   112356168.573       -1524.816          41.000  
S23  37030589.326   194597066.912        -256.185          37.000  
E 4  22122271.006   116253328.724        1498.718          45.000  
E21  22431885.001   117880364.966        1368.435          44.000  
E27  22972242.336   120719945.587       -1636.963          41.000  
E36  24068299.098   126479777.010         -35.580          30.000  
E 1  25208287.996   132470451.198        3084.440          33.000  
S36  37199472.734   195484558.248        -256.274          37.000  
G26  21858641.241   114867964.320       -2855.270          28.000  
G 5  20613946.901   108327020.234        2777.955          43.000  
G30  20928508.871   109980065.637        3220.727          43.000  
G29  22299807.342   117186274.499       -1797.879          36.000  
> 2019 11 12 13 38 19.9920000  0 19                     
G 9  18283955.028    96082830.307       -1760.347          52.000  
G 4  18001123.269    94596539.440       -1075.508          47.000  
G 7  19027028.576    99987702.383        1653.594          50.000  
G 2  21029600.914   110511303.279       -1822.955          41.000  
G23  20124949.588   105757329.819       -2950.442          44.000  
G16  20273124.474   106535986.448       -1183.891          38.000  
G 6  22007943.969   115652501.454       -3798.284          38.000  
E19  21380956.274   112357692.544       -1523.340          41.000  
S23  37030638.030   194597322.248        -255.035          37.000  
E 4  22121985.590   116251829.232        1499.923          45.000  
E21  22431624.417   117878995.805        1369.573          44.000  
E27  22972553.578   120721581.841       -1635.854          41.000  
E36  24068307.291   126479811.327         -34.251          31.000  
E 1  25207701.328   132467365.214        3086.384          33.000  
S36  37199521.438   195484813.605        -254.843          38.000  
G26  21859184.353   114870819.043       -2854.506          29.000  
G 5  20613418.038   108324241.661        2779.038          43.000  
G30  20927895.479   109976843.977        3222.180          42.000  
G29  22300149.427   117188071.919       -1797.015          36.000  
> 2019 11 12 13 38 20.9920000  0 19                     
G 9  18284290.002    96084590.830       -1761.429          52.000  
G 4  18001327.890    94597615.223       -1076.676          47.000  
G 7  19026713.687    99986048.959        1652.465          50.000  
G 2  21029948.139   110513126.613       -1824.073          41.000  
G23  20125510.970   105760280.576       -2951.507          44.000  
G16  20273349.390   106537170.868       -1185.453          38.000  
G 6  22008666.748   115656299.753       -3799.055          38.000  
E19  21381245.860   112359216.213       -1524.515          41.000  
S23  37030686.114   194597576.982        -255.671          37.000  
E 4  22121700.244   116250329.376        1498.994          45.000  
E21  22431363.702   117877626.467        1368.431          44.000  
E27  22972865.047   120723217.919       -1636.903          41.000  
E36  24068311.418   126479845.534         -35.144          30.000  
E 1  25207114.425   132464278.722        3085.864          34.000  
S36  37199569.871   195485068.292        -255.355          37.000  
G26  21859726.287   114873673.484       -2855.095          28.000  
G 5  20612889.322   108321462.835        2777.997          43.000  
G30  20927282.409   109973621.919        3221.375          42.000  
G29  22300491.486   117189869.357       -1798.966          35.000  
> 2019 11 12 13 38 21.9920000  0 19                     
G 9  18284625.396    96086352.864       -1762.549          52.000  
G 4  18001532.782    94598692.533       -1077.900          48.000  
G 7  19026399.417    99984397.009        1651.360          50.000  
G 2  21030295.416   110514951.507       -1825.614          41.000  
G23  20126072.728   105763232.614       -2952.563          44.000  
G16  20273574.942   106538357.034       -1187.088          38.000  
G 6  22009389.275   115660099.246       -3799.796          38.000  
E19  21381536.310   112360741.204       -1525.510          41.000  
S23  37030734.669   194597832.682        -255.935          37.000  
E 4  22121414.689   116248830.784        1498.102          45.000  
E21  22431103.144   117876258.573        1367.404          44.000  
E27  22973176.708   120724855.462       -1638.275          41.000  
E36  24068316.609   126479881.270         -36.338          30.000  
E 1  25206526.963   132461193.370        3084.360          33.000  
S36  37199618.531   195485323.987        -256.037          37.000  
G26  21860273.866   114876529.475       -2856.313          29.000  
G 5  20612361.069   108318685.379        2776.723          43.000  
G30  20926669.348   109970401.126        3220.354          42.000  
G29  22300833.999   117191668.342       -1799.716          36.000  
> 2019 11 12 13 38 22.9920000  0 19                     
G 9  18284960.789    96088115.413       -1763.156          52.000  
G 4  18001737.778    94599770.389       -1078.476          48.000  
G 7  19026085.496    99982745.571        1650.792          50.000  
G 2  21030643.216   110516776.945       -1826.156          41.000  
G23  20126634.625   105766184.981       -2952.760          44.000  
G16  20273800.713   106539543.979       -1187.734          38.000  
G 6  22010111.871   115663898.951       -3800.270          38.000  
E19  21381826.612   112362266.570       -1525.931          41.000  
S23  37030783.364   194598088.487        -255.878          37.000  
E 4  22121129.343   116247332.493        1497.871          45.000  
E21  22430843.093   117874891.189        1366.710          44.000  
E27  22973488.430   120726493.481       -1638.484          40.000  
E36  24068325.797   126479917.603         -37.172          30.000  
E 1  25205939.755   132458108.067        3085.087          34.000  
S36  37199667.287   195485579.789        -256.366          37.000  
G26  21860817.693   114879385.977       -2856.554          29.000  
G 5  20611832.886   108315908.345        2776.436          43.000  
G30  20926056.269   109967180.584        3220.182          42.000  
G29  22301176.268   117193467.999       -1800.416          35.000  
> 2019 11 12 13 38 23.9920000  0 19                     
G 9  18285296.426    96089879.097       -1764.009          52.000  
G 4  18001943.324    94600849.414       -1079.328          48.000  
G 7  19025771.698    99981095.247        1650.116          50.000  
G 2  21030990.990   110518603.527       -1826.973          41.000  
G23  20127196.539   105769138.296       -2953.311          44.000  
G16  20274026.955   106540732.312       -1188.701          39.000  
G 6  22010835.017   115667699.481       -3800.532          38.000  
E19  21382117.263   112363792.889       -1526.374          42.000  
S23  37030832.181   194598344.913        -256.578          37.000  
E 4  22120844.721   116245835.127        1497.274          45.000  
E21  22430582.945   117873524.880        1366.159          44.000  
E27  22973800.248   120728132.602       -1639.242          40.000  
E36  24068338.989   126479955.091         -37.154          30.000  
E 1  25205353.105   132455023.540        3084.665          34.000  
S36  37199716.121   195485836.197        -256.052          37.000  
G26  21861362.472   114882243.585       -2857.790          29.000  
G 5  20611304.572   108313132.324        2775.841          43.000  
G30  20925443.915   109963960.923        3219.451          42.000  
G29  22301519.234   117195268.891       -1801.292          36.000  
> 2019 11 12 13 38 24.9920000  0 19                     
G 9  18285632.073    96091642.641       -1763.154          52.000  
G 4  18002148.766    94601928.309       -1078.398          48.000  
G 7  19025457.367    99979444.757        1650.924          50.000  
G 2  21031338.406   110520429.999       -1826.136          41.000  
G23  20127758.698   105772091.289       -2952.643          44.000  
G16  20274252.971   106541920.733       -1187.866          39.000  
G 6  22011557.709   115671499.568       -3799.258          38.000  
E19  21382407.390   112365318.912       -1525.591          42.000  
S23  37030880.492   194598600.733        -254.991          37.000  
E 4  22120559.925   116244337.382        1498.443          45.000  
E21  22430322.893   117872158.399        1366.869          44.000  
E27  22974111.961   120729771.548       -1638.589          40.000  
E36  24068343.055   126479992.534         -37.089          31.000  
E 1  25204766.036   132451938.490        3085.877          34.000  
S36  37199764.763   195486091.955        -255.183          37.000  
G26  21861907.110   114885101.083       -2857.787          30.000  
G 5  20610776.258   108310356.048        2776.724          43.000  
G30  20924831.491   109960740.881        3220.308          42.000  
G29  22301862.087   117197069.733       -1800.200          36.000  
> 2019 11 12 13 38 25.9920000  0 19                     
G 9  18285967.448    96093406.312       -1764.493          52.000  
G 4  18002353.893    94603007.361       -1079.874          47.000  
G 7  19025143.385    99977794.382        1649.502          50.000  
G 2  21031686.084   110522256.617       -1827.229          41.000  
G23  20128320.639   105775044.184       -2953.720          44.000  
G16  20274479.169   106543109.546       -1189.552          38.000  
G 6  22012280.662   115675299.444       -3800.687          38.000  
E19  21382697.701   112366844.873       -1526.543          42.000  
S23  37030929.283   194598856.222        -256.202          38.000  
E 4  22120274.369   116242839.548        1497.111          45.000  
E21  22430062.824   117870791.997        1365.496          44.000  
E27  22974423.823   120731410.581       -1640.021          40.000  
E36  24068348.587   126480030.066         -38.290          31.000  
E 1  25204178.958   132448853.143        3084.681          34.000  
S36  37199813.397   195486347.287        -255.899          38.000  
G26  21862451.191   114887958.604       -2857.971          29.000  
G 5  20610247.926   108307579.795        2775.348          43.000  
G30  20924218.805   109957520.675        3219.634          43.000  
G29  22302204.775   117198870.853       -1802.419          35.000  
> 2019 11 12 13 38 26.9920000  0 19                     
G 9  18286303.400    96095171.656       -1766.047          50.000  
G 4  18002559.579    94604088.114       -1081.544          46.000  
G 7  19024829.430    99976145.658        1647.917          49.000  
G 2  21032033.894   110524084.960       -1828.837          41.000  
G23  20128882.885   105777998.564       -2955.143          43.000  
G16  20274705.734   106544300.290       -1191.390          38.000  
G 6  22013003.930   115679100.715       -3802.157          38.000  
E19  21382988.483   112368372.362       -1528.042          40.000  
S23  37030977.855   194599112.888        -257.970          37.000  
E 4  22119989.564   116241343.153        1495.826          43.000  
E21  22429802.903   117869427.232        1364.042          43.000  
E27  22974735.833   120733051.230       -1641.497          39.000  
E36  24068357.251   126480069.395         -41.068          30.000  
E 1  25203591.933   132445769.065        3083.717          34.000  
S36  37199862.101   195486603.868        -257.198          37.000  
G26  21862995.428   114890817.832       -2860.309          29.000  
G 5  20609719.726   108304805.085        2774.323          41.000  
G30  20923606.337   109954301.918        3218.062          41.000  
G29  22302547.645   117200673.701       -1803.924          35.000  
> 2019 11 12 13 38 27.9920000  0 19                     
G 9  18286639.587    96096938.241       -1767.047          42.000  
G 4  18002765.605    94605170.128       -1082.478          38.000  
G 7  19024515.902    99974498.163        1647.190          39.000  
G 2  21032382.374   110525914.578       -1830.158          32.000  
G23  20129445.323   105780953.976       -2955.299          34.000  
G16  20274930.379   106545492.550       -1193.225          29.000  
G 6  22013725.523   115682902.885       -3802.010          27.000  
E19  21383278.846   112369900.942       -1529.473          31.000  
S23  37031025.503                3       -262.939          28.000  
E 4  22119704.794   116239847.773        1495.354          35.000  
E21  22429543.008   117868063.667        1363.072          34.000  
E27  22975048.218   120734693.101       -1642.299          30.000  
E36  24068361.753                3        -44.883          22.000  
E 1  25203002.909   132442685.804        3083.809          27.000  
S36  37199910.909   195486861.272        -259.291          29.000  
G26  21863542.143                3      -2849.344          20.000  
G 5  20609191.839   108302031.556        2772.694          33.000  
G30  20922993.739   109951084.150        3217.864          33.000  
G29  22302891.319                3      -1805.829          25.000  
> 2019 11 12 13 38 28.9920000  0 19                     
G 9  18286976.071    96098705.540       -1767.159          41.000  
G 4  18002971.831    94606252.887       -1082.551          37.000  
G 7  19024202.417    99972851.349        1647.035          39.000  
G 2  21032730.855   110527744.948       -1831.289          30.000  
G23  20130007.953   105783909.951       -2955.612          33.000  
G16  20275158.026   106546685.764       -1193.605          28.000  
G 6  22014448.224                3      -3800.802          27.000  
E19  21383569.453   112371430.056       -1529.427          31.000  
S23  37031073.805                3       -258.545          28.000  
E 4  22119419.788   116238352.893        1495.109          34.000  
E21  22429283.235   117866700.803        1362.502          33.000  
E27  22975360.324   120736335.640       -1642.466          29.000  
E36  24068371.464                3        -44.903          21.000  
E 1  25202415.535                1       3083.813          25.000  
S36  37199961.715                1       -256.543          28.000  
G26  21864081.565                3      -2866.002          20.000  
G 5  20608664.336   108299258.592        2773.361          32.000  
G30  20922381.550   109947866.907        3216.228          32.000  
G29  22303232.872                1      -1807.042          25.000  
> 2019 11 12 13 38 29.9920000  0 19                     
G 9  18287312.223    96100472.648       -1766.626          48.000  
G 4  18003177.753    94607335.484       -1082.271          43.000  
G 7  19023888.732    99971204.360        1647.495          45.000  
G 2  21033079.371   110529575.123       -1830.237          36.000  
G23  20130569.911   105786865.527       -2954.734          39.000  
G16  20275385.385   106547879.033       -1193.138          34.000  
G 6  22015171.308   115690505.1053      -3801.735          32.000  
E19  21383860.828   112372958.795       -1528.092          38.000  
S23  37031123.058   194599864.2702       -255.511          32.000  
E 4  22119135.446   116236857.616        1495.959          40.000  
E21  22429024.003   117865337.675        1363.622          40.000  
E27  22975673.189   120737977.942       -1641.555          35.000  
E36  24068380.172                1        -39.913          25.000  
E 1  25201828.641   132436513.532        3083.856          29.000  
S36  37200010.105   195487371.820        -256.332          32.000  
G26  21864630.784                3      -2855.745          23.000  
G 5  20608136.476   108296485.334        2773.654          38.000  
G30  20921769.117   109944649.088        3218.508          37.000  
G29  22303577.671   117206091.006       -1805.031          29.000  
> 2019 11 12 13 38 30.9920000  0 19                     
G 9  18287648.393    96102238.877       -1766.168          49.000  
G 4  18003383.709    94608417.227       -1081.709          44.000  
G 7  19023574.811    99969556.466        1648.088          46.000  
G 2  21033427.703   110531404.426       -1829.144          38.000  
G23  20131131.808   105789820.038       -2954.471          40.000  
G16  20275611.156   106549071.670       -1192.869          35.000  
G 6  22015893.774   115694305.9942      -3800.702          33.000  
E19  21384151.295   112374486.508       -1527.433          38.000  
S23  37031171.814   194600119.9012       -255.413          34.000  
E 4  22118850.711   116235361.219        1496.644          41.000  
E21  22428764.562   117863973.626        1364.260          40.000  
E27  22975985.504   120739619.339       -1641.292          37.000  
E36  24068387.004   126480237.821         -40.263          26.000  
E 1  25201240.699   132433428.715        3085.011          30.000  
S36  37200058.695   195487627.453        -255.213          33.000  
G26  21865177.281                3      -2860.322          25.000  
G 5  20607608.406   108293711.089        2774.658          39.000  
G30  20921156.065   109941430.222        3218.732          38.000  
G29  22303917.627   117207895.166       -1803.266          31.000  
> 2019 11 12 13 38 31.9920000  0 19                     
G 9  18287984.676    96104005.925       -1767.908          49.000  
G 4  18003589.909    94609499.816       -1083.584          45.000  
G 7  19023261.266    99967909.369        1646.279          47.000  
G 2  21033776.149   110533234.596       -1830.834          39.000  
G23  20131694.176   105792775.158       -2955.899          41.000  
G16  20275841.202   106550265.383       -1194.985          35.000  
G 6  22016617.364   115698107.3812      -3801.458          34.000  
E19  21384441.990   112376014.893       -1529.379          39.000  
S23  37031220.518   194600375.8152       -256.740          34.000  
E 4  22118566.298   116233865.425        1494.946          42.000  
E21  22428505.043   117862610.383        1362.365          41.000  
E27  22976298.020   120741261.517       -1643.091          37.000  
E36  24068394.874   126480279.014         -42.133          28.000  
E 1  25200653.988   132430344.364        3084.344          31.000  
S36  37200107.547   195487883.353        -256.565          34.000  
G26  21865720.341                2      -2862.017          27.000  
G 5  20607080.703   108290937.564        2772.510          40.000  
G30  20920543.449   109938211.893        3217.632          39.000  
G29  22304262.356   117209700.345       -1806.447          32.000  
> 2019 11 12 13 38 32.9920000  0 19                     
G 9  18288321.265    96105774.397       -1768.896          49.000  
G 4  18003796.197    94610583.843       -1084.757          44.000  
G 7  19022948.253    99966263.692        1645.192          46.000  
G 2  21034124.456   110535066.228       -1832.309          38.000  
G23  20132256.841   105795731.496       -2956.797          40.000  
G16  20276067.898   106551460.749       -1196.471          35.000  
G 6  22017344.506   115701909.9182      -3802.392          34.000  
E19  21384732.614   112377544.523       -1530.365          38.000  
S23  37031269.553   194600632.7302       -257.604          34.000  
E 4  22118281.921   116232370.813        1494.151          41.000  
E21  22428246.142   117861248.514        1361.308          40.000  
E27  22976610.562   120742905.057       -1643.877          37.000  
E36  24068402.377   126480321.723         -42.979          28.000  
E 1  25200066.134   132427261.118        3082.469          31.000  
S36  37200156.460   195488140.194        -257.121          34.000  
G26  21866263.697   114907997.3432      -2862.195          27.000  
G 5  20606553.131   108288165.329        2771.663          39.000  
G30  20919930.990   109934994.754        3216.505          38.000  
G29  22304606.247   117211507.037       -1807.270          32.000  
> 2019 11 12 13 38 33.9920000  0 19                     
G 9  18288658.132    96107543.492       -1769.165          48.000  
G 4  18004002.302    94611668.520       -1084.881          44.000  
G 7  19022634.960    99964618.614        1645.056          46.000  
G 2  21034473.163   110536898.495       -1832.206          38.000  
G23  20132819.392   105798688.270       -2956.788          40.000  
G16  20276295.327   106552657.006       -1196.567          35.000  
G 6  22018066.945   115705712.7882      -3803.094          34.000  
E19  21385023.606   112379074.578       -1530.041          38.000  
S23  37031318.789   194600889.6832       -257.239          34.000  
E 4  22117997.604   116230876.606        1494.141          41.000  
E21  22427987.225   117859887.231        1361.172          40.000  
E27  22976923.218   120744549.224       -1644.245          37.000  
E36  24068410.666   126480365.093         -43.616          28.000  
E 1  25199483.454   132424177.949        3083.887          31.000  
S36  37200205.146   195488397.103        -256.574          33.000  
G26  21866809.217   114910860.2062      -2863.030          27.000  
G 5  20606025.637   108285393.619        2771.915          39.000  
G30  20919318.810   109931777.960        3216.738          39.000  
G29  22304953.105   117213314.417       -1806.470          32.000  
> 2019 11 12 13 38 34.9920000  0 19                     
G 9  18288994.625    96109313.097       -1769.885          49.000  
G 4  18004209.026    94612753.726       -1085.654          44.000  
G 7  19022322.296    99962974.024        1644.330          46.000  
G 2  21034822.046   110538731.309       -1833.256          38.000  
G23  20133382.074   105801645.344       -2957.388          40.000  
G16  20276523.087   106553854.023       -1197.903          35.000  
G 6  22018791.295   115709515.8102      -3803.058          34.000  
E19  21385315.190   112380605.002       -1530.650          38.000  
S23  37031367.876   194601146.6902       -256.902          34.000  
E 4  22117713.323   116229382.679        1493.592          41.000  
E21  22427727.923   117858526.402        1360.552          40.000  
E27  22977236.118   120746193.811       -1644.803          37.000  
E36  24068417.847   126480408.998         -44.312          28.000  
E 1  25198898.042   132421095.000        3083.179          31.000  
S36  37200253.658   195488654.091        -257.295          33.000  
G26  21867352.599   114913723.5262      -2863.168          27.000  
G 5  20605497.960   108282622.310        2771.013          39.000  
G30  20918706.726   109928561.458        3215.930          38.000  
G29  22305298.419   117215122.468       -1808.156          32.000  
> 2019 11 12 13 38 35.9920000  0 19                     
G 9  18289331.274    96111083.302       -1770.538          48.000  
G 4  18004415.375    94613839.570       -1086.166          44.000  
G 7  19022009.736    99961330.026        1643.860          46.000  
G 2  21035171.041   110540564.729       -1833.268          38.000  
G23  20133944.695   105804602.827       -2957.665          40.000  
G16  20276750.428   106555051.881       -1198.548          35.000  
G 6  22019514.039   115713319.1742      -3804.115          33.000  
E19  21385606.652   112382135.867       -1530.980          38.000  
S23  37031416.702   194601403.8532       -256.709          34.000  
E 4  22117428.998   116227889.122        1493.527          41.000  
E21  22427469.137   117857166.160        1359.860          40.000  
E27  22977549.454   120747839.018       -1645.779          37.000  
E36  24068429.102   126480453.555         -45.304          28.000  
E 1  25198309.630   132418012.234        3082.665          30.000  
S36  37200302.605   195488911.207        -256.404          33.000  
G26  21867898.285   114916587.4592      -2863.928          27.000  
G 5  20604970.527   108279851.482        2770.893          39.000  
G30  20918094.328   109925345.269        3215.998          38.000  
G29  22305636.657   117216931.208       -1808.842          32.000  
> 2019 11 12 13 38 36.9920000  0 19                     
G 9  18289668.125    96112853.747       -1770.795          48.000  
G 4  18004621.889    94614925.688       -1086.545          44.000  
G 7  19021696.426    99959686.280        1643.389          46.000  
G 2  21035519.993   110542398.484       -1833.984          38.000  
G23  20134507.753   105807560.373       -2957.753          40.000  
G16  20276978.642   106556250.262       -1199.402          35.000  
G 6  22020236.915   115717121.9021      -3803.429          33.000  
E19  21385898.219   112383666.830       -1531.414          38.000  
S23  37031465.746   194601660.2711       -256.875          34.000  
E 4  22117144.577   116226395.622        1493.186          41.000  
E21  22427210.411   117855806.134        1359.436          40.000  
E27  22977862.284   120749484.400       -1645.898          37.000  
E36  24068438.307   126480498.402         -45.479          28.000  
E 1  25197722.517   132414929.343        3082.904          30.000  
S36  37200351.475   195489168.156        -257.439          33.000  
G26  21868444.442   114919451.6082      -2864.746          27.000  
G 5  20604443.251   108277080.797        2770.586          39.000  
G30  20917482.410   109922129.108        3216.002          38.000  
G29  22305983.497   117218740.328       -1809.522          32.000  
> 2019 11 12 13 38 37.9920000  0 19                     
G 9  18290005.211    96114624.790       -1771.472          48.000  
G 4  18004828.683    94616012.427       -1087.272          44.000  
G 7  19021384.006    99958043.086        1642.896          46.000  
G 2  21035868.771   110544232.812       -1834.726          38.000  
G23  20135070.645   105810518.301       -2958.302          40.000  
G16  20277206.821   106557449.457       -1199.886          35.000  
G 6  22020960.819   115720925.441       -3803.569          33.000  
E19  21386189.524   112385198.171       -1531.494          38.000  
S23  37031514.676   194601917.275        -257.356          34.000  
E 4  22116860.697   116224902.472        1492.753          41.000  
E21  22426951.999   117854446.626        1359.116          40.000  
E27  22978175.541   120751130.305       -1646.084          37.000  
E36  24068447.329   126480543.834         -46.112          28.000  
E 1  25197137.315   132411846.649        3082.418          31.000  
S36  37200400.361   195489425.197        -257.900          34.000  
G26  21868991.009   114922316.2872      -2864.873          27.000  
G 5  20603916.115   108274310.584        2769.794          39.000  
G30  20916870.239   109918913.254        3215.527          38.000  
G29  22306329.989   117220550.138       -1810.183          33.000  
> 2019 11 12 13 38 38.9920000  0 19                     
G 9  18290342.192    96116396.218       -1771.790          48.000  
G 4  18005035.477    94617099.556       -1087.416          44.000  
G 7  19021071.377    99956400.279        1642.598          46.000  
G 2  21036217.915   110546067.533       -1834.488          38.000  
G23  20135633.466   105813476.441       -2958.354          40.000  
G16  20277435.149   106558649.296       -1199.957          35.000  
G 6  22021684.812   115724729.035       -3803.330          33.000  
E19  21386480.629   112386729.760       -1531.391          38.000  
S23  37031563.851   194602174.204        -257.085          34.000  
E 4  22116576.581   116223409.467        1493.052          41.000  
E21  22426693.047   117853087.481        1358.927          40.000  
E27  22978488.476   120752776.617       -1646.437          37.000  
E36  24068455.583   126480589.693         -45.694          28.000  
E 1  25196550.744   132408763.905        3082.576          31.000  
S36  37200449.274   195489682.141        -257.608          34.000  
G26  21869535.560   114925181.3952      -2865.741          27.000  
G 5  20603388.909   108271540.612        2769.722          38.000  
G30  20916258.216   109915697.541        3215.843          38.000  
G29  22306675.547   117222360.427       -1810.587          33.000  
> 2019 11 12 13 38 39.9920000  0 19                     
G 9  18290679.531    96118168.148       -1772.034          50.000  
G 4  18005242.716    94618187.238       -1087.802          45.000  
G 7  19020758.905    99954757.966        1642.194          47.000  
G 2  21036567.006   110547902.840       -1835.180          40.000  
G23  20136196.323   105816434.860       -2958.400          41.000  
G16  20277663.712   106559849.933       -1201.064          35.000  
G 6  22022408.795   115728532.899       -3804.113          34.000  
E19  21386772.327   112388261.712       -1531.996          39.000  
S23  37031612.598   194602431.163        -256.346          35.000  
E 4  22116292.404   116221916.783        1492.655          42.000  
E21  22426434.321   117851728.798        1358.742          41.000  
E27  22978802.432   120754423.360       -1646.766          37.000  
E36  24068462.685   126480636.203         -46.568          29.000  
E 1  25195964.024   132405681.276        3082.028          32.000  
S36  37200498.013   195489939.097        -256.832          35.000  
G26  21870079.815   114928046.9192      -2865.594          28.000  
G 5  20602861.764   108268771.047        2769.431          39.000  
G30  20915646.342   109912482.089        3215.663          40.000  
G29  22307018.609   117224171.383       -1811.133          34.000  
> 2019 11 12 13 38 40.9920000  0 19                     
G 9  18291016.835    96119940.540       -1772.711          46.000  
G 4  18005449.632    94619275.402       -1088.756          42.000  
G 7  19020446.502    99953116.074        1641.656          44.000  
G 2  21036916.683   110549738.633       -1835.880          36.000  
G23  20136759.546   105819393.545       -2958.593          38.000  
G16  20277892.501   106561051.210       -1200.915          33.000  
G 6  22023132.700   115732336.840       -3803.463          32.000  
E19  21387064.147   112389793.911       -1532.222          36.000  
S23  37031661.738   194602688.096        -256.272          32.000  
E 4  22116008.314   116220424.308        1492.066          39.000  
E21  22426175.927   117850370.555        1357.892          38.000  
E27  22979115.829   120756070.532       -1647.545          34.000  
E36  24068470.826   126480683.110         -47.057          24.000  
E 1  25195378.002   132402598.682        3082.549          28.000  
S36  37200546.961                3       -258.008          32.000  
G26  21870624.332   114930912.8512      -2865.551          28.000  
G 5  20602334.697   108266001.838        2769.193          36.000  
G30  20915034.293   109909266.857        3215.088          36.000  
G29  22307366.122   117225982.888       -1812.427          31.000  
> 2019 11 12 13 38 41.9920000  0 19                     
G 9  18291354.217    96121713.563       -1773.291          46.000  
G 4  18005656.713    94620364.233       -1089.394          42.000  
G 7  19020134.257    99951474.816        1640.985          44.000  
G 2  21037265.748   110551575.007       -1835.624          36.000  
G23  20137322.822   105822352.692       -2959.403          38.000  
G16  20278121.378   106562253.475       -1203.469          33.000  
G 6  22023856.727   115736141.072       -3803.474          32.000  
E19  21387355.688   112391326.637       -1533.260          36.000  
S23  37031711.236                3       -275.049          32.000  
E 4  22115724.495   116218932.250        1491.894          39.000  
E21  22425917.385   117849012.889        1357.438          38.000  
E27  22979428.868   120757718.313       -1648.453          34.000  
E36  24068479.603   126480730.771         -48.357          25.000  
E 1  25194790.340   132399516.355        3082.237          28.000  
S36  37200595.865                3       -266.455          32.000  
G26  21871171.370                2      -2866.441          26.000  
G 5  20601807.692   108263233.160        2768.298          37.000  
G30  20914422.654   109906052.000        3214.771          36.000  
G29  22307707.814                3      -1813.909          31.000  
> 2019 11 12 13 38 42.9920000  0 19                     
G 9  18291691.861    96123487.344       -1773.657          45.000  
G 4  18005864.266    94621453.819       -1089.506          41.000  
G 7  19019821.941    99949834.313        1640.492          43.000  
G 2  21037615.180   110553412.247       -1836.551          35.000  
G23  20137886.377   105825312.366       -2959.269          37.000  
G16  20278350.343   106563456.702       -1204.253          32.000  
G 6  22024580.553   115739945.838       -3804.847          30.000  
E19  21387647.141   112392859.914       -1533.469          35.000  
S23  37031760.768   194603215.5352       -256.156          31.000  
E 4  22115440.781   116217440.731        1491.484          38.000  
E21  22425658.991   117847655.944        1357.086          37.000  
E27  22979742.344   120759366.770       -1648.139          34.000  
E36  24068492.289   126480779.167         -47.905          25.000  
E 1  25194202.625   132396434.395        3082.463          28.000  
S36  37200645.040                3       -252.197          32.000  
G26  21871718.731                3      -2867.598          26.000  
G 5  20601280.922   108260465.134        2768.358          36.000  
G30  20913811.024   109902837.655        3214.050          36.000  
G29  22308054.960                3      -1828.955          30.000  
> 2019 11 12 13 38 43.9920000  0 19                     
G 9  18292029.488    96125261.411       -1774.280          45.000  
G 4  18006071.426    94622543.711       -1090.022          40.000  
G 7  19019509.862    99948194.072        1640.050          42.000  
G 2  21037964.708   110555249.815       -1837.879          34.000  
G23  20138449.583   105828272.188       -2960.196          36.000  
G16  20278575.861   106564660.443       -1204.462          31.000  
G 6  22025302.530   115743750.616       -3804.904          30.000  
E19  21387938.804   112394393.304       -1533.252          34.000  
S23  37031810.510                3       -258.422          31.000  
E 4  22115156.630   116215949.255        1491.222          38.000  
E21  22425401.111   117846299.275        1356.123          37.000  
E27  22980056.186   120761015.532       -1649.073          33.000  
E36  24068500.125   126480827.961         -49.405          25.000  
E 1  25193617.153   132393352.300        3082.156          27.000  
S36  37200693.595                2       -257.830          31.000  
G26  21872263.832                3      -2866.719          25.000  
G 5  20600754.345   108257697.269        2767.822          35.000  
G30  20913199.420   109899623.299        3214.773          35.000  
G29  22308404.706                3      -1806.201          30.000  
> 2019 11 12 13 38 44.9920000  0 19                     
G 9  18292367.098    96127035.626       -1774.414          45.000  
G 4  18006279.014    94623633.810       -1090.638          40.000  
G 7  19019197.808    99946553.965        1639.874          42.000  
G 2  21038314.349   110557087.522       -1837.623          34.000  
G23  20139012.849   105831231.918       -2959.662          36.000  
G16  20278808.280   106565864.597       -1204.627          31.000  
G 6  22026028.747   115747555.119       -3804.569          30.000  
E19  21388230.432   112395926.672       -1533.346          34.000  
S23  37031859.623                2       -257.560          31.000  
E 4  22114873.283   116214457.716        1491.559          38.000  
E21  22425143.014   117844942.657        1356.714          37.000  
E27  22980369.819   120762664.344       -1648.818          33.000  
E36  24068505.840   126480876.948         -49.487          25.000  
E 1  25193029.813   132390269.975        3082.722          27.000  
S36  37200742.839                2       -255.667          31.000  
G26  21872808.628                3      -2866.671          25.000  
G 5  20600227.688   108254929.429        2767.911          35.000  
G30  20912587.869   109896408.894        3214.761          35.000  
G29  22308744.724                3      -1809.228          30.000  
> 2019 11 12 13 38 45.9920000  0 19                     
G 9  18292705.239    96128810.267       -1774.908          46.000  
G 4  18006486.672    94624724.344       -1091.058          41.000  
G 7  19018885.816    99944914.263        1639.568          44.000  
G 2  21038663.851   110558925.666       -1839.130          35.000  
G23  20139576.029   105834191.905       -2960.166          37.000  
G16  20279038.318   106567069.391       -1204.681          32.000  
G 6  22026755.391   115751359.727       -3804.111          31.000  
E19  21388522.374   112397460.323       -1533.541          35.000  
S23  37031908.920                3       -266.260          31.000  
E 4  22114589.420   116212966.389        1491.150          38.000  
E21  22424884.916   117843586.448        1356.097          39.000  
E27  22980683.443   120764313.581       -1649.459          33.000  
E36  24068515.908   126480926.347         -49.696          25.000  
E 1  25192441.558   132387187.719        3082.299          28.000  
S36  37200791.595                3       -257.265          31.000  
G26  21873355.736                3      -2867.908          26.000  
G 5  20599701.163   108252161.967        2767.145          36.000  
G30  20911976.369   109893194.638        3214.293          36.000  
G29  22309090.901                3      -1812.695          31.000  
> 2019 11 12 13 38 46.9920000  0 19                     
G 9  18293043.224    96130585.337       -1775.397          45.000  
G 4  18006694.164    94625815.325       -1091.217          41.000  
G 7  19018573.675    99943274.983        1638.956          43.000  
G 2  21039013.658   110560764.288       -1839.336          34.000  
G23  20140139.357   105837152.103       -2961.072          37.000  
G16  20279267.203   106568274.977       -1207.351          32.000  
G 6  22027475.300   115755164.581       -3805.953          31.000  
E19  21388814.124   112398994.259       -1534.242          35.000  
S23  37031957.868   194604252.0312       -256.593          32.000  
E 4  22114305.391   116211475.257        1490.971          38.000  
E21  22424626.732   117842230.655        1355.644          37.000  
E27  22980997.041   120765963.219       -1650.404          33.000  
E36  24068525.838   126480976.209         -49.910          25.000  
E 1  25191855.623   132384105.442        3081.977          27.000  
S36  37200840.334   195491735.1863       -257.719          31.000  
G26  21873902.591                3      -2868.696          25.000  
G 5  20599174.917   108249394.788        2767.155          35.000  
G30  20911365.010   109889980.587        3213.263          36.000  
G29  22309434.583                3      -1822.412          30.000  
> 2019 11 12 13 38 47.9920000  0 19                     
G 9  18293381.322    96132360.777       -1775.781          45.000  
G 4  18006902.013    94626906.685       -1091.534          41.000  
G 7  19018261.595    99941636.049        1638.813          43.000  
G 2  21039363.561   110562603.264       -1839.060          35.000  
G23  20140702.554   105840112.422       -2960.486          37.000  
G16  20279500.155   106569481.036       -1206.601          32.000  
G 6  22028203.009   115758969.359       -3804.232          31.000  
E19  21389106.163   112400528.375       -1534.212          35.000  
S23  37032006.772   194604508.6542       -256.768          31.000  
E 4  22114022.209   116209984.247        1490.946          38.000  
E21  22424368.582   117840875.177        1355.267          37.000  
E27  22981311.215   120767613.123       -1650.121          34.000  
E36  24068537.049   126481026.609         -51.589          25.000  
E 1  25191270.988   132381023.114        3082.149          27.000  
S36  37200889.151   195491991.8242       -257.491          31.000  
G26  21874447.500                3      -2861.908          25.000  
G 5  20598648.156   108246627.850        2766.760          36.000  
G30  20910753.650   109886766.621        3213.505          37.000  
G29  22309780.089                3      -1808.301          30.000  
> 2019 11 12 13 38 48.9920000  0 19                     
G 9  18293719.437    96134136.854       -1776.294          45.000  
G 4  18007109.985    94627998.732       -1092.243          40.000  
G 7  19017949.969    99939997.748        1638.129          42.000  
G 2  21039713.603   110564442.960       -1839.983          34.000  
G23  20141265.830   105843073.244       -2960.852          36.000  
G16  20279726.860   106570688.088       -1208.050          31.000  
G 6  22028926.425   115762774.554       -3805.819          30.000  
E19  21389398.061   112402062.948       -1534.776          34.000  
S23  37032055.345   194604765.4372       -256.224          30.000  
E 4  22113738.538   116208493.684        1490.526          38.000  
E21  22424110.877   117839520.304        1354.744          36.000  
E27  22981625.126   120769263.668       -1650.490          33.000  
E36  24068547.319   126481077.496         -51.085          24.000  
E 1  25190684.042   132377941.068        3082.394          27.000  
S36  37200938.230   195492248.7472       -256.779          31.000  
G26  21874992.715                3      -2868.656          24.000  
G 5  20598121.700   108243861.477        2766.129          35.000  
G30  20910142.221   109883553.020        3213.697          36.000  
G29  22310126.851                3      -1818.359          30.000  
> 2019 11 12 13 38 49.9920000  0 19                     
G 9  18294057.317    96135913.014       -1775.690          45.000  
G 4  18007317.765    94629090.906       -1091.931          40.000  
G 7  19017638.151    99938359.543        1638.661          42.000  
G 2  21040063.585   110566282.754       -1839.790          34.000  
G23  20141828.992   105846033.948       -2959.987          36.000  
G16  20279959.698   106571895.401       -1206.375          31.000  
G 6  22029649.318   115766579.448       -3804.071          30.000  
E19  21389690.038   112403597.481       -1534.671          34.000  
S23  37032104.057   194605021.7082       -254.752          31.000  
E 4  22113454.981   116207002.991        1491.169          38.000  
E21  22423853.486   117838165.473        1355.188          37.000  
E27  22981939.265   120770914.267       -1650.455          33.000  
E36  24068556.803   126481128.636         -50.619          25.000  
E 1  25190094.914   132374858.717        3083.093          27.000  
S36  37200986.863                3       -260.107          30.000  
G26  21875543.967                3      -2872.447          25.000  
G 5  20597595.140   108241095.104        2766.544          35.000  
G30  20909531.027   109880339.347        3213.695          36.000  
G29  22310471.807                3      -1826.465          30.000  
> 2019 11 12 13 38 50.9920000  0 19                     
G 9  18294395.109    96137688.356       -1775.110          45.000  
G 4  18007525.440    94630182.254       -1090.960          40.000  
G 7  19017326.360    99936720.467        1639.632          42.000  
G 2  21040413.453   110568121.703       -1838.706          35.000  
G23  20142392.206   105848993.647       -2959.726          36.000  
G16  20280186.943   106573102.225       -1207.700          31.000  
G 6  22030372.786   115770383.269       -3803.380          30.000  
E19  21389981.980   112405130.981       -1533.323          34.000  
S23  37032152.499                3       -250.684          31.000  
E 4  22113170.865   116205511.247        1492.029          38.000  
E21  22423595.354   117836809.777        1356.019          37.000  
E27  22982253.203   120772563.995       -1649.621          33.000  
E36  24068566.331   126481178.928         -49.395          25.000  
E 1  25189508.944   132371775.191        3083.950          27.000  
S36  37201035.392   195492759.5382       -254.369          31.000  
G26  21876089.679                3      -2867.141          24.000  
G 5  20597068.623   108238327.740        2767.864          35.000  
G30  20908919.170   109877124.524        3214.879          36.000  
G29  22310816.806                1      -1826.855          29.000  
> 2019 11 12 13 38 51.9920000  0 19                     
G 9  18294732.832    96139463.797       -1775.861          44.000  
G 4  18007733.246    94631273.744       -1091.953          40.000  
G 7  19017014.463    99935081.518        1638.745          42.000  
G 2  21040763.670   110569960.816       -1839.352          34.000  
G23  20142955.412   105851953.222       -2959.799          36.000  
G16  20280414.128   106574309.337       -1207.926          31.000  
G 6  22031101.211   115774186.841       -3803.368          29.000  
E19  21390273.730   112406664.446       -1533.738          34.000  
S23  37032201.054   194605529.4942       -254.189          31.000  
E 4  22112886.898   116204019.370        1491.465          37.000  
E21  22423337.387   117835454.150        1355.209          36.000  
E27  22982567.447   120774213.792       -1650.353          32.000  
E36  24068576.068   126481229.430         -50.574          24.000  
E 1  25188922.556   132368691.305        3083.937          26.000  
S36  37201083.948   195493014.4202       -254.614          30.000  
G26  21876634.736                3      -2859.741          23.000  
G 5  20596542.159   108235560.434        2766.500          34.000  
G30  20908307.775   109873909.568        3214.443          35.000  
G29  22311162.696                       -1818.709          29.000  
> 2019 11 12 13 38 52.9920000  0 19                     
G 9  18295070.930    96141239.907       -1776.581          44.000  
G 4  18007940.990    94632365.925       -1092.635          40.000  
G 7  19016702.933    99933443.205        1637.954          42.000  
G 2  21041114.106   110571800.595       -1839.569          34.000  
G23  20143518.897   105854913.274       -2960.223          36.000  
G16  20280648.693   106575517.366       -1208.179          31.000  
G 6  22031823.772   115777990.815       -3804.461          29.000  
E19  21390565.350   112408198.420       -1534.279          34.000  
S23  37032249.296                3       -255.078          31.000  
E 4  22112603.288   116202527.943        1490.957          37.000  
E21  22423079.744   117834099.156        1354.771          36.000  
E27  22982881.629   120775864.220       -1651.119          32.000  
E36  24068587.219   126481280.663         -51.777          25.000  
E 1  25188335.234   132365607.763        3082.826          26.000  
S36  37201132.538                3       -256.002          30.000  
G26  21877179.733                3      -2879.966          23.000  
G 5  20596015.712   108232793.644        2766.503          35.000  
G30  20907696.171   109870695.002        3214.836          35.000  
G29  22311511.290   117247767.169       -1817.302          29.000  
> 2019 11 12 13 38 53.9920000  0 19                     
G 9  18295409.098    96143017.114       -1777.551          44.000  
G 4  18008149.224    94633459.244       -1094.110          39.000  
G 7  19016391.569    99931805.996        1636.759          42.000  
G 2  21041464.977   110573641.560       -1841.513          34.000  
G23  20144082.391   105857874.253       -2961.903          35.000  
G16  20280875.005   106576726.805       -1210.739          31.000  
G 6  22032546.272   115781795.536       -3804.889          29.000  
E19  21390857.466   112409733.289       -1534.645          33.000  
S23  37032296.559                3       -249.072          30.000  
E 4  22112319.731   116201037.398        1489.881          37.000  
E21  22422822.100   117832745.223        1353.697          36.000  
E27  22983195.576   120777515.656       -1651.198          32.000  
E36  24068598.858   126481332.979         -53.074          24.000  
E 1  25187753.059   132362524.841        3082.843          26.000  
S36  37201181.320                3       -255.073          30.000  
G26  21877725.044                3      -2878.324          23.000  
G 5  20595489.387   108230027.865        2765.851          34.000  
G30  20907084.506   109867481.336        3213.248          35.000  
G29  22311857.214   117249584.907       -1818.387          29.000  
> 2019 11 12 13 38 54.9920000  0 19                     
G 9  18295747.222    96144795.101       -1778.137          44.000  
G 4  18008357.387    94634553.362       -1094.421          39.000  
G 7  19016080.039    99930169.533        1636.205          42.000  
G 2  21041815.971   110575483.323       -1842.707          33.000  
G23  20144645.832   105860835.800       -2961.873          35.000  
G16  20281106.701   106577934.2731      -1212.014          30.000  
G 6  22033265.212   115785600.791       -3805.817          29.000  
E19  21391149.653   112411268.824       -1535.660          33.000  
S23  37032345.307                2       -257.212          30.000  
E 4  22112035.973   116199547.409        1489.803          37.000  
E21  22422564.404   117831392.063        1352.736          36.000  
E27  22983510.553   120779167.900       -1652.364          32.000  
E36  24068609.119   126481386.192         -53.770          24.000  
E 1  25187167.186   132359442.369        3082.275          26.000  
S36  37201230.119                2       -256.460          30.000  
G26  21878271.375                3      -2863.127          23.000  
G 5  20594963.123   108227262.768        2765.361          35.000  
G30  20906472.981   109864268.217        3212.170          35.000  
G29  22312200.600   117251403.510       -1818.423          29.000  
> 2019 11 12 13 38 55.9920000  0 19                     
G 9  18296085.739    96146573.814       -1779.291          44.000  
G 4  18008565.804    94635648.200       -1095.153          39.000  
G 7  19015768.788    99928533.791        1635.455          42.000  
G 2  21042163.204   110577325.774       -1842.345          34.000  
G23  20145209.239   105863797.853       -2962.454          35.000  
G16  20281333.344   106579145.663       -1212.894          31.000  
G 6  22033992.755   115789406.391       -3806.302          29.000  
E19  21391441.874   112412804.867       -1535.868          33.000  
S23  37032393.644                3       -254.478          30.000  
E 4  22111752.512   116198057.924        1489.223          37.000  
E21  22422307.179   117830039.533        1352.144          36.000  
E27  22983824.875   120780820.824       -1653.140          32.000  
E36  24068617.748   126481440.043         -53.970          24.000  
E 1  25186579.846   132356360.222        3081.279          26.000  
S36  37201279.207   195494038.7732       -256.247          30.000  
G26  21878816.459                3      -2882.881          23.000  
G 5  20594437.104   108224498.342        2763.418          34.000  
G30  20905861.778   109861055.508        3212.075          35.000  
G29  22312547.152   117253223.005       -1819.767          29.000  
> 2019 11 12 13 38 56.9920000  0 19                     
G 9  18296424.334    96148353.507       -1780.542          44.000  
G 4  18008774.230    94636744.064       -1096.489          40.000  
G 7  19015457.651    99926898.999        1634.434          42.000  
G 2  21042517.461   110579169.278       -1843.927          34.000  
G23  20145772.741   105866760.705       -2963.545          36.000  
G16  20281561.567   106580358.336       -1214.809          30.000  
G 6  22034717.271   115793212.642       -3806.910          29.000  
E19  21391734.349   112414341.779       -1537.414          34.000  
S23  37032442.522   194606798.0192       -256.302          31.000  
E 4  22111469.426   116196569.169        1488.418          37.000  
E21  22422050.329   117828687.987        1350.667          36.000  
E27  22984138.935   120782474.687       -1654.884          32.000  
E36  24068629.021   126481495.110         -56.328          25.000  
E 1  25185992.638   132353278.568        3081.429          27.000  
S36  37201328.416   195494300.0373       -257.375          30.000  
G26  21879364.474                3      -2879.959          23.000  
G 5  20593911.233   108221734.681        2762.943          34.000  
G30  20905250.829   109857843.543        3211.057          35.000  
G29  22312894.333   117255043.582       -1821.273          28.000  
> 2019 11 12 13 38 57.9920000  0 19                     
G 9  18296763.296    96150134.106       -1780.859          44.000  
G 4  18008982.655    94637840.864       -1096.826          40.000  
G 7  19015146.749    99925265.132        1633.707          42.000  
G 2  21042867.399   110581013.741       -1845.104          33.000  
G23  20146336.488   105869724.276       -2964.033          36.000  
G16  20281796.560   106581572.130       -1214.456          30.000  
G 6  22035442.712   115797019.520       -3807.280          29.000  
E19  21392026.710   112415879.384       -1537.632          34.000  
S23  37032491.435   194607054.9402       -255.253          31.000  
E 4  22111186.296   116195081.152        1487.702          37.000  
E21  22421793.471   117827337.286        1350.532          36.000  
E27  22984453.536   120784129.388       -1655.005          32.000  
E36  24068639.779   126481550.982         -56.064          24.000  
E 1  25185402.637   132350197.502        3081.173          27.000  
S36  37201377.068   195494555.2203       -257.671          30.000  
G26  21879908.764                3      -2878.538          23.000  
G 5  20593385.528   108218971.884        2762.182          35.000  
G30  20904639.600   109854632.249        3210.908          35.000  
G29  22313240.275   117256865.147       -1821.534          28.000  
> 2019 11 12 13 38 58.9920000  0 19                     
G 9  18297102.205    96151915.173       -1781.476          44.000  
G 4  18009191.586    94638938.177       -1097.699          40.000  
G 7  19014836.144    99923631.714        1633.177          42.000  
G 2  21043218.680   110582858.661       -1845.753          34.000  
G23  20146900.514   105872688.104       -2964.491          36.000  
G16  20282025.298   106582786.621       -1214.742          30.000  
G 6  22036169.086   115800826.428       -3805.543          30.000  
E19  21392319.463   112417417.350       -1538.389          34.000  
S23  37032540.671   194607311.8212       -255.745          30.000  
E 4  22110902.939   116193593.343        1487.329          37.000  
E21  22421536.569   117825987.045        1349.629          36.000  
E27  22984768.818   120785784.538       -1655.718          32.000  
E36  24068651.226   126481607.374         -56.848          24.000  
E 1  25184814.827   132347116.523        3080.417          26.000  
S36  37201426.190                3       -257.960          31.000  
G26  21880453.498                3      -2875.866          23.000  
G 5  20592859.857   108216209.418        2763.059          35.000  
G30  20904028.537   109851421.181        3210.691          34.000  
G29  22313586.452   117258687.319       -1822.491          29.000  
> 2019 11 12 13 38 59.9920000  0 19                     
G 9  18297441.089    96153697.464       -1783.478          44.000  
G 4  18009400.509    94640036.726       -1099.601          40.000  
G 7  19014525.591    99921999.509        1631.416          42.000  
G 2  21043570.102   110584704.821       -1846.763          34.000  
G23  20147464.985   105875652.986       -2965.970          35.000  
G16  20282262.359   106584002.659       -1217.729          31.000  
G 6  22036893.610                3      -3816.797          30.000  
E19  21392612.400   112418956.343       -1539.977          34.000  
S23  37032589.618                2       -256.349          30.000  
E 4  22110619.949   116192106.547        1485.934          37.000  
E21  22421279.989   117824637.981        1348.008          36.000  
E27  22985084.030   120787440.866       -1656.927          32.000  
E36  24068660.955   126481665.146         -59.258          24.000  
E 1  25184228.203   132344036.329        3079.233          26.000  
S36  37201474.562                1       -259.326          30.000  
G26  21881001.557                3      -2872.731          23.000  
G 5  20592334.431   108213448.109        2760.710          35.000  
G30  20903417.692   109848211.053        3209.286          34.000  
G29  22313932.839   117260510.823       -1824.705          29.000  
> 2019 11 12 13 39  0.9920000  0 19                     
G 9  18297780.775    96155480.999       -1783.270          44.000  
G 4  18009609.894    94641136.529       -1099.253          40.000  
G 7  19014215.230    99920368.535        1631.000          42.000  
G 2  21043921.322   110586552.287       -1847.378          34.000  
G23  20148029.176   105878618.897       -2965.491          35.000  
G16  20282491.873   106585220.131       -1218.113          31.000  
G 6  22037618.256                3      -3801.270          30.000  
E19  21392905.337   112420496.391       -1539.385          34.000  
S23  37032639.160                3       -256.383          31.000  
E 4  22110337.151   116190620.753        1486.586          37.000  
E21  22421023.349   117823290.103        1348.256          36.000  
E27  22985399.199   120789098.408       -1657.178          32.000  
E36  24068671.145   126481724.112         -59.150          24.000  
E 1  25183642.320   132340957.038        3079.651          26.000  
S36  37201524.522                        -259.145          30.000  
G26  21881551.684                3      -2868.760          23.000  
G 5  20591809.119   108210687.934        2760.300          35.000  
G30  20902806.952   109845001.931        3209.666          34.000  
G29  22314279.147   117262335.682       -1824.614          29.000  
> 2019 11 12 13 39  1.9920000  0 19                     
G 9  18298119.963    96157264.065       -1782.922          44.000  
G 4  18009818.773    94642235.919       -1099.743          39.000  
G 7  19013904.660    99918737.068        1631.556          41.000  
G 2  21044272.386   110588399.249       -1846.494          33.000  
G23  20148593.377   105881584.157       -2965.374          35.000  
G16  20282720.322   106586437.378       -1215.871          30.000  
G 6  22038343.208                2      -3808.586          29.000  
E19  21393198.404   112422035.839       -1539.153          33.000  
S23  37032689.050                3       -279.004          29.000  
E 4  22110054.632   116189134.310        1486.450          36.000  
E21  22420766.822   117821941.733        1348.571          36.000  
E27  22985714.297   120790755.480       -1657.317          32.000  
E36  24068679.810   126481782.610         -58.156          23.000  
E 1  25183058.541   132337876.813        3080.567          26.000  
S36  37201573.147                        -257.226          30.000  
G26  21882098.443                3      -2872.633          23.000  
G 5  20591283.789   108207927.133        2761.185          34.000  
G30  20902196.316   109841792.113        3209.873          34.000  
G29  22314627.358   117264160.165       -1824.457          28.000  
> 2019 11 12 13 39  2.9920000  0 19                     
G 9  18298458.733    96159047.094       -1782.910          49.000  
G 4  18010027.984    94643335.271       -1099.274          44.000  
G 7  19013594.011    99917105.553        1631.650          46.000  
G 2  21044623.650   110590246.267       -1846.769          37.000  
G23  20149157.403   105884549.163       -2964.771          40.000  
G16  20282957.008   106587654.923       -1217.519          35.000  
G 6  22039064.452   115816082.7392      -3807.383          34.000  
E19  21393491.586   112423575.081       -1538.941          38.000  
S23  37032737.893   194608350.8982       -256.520          34.000  
E 4  22109771.615   116187647.579        1487.074          42.000  
E21  22420510.260   117820593.297        1348.529          40.000  
E27  22986030.251   120792412.411       -1656.913          37.000  
E36  24068692.103   126481841.192         -58.619          27.000  
E 1  25182473.243   132334796.209        3081.229          30.000  
S36  37201621.903   195495842.739        -257.383          34.000  
G26  21882646.537   114994083.6622      -2876.453          27.000  
G 5  20590758.258   108205166.235        2761.068          39.000  
G30  20901585.244   109838581.976        3210.551          39.000  
G29  22314973.631   117265984.753       -1824.876          33.000  
> 2019 11 12 13 39  3.9920000  0 19                     
G 9  18298797.965    96160830.310       -1783.630          49.000  
G 4  18010237.238    94644434.843       -1099.954          44.000  
G 7  19013283.135    99915474.218        1630.979          46.000  
G 2  21044975.490   110592093.455       -1847.222          38.000  
G23  20149721.882   105887514.170       -2965.172          40.000  
G16  20283187.770   106588872.842       -1218.196          35.000  
G 6  22039791.210   115819890.3132      -3806.631          34.000  
E19  21393785.107   112425114.348       -1539.682          38.000  
S23  37032786.518   194608607.5312       -256.633          34.000  
E 4  22109488.486   116186160.813        1486.675          42.000  
E21  22420253.376   117819245.005        1347.732          40.000  
E27  22986345.951   120794069.510       -1657.689          37.000  
E36  24068702.757   126481899.951         -59.004          27.000  
E 1  25181890.249   132331715.398        3080.490          31.000  
S36  37201670.668   195496099.628        -256.898          34.000  
G26  21883194.238   114996960.0302      -2876.748          27.000  
G 5  20590232.666   108202405.398        2760.531          39.000  
G30  20900974.295   109835371.823        3209.477          38.000  
G29  22315319.207   117267809.590       -1825.146          33.000  
> 2019 11 12 13 39  4.9920000  0 19                     
G 9  18299137.363    96162614.173       -1784.991          49.000  
G 4  18010446.676    94645535.095       -1101.213          44.000  
G 7  19012972.827    99913843.528        1629.628          47.000  
G 2  21045326.841   110593941.344       -1848.815          38.000  
G23  20150286.074   105890479.652       -2966.673          40.000  
G16  20283418.244   106590091.691       -1220.032          35.000  
G 6  22040513.274   115823698.2872      -3808.588          34.000  
E19  21394077.808   112426654.076       -1540.488          38.000  
S23  37032835.335   194608864.3762       -257.635          34.000  
E 4  22109205.085   116184674.488        1485.403          42.000  
E21  22419996.814   117817897.331        1346.695          41.000  
E27  22986661.198   120795727.215       -1658.580          37.000  
E36  24068714.605   126481959.472         -60.586          28.000  
E 1  25181300.519   132328634.837        3079.999          31.000  
S36  37201719.772   195496356.723        -257.842          34.000  
G26  21883741.425   114999837.0732      -2878.192          28.000  
G 5  20589707.502   108199645.107        2759.083          40.000  
G30  20900363.389   109832162.024        3208.752          39.000  
G29  22315668.377   117269635.225       -1826.674          33.000  
> 2019 11 12 13 39  5.9920000  0 19                     
G 9  18299477.328    96164399.961       -1786.615          49.000  
G 4  18010655.974    94646637.290       -1102.932          44.000  
G 7  19012662.789    99912214.742        1628.097          47.000  
G 2  21045678.987   110595791.184       -1850.873          38.000  
G23  20150850.676   105893446.822       -2967.824          40.000  
G16  20283649.930   106591312.696       -1221.523          35.000  
G 6  22041240.651   115827507.8322      -3809.443          34.000  
E19  21394371.111   112428195.582       -1541.997          38.000  
S23  37032884.780   194609122.5982       -258.112          34.000  
E 4  22108922.784   116183189.852        1484.183          42.000  
E21  22419740.985   117816551.531        1345.141          41.000  
E27  22986977.283   120797386.813       -1660.061          37.000  
E36  24068727.710   126482020.913         -62.010          28.000  
E 1  25180716.652   132325555.810        3078.146          32.000  
S36  37201768.685   195496615.264        -258.924          34.000  
G26  21884290.784   115002715.9442      -2879.686          28.000  
G 5  20589182.556   108196886.643        2757.793          39.000  
G30  20899752.806   109828953.912        3207.652          39.000  
G29  22316017.695   117271462.878       -1828.662          34.000  
> 2019 11 12 13 39  6.9920000  0 19                     
G 9  18299816.822    96166185.827       -1785.455          49.000  
G 4  18010865.568    94647739.608       -1102.224          44.000  
G 7  19012352.943    99910586.034        1629.012          47.000  
G 2  21046030.757   110597641.114       -1849.578          38.000  
G23  20151415.374   105896413.918       -2966.881          40.000  
G16  20283883.056   106592534.054       -1221.276          35.000  
G 6  22041965.524   115831317.1772      -3808.592          34.000  
E19  21394664.563   112429737.026       -1541.267          38.000  
S23  37032933.719   194609380.5042       -257.137          34.000  
E 4  22108640.274   116181705.099        1485.200          42.000  
E21  22419484.894   117815205.787        1346.270          41.000  
E27  22987293.018   120799046.464       -1659.363          37.000  
E36  24068737.893   126482082.481         -60.852          28.000  
E 1  25180129.836   132322476.466        3080.008          31.000  
S36  37201817.773   195496873.412        -257.376          34.000  
G26  21884838.389   115005594.9772      -2878.945          29.000  
G 5  20588657.522   108194128.178        2758.638          39.000  
G30  20899142.336   109825745.660        3208.914          39.000  
G29  22316363.244   117273290.751       -1827.980          34.000  
