     3.03           OBSERVATION DATA    M: Mixed            RINEX VERSION / TYPE
RTKCONV 2.4.3 b33   MKJ                 20191113 085046 UTC PGM / RUN BY / DATE            
Receiver                                                    MARKER NAME         
XXXXXXX                                                     MARKER TYPE         
                                GSA                         OBSERVER / AGENCY   
                                                            REC # / TYPE / VERS
                                                            ANT # / TYPE        
  4200916.7746   172419.9790  4780125.6940                  APPROX POSITION XYZ 
        0.0000        0.0000        0.0000                  ANTENNA: DELTA H/E/N
G    4 C1C L1C D1C S1C                                      SYS / # / OBS TYPES 
E    4 C1C L1C D1C S1C                                      SYS / # / OBS TYPES 
  2019    11     1     2     2   57.0010000     GPS         TIME OF FIRST OBS   
  2019    11     1     2    17   58.9960000     GPS         TIME OF LAST OBS    
G                                                           SYS / PHASE SHIFT   
E                                                           SYS / PHASE SHIFT   
                                                            END OF HEADER       
> 2019 11  1  2  2 57.0010000  0 17                     
G 2  22022115.055   115726995.048        1187.378          46.000  
G 4  22151403.352   116406410.098        -889.354          46.000  
G 9  20999996.018   110355723.4432      -4001.331          46.000  
G12  19200334.768   100898439.322       -1848.383          46.000  
G14  20247192.892   106399715.917        -645.933          46.000  
G25  18997978.588    99835050.491         357.341          46.000  
G27  22637275.419   118959685.1672      -3565.806          46.000  
G29  21223624.886   111530900.8462       2883.197          46.000  
E 1  25227467.713   132571247.456       -3152.988          43.000  
E 7  26066249.022   136979072.988        2602.279          43.000  
E 8  22693632.422   119255852.852        1360.155          43.000  
E 9  22318499.908   117284518.469       -1204.779          43.000  
E11  27361824.785   143787369.797       -2517.753          43.000  
E19  22060451.184   115928463.251         307.428          43.000  
E20  22591832.301   118720890.024       -2165.739          43.000  
E27  24968761.081   131211735.416        2109.379          43.000  
E10  27112092.608   142475018.317        -936.427          43.000  
> 2019 11  1  2  2 58.0010000  0 17                     
G 2  22021888.831   115725805.620        1192.345          46.000  
G 4  22151571.223   116407291.697        -873.209          46.000  
G 9  21000758.156   110359728.4472      -4007.703          46.000  
G12  19200685.692   100900284.151       -1841.210          46.000  
G14  20247316.247   106400363.207        -649.524          46.000  
G25  18997910.602    99834692.608         357.627          46.000  
G27  22637954.913   118963254.9822      -3572.904          46.000  
G29  21223078.031   111528026.2172       2866.083          46.000  
E 1  25228066.046   132574391.657       -3135.198          43.000  
E 7  26065755.251   136976479.994        2583.113          43.000  
E 8  22693374.630   119254498.212        1348.906          43.000  
E 9  22318728.750   117285720.744       -1199.451          43.000  
E11  27362303.410   143789884.815       -2514.048          43.000  
E19  22060392.673   115928154.997         308.535          43.000  
E20  22592244.859   118723058.532       -2171.039          43.000  
E27  24968359.115   131209621.882        2116.211          43.000  
E10  27112269.134   142475946.007        -920.309          43.000  
> 2019 11  1  2  2 59.0010000  0 17                     
G 2  22021661.175   115724608.209        1203.585          46.000  
G 4  22151735.552   116408155.927        -854.798          46.000  
G 9  21001521.202   110363737.0822      -4008.331          46.000  
G12  19201035.307   100902121.868       -1833.700          46.000  
G14  20247440.790   106401017.514        -659.434          46.000  
G25  18997842.982    99834336.249         354.907          46.000  
G27  22638634.913   118966828.8942      -3573.319          46.000  
G29  21222534.212   111525169.0042       2849.359          46.000  
E 1  25228660.907   132577517.214       -3115.835          43.000  
E 7  26065265.615   136973906.912        2563.478          43.000  
E 8  22693118.809   119253154.649        1338.696          43.000  
E 9  22318956.336   117286916.917       -1192.153          43.000  
E11  27362782.366   143792400.958       -2519.414          43.000  
E19  22060333.953   115927847.710         306.134          43.000  
E20  22592658.220   118725230.753       -2172.633          43.000  
E27  24967956.399   131207506.002        2114.764          43.000  
E10  27112443.514   142476861.064        -911.114          43.000  
> 2019 11  1  2  3  0.0010000  0 17                     
G 2  22021430.675   115723397.443        1218.502          46.000  
G 4  22151896.338   116409001.441        -836.690          46.000  
G 9  21002283.235   110367743.0032      -4002.802          46.000  
G12  19201383.735   100903952.075       -1826.902          46.000  
G14  20247567.443   106401683.915        -673.717          46.000  
G25  18997775.973    99833984.313         348.691          46.000  
G27  22639314.250   118970399.6552      -3567.105          46.000  
G29  21221993.378   111522327.0732       2835.437          46.000  
E 1  25229251.719   132580623.997       -3098.415          43.000  
E 7  26064779.714   136971352.956        2545.329          43.000  
E 8  22692864.944   119251820.261        1330.680          43.000  
E 9  22319182.404   117288105.371       -1184.353          43.000  
E11  27363262.997   143794926.802       -2533.207          43.000  
E19  22060276.141   115927544.520         300.218          43.000  
E20  22593072.139   118727402.876       -2170.958          43.000  
E27  24967554.712   131205395.865        2104.742          43.000  
E10  27112616.359   142477771.462        -911.171          43.000  
> 2019 11  1  2  3  1.0010000  0 17                     
G 2  22021197.226   115722170.710        1235.490          46.000  
G 4  22152054.141   116409830.597        -821.844          46.000  
G 9  21003043.943   110371740.4561      -3991.888          46.000  
G12  19201731.030   100905776.256       -1821.358          46.000  
G14  20247697.029   106402366.344        -690.398          46.000  
G25  18997710.483    99833639.631         341.101          46.000  
G27  22639992.086   118973961.1542      -3554.551          46.000  
G29  21221454.864   111519496.5232       2827.344          46.000  
E 1  25229840.332   132583715.439       -3084.867          43.000  
E 7  26064296.919   136968814.864        2532.681          43.000  
E 8  22692612.404   119250492.403        1326.412          43.000  
E 9  22319407.128   117289286.408       -1176.940          43.000  
E11  27363747.101   143797470.054       -2553.218          43.000  
E19  22060220.108   115927248.581         292.036          43.000  
E20  22593484.610   118729571.753       -2165.851          43.000  
E27  24967155.783   131203299.260        2088.500          43.000  
E10  27112789.622   142478686.603        -919.675          43.000  
> 2019 11  1  2  3  2.0010000  0 17                     
G 2  22020960.095   115720925.588        1254.304          46.000  
G 4  22152209.081   116410645.984        -809.865          46.000  
G 9  21003801.910   110375724.072       -3974.945          46.000  
G12  19202077.085   100907594.478       -1815.632          46.000  
G14  20247829.912   106403063.844        -704.043          46.000  
G25  18997645.812    99833301.560         335.140          46.000  
G27  22640666.624   118977506.3672      -3535.486          46.000  
G29  21220917.118   111516669.3042       2828.314          46.000  
E 1  25230426.311   132586795.021       -3075.426          43.000  
E 7  26063815.485   136966284.524        2529.313          43.000  
E 8  22692359.603   119249164.999        1329.099          43.000  
E 9  22319630.281   117290459.132       -1168.747          43.000  
E11  27364234.870   143800033.252       -2573.256          43.000  
E19  22060165.384   115926959.488         286.065          43.000  
E20  22593895.493   118731732.373       -2155.319          43.000  
E27  24966760.117   131201219.461        2070.711          43.000  
E10  27112966.515   142479612.779        -933.479          44.000  
> 2019 11  1  2  3  3.0010000  0 17                     
G 2  22020719.719   115719663.337        1268.784          46.000  
G 4  22152362.748   116411453.212        -806.197          46.000  
G 9  21004556.632   110379689.985       -3957.526          46.000  
G12  19202422.285   100909408.509       -1813.602          46.000  
G14  20247965.064   106403773.901        -715.718          46.000  
G25  18997582.590    99832969.150         329.403          46.000  
G27  22641337.218   118981031.5422      -3515.602          46.000  
G29  21220377.941   111513837.5582       2835.718          46.000  
E 1  25231011.277   132589868.815       -3074.106          43.000  
E 7  26063334.208   136963753.270        2533.686          43.000  
E 8  22692106.086   119247832.670        1335.498          43.000  
E 9  22319852.126   117291624.706       -1163.596          43.000  
E11  27364726.634   143802616.555       -2593.451          43.000  
E19  22060111.341   115926676.587         279.380          43.000  
E20  22594304.351   118733881.766       -2144.197          43.000  
E27  24966368.028   131199157.755        2051.999          43.000  
E10  27113146.112   142480555.303        -952.747          43.000  
> 2019 11  1  2  3  4.0010000  0 17                     
G 2  22020477.736   115718390.354        1276.519          46.000  
G 4  22152516.484   116412261.633        -811.105          46.000  
G 9  21005308.266   110383640.039       -3942.499          46.000  
G12  19202767.607   100911223.189       -1815.655          46.000  
G14  20248102.223   106404494.499        -723.950          46.000  
G25  18997520.869    99832643.029         324.040          46.000  
G27  22642004.777   118984538.5112      -3498.412          46.000  
G29  21219837.264   111510996.5992       2847.613          46.000  
E 1  25231596.819   132592946.200       -3081.302          43.000  
E 7  26062850.959   136961214.975        2544.506          43.000  
E 8  22691850.929   119246493.241        1344.207          43.000  
E 9  22320073.168   117292787.895       -1162.812          43.000  
E11  27365222.378   143805219.341       -2610.656          43.000  
E19  22060059.112   115926400.588         273.455          43.000  
E20  22594711.622   118736021.181       -2134.540          43.000  
E27  24965979.760   131197115.032        2034.538          43.000  
E10  27113329.375   142481519.359        -974.742          43.000  
> 2019 11  1  2  3  4.9950000  0 17                     
G 2  22020235.981   115717119.758        1278.817          46.000  
G 4  22152671.093   116413072.875        -822.095          46.000  
G 9  21006052.849   110387552.338       -3930.070          46.000  
G12  19203111.446   100913029.705       -1819.427          46.000  
G14  20248239.277   106405214.991        -725.045          46.000  
G25  18997459.723    99832322.097         322.249          46.000  
G27  22642665.006   118988008.3852      -3484.361          46.000  
G29  21219297.127   111508157.6802       2864.806          46.000  
E 1  25232180.755   132596014.760       -3093.956          43.000  
E 7  26062367.745   136958677.324        2562.037          43.000  
E 8  22691595.754   119245151.150        1356.039          43.000  
E 9  22320293.337   117293944.198       -1164.494          43.000  
E11  27365717.161   143807819.553       -2620.252          43.000  
E19  22060007.704   115926130.140         271.039          43.000  
E20  22595114.530   118738137.978       -2125.228          43.000  
E27  24965596.065   131195098.581        2023.453          43.000  
E10  27113515.656   142482498.137        -994.162          43.000  
> 2019 11  1  2  3  5.9950000  0 17                     
G 2  22019993.179   115715843.885        1272.526          46.000  
G 4  22152829.122   116413903.485        -839.153          46.000  
G 9  21006800.172   110391479.394       -3924.494          46.000  
G12  19203458.339   100914852.905       -1826.715          46.000  
G14  20248376.924   106405938.575        -720.855          46.000  
G25  18997398.612    99832000.338         322.329          46.000  
G27  22643327.590   118991488.9312      -3477.461          46.000  
G29  21218750.394   111505284.3982       2882.251          46.000  
E 1  25232771.410   132599117.446       -3111.581          43.000  
E 7  26061877.812   136956105.651        2581.951          43.000  
E 8  22691336.758   119243789.564        1367.202          43.000  
E 9  22320515.443   117295111.399       -1170.000          43.000  
E11  27366215.993   143810441.535       -2622.195          43.000  
E19  22059956.261   115925859.739         270.669          43.000  
E20  22595517.979   118740260.834       -2120.619          43.000  
E27  24965211.183   131193078.377        2018.317          44.000  
E10  27113706.456   142483500.746       -1009.715          43.000  
> 2019 11  1  2  3  6.9950000  0 17                     
G 2  22019752.139   115714577.024        1260.110          46.000  
G 4  22152990.694   116414752.446        -859.054          46.000  
G 9  21007546.867   110395403.535       -3925.201          46.000  
G12  19203806.524   100916683.328       -1834.503          46.000  
G14  20248513.140   106406654.953        -711.391          46.000  
G25  18997336.891    99831676.699         325.106          46.000  
G27  22643989.076   118994965.5041      -3478.203          46.000  
G29  21218200.241   111502393.1981       2898.438          46.000  
E 1  25233365.032   132602238.586       -3130.992          43.000  
E 7  26061384.966   136953513.395        2602.030          43.000  
E 8  22691075.354   119242417.057        1376.914          43.000  
E 9  22320739.033   117296285.089       -1178.004          43.000  
E11  27366714.336   143813060.917       -2615.783          43.000  
E19  22059904.050   115925587.848         273.203          43.000  
E20  22595921.027   118742380.340       -2119.604          43.000  
E27  24964826.859   131191058.838        2021.391          43.000  
E10  27113899.770   142484515.134       -1018.225          43.000  
> 2019 11  1  2  3  7.9950000  0 17                     
G 2  22019513.961   115713325.715        1242.421          46.000  
G 4  22153156.104   116415622.062        -879.357          46.000  
G 9  21008294.678   110399332.524       -3933.522          46.000  
G12  19204156.400   100918522.608       -1843.365          46.000  
G14  20248647.385   106407360.658        -699.218          46.000  
G25  18997274.506    99831349.765         329.357          46.000  
G27  22644651.800   118998447.740       -3486.973          46.000  
G29  21217647.523   111499488.987        2909.561          46.000  
E 1  25233962.946   132605379.295       -3149.803          43.000  
E 7  26060888.280   136950903.263        2617.748          44.000  
E 8  22690813.130   119241037.119        1382.640          43.000  
E 9  22320964.176   117297468.119       -1187.823          43.000  
E11  27367210.935   143815670.658       -2602.441          43.000  
E19  22059851.629   115925312.778         277.581          43.000  
E20  22596324.720   118744501.778       -2123.677          43.000  
E27  24964441.262   131189033.361        2030.883          43.000  
E10  27114093.956   142485534.528       -1018.998          44.000  
> 2019 11  1  2  3  8.9950000  0 17                     
G 2  22019279.220   115712092.393        1224.230          46.000  
G 4  22153325.249   116416509.785        -895.100          46.000  
G 9  21009044.218   110403271.675       -3945.697          46.000  
G12  19204508.005   100920369.301       -1849.628          46.000  
G14  20248779.082   106408052.286        -683.965          46.000  
G25  18997211.232    99831017.030         336.292          46.000  
G27  22645316.461   119001941.312       -3500.799          46.000  
G29  21217093.112   111496575.632        2916.160          46.000  
E 1  25234563.932   132608535.931       -3162.694          43.000  
E 7  26060388.698   136948279.030        2629.427          43.000  
E 8  22690549.701   119239652.785        1385.372          43.000  
E 9  22321191.063   117298660.215       -1196.169          43.000  
E11  27367704.340   143818263.596       -2582.631          43.000  
E19  22059798.005   115925031.751         284.621          43.000  
E20  22596729.687   118746628.457       -2130.125          43.000  
E27  24964053.431   131186994.574        2047.415          43.000  
E10  27114286.990   142486549.752       -1010.193          43.000  
> 2019 11  1  2  3  9.9950000  0 17                     
G 2  22019048.197   115710877.813        1205.126          46.000  
G 4  22153496.890   116417411.362        -907.004          46.000  
G 9  21009796.828   110407225.837       -3963.242          46.000  
G12  19204860.656   100922221.924       -1855.408          46.000  
G14  20248908.266   106408729.879        -671.699          46.000  
G25  18997146.596    99830678.023         341.575          46.000  
G27  22645984.491   119005451.666       -3520.584          46.000  
G29  21216538.405   111493660.078        2913.718          46.000  
E 1  25235166.837   132611703.469       -3171.306          43.000  
E 7  26059887.981   136945647.851        2631.423          43.000  
E 8  22690286.098   119238268.923        1381.591          44.000  
E 9  22321419.644   117299860.806       -1204.838          43.000  
E11  27368193.748   143820836.341       -2562.709          44.000  
E19  22059743.944   115924743.987         290.618          43.000  
E20  22597136.208   118748763.983       -2141.330          43.000  
E27  24963662.337   131184938.298        2065.319          44.000  
E10  27114477.896   142487553.439        -996.540          43.000  
> 2019 11  1  2  3 10.9950000  0 18                     
G 2  22018820.594   115709681.036        1189.591          46.000  
G 4  22153669.996   116418321.697        -911.991          46.000  
G 9  21010552.719   110411198.749       -3982.180          46.000  
G12  19205214.093   100924079.345       -1858.557          46.000  
G14  20249035.146   106409396.987        -662.871          46.000  
G25  18997081.437    99830334.531         345.730          46.000  
G27  22646656.708   119008982.875       -3541.576          46.000  
G29  21215984.936   111490750.872        2904.069          46.000  
E 1  25235770.597   132614876.359       -3172.698          44.000  
E 7  26059388.085   136943019.159        2625.017          44.000  
E 8  22690023.996   119236891.573        1373.163          44.000  
E 9  22321649.707   117301069.252       -1210.947          44.000  
E11  27368679.877   143823389.923       -2544.460          44.000  
E19  22059688.278   115924451.099         295.538          43.000  
E20  22597545.433   118750911.836       -2154.031          43.000  
E27  24963267.805   131182864.349        2082.927          44.000  
E10  27114665.922   142488541.309        -978.611          44.000  
E21  26162082.163   137482679.932       -3390.223          44.000  
> 2019 11  1  2  3 11.9950000  0 18                     
G 2  22018595.015   115708495.549        1182.382          46.000  
G 4  22153843.259   116419231.561        -906.748          46.000  
G 9  21011312.205   110415188.380       -3996.682          46.000  
G12  19205567.652   100925936.864       -1856.152          46.000  
G14  20249160.578   106410056.085        -656.433          46.000  
G25  18997015.039    99829986.284         350.481          46.000  
G27  22647332.433   119012532.889       -3558.191          46.000  
G29  21215433.492   111487852.752        2891.362          46.000  
E 1  25236373.572   132618045.422       -3164.420          44.000  
E 7  26058889.602   136940399.188        2613.596          44.000  
E 8  22689763.569   119235522.975        1363.582          44.000  
E 9  22321880.260   117302280.920       -1211.735          44.000  
E11  27369162.480   143825925.604       -2528.025          44.000  
E19  22059631.163   115924152.688         300.936          44.000  
E20  22597955.757   118753070.738       -2163.755          43.000  
E27  24962869.451   131180772.512        2099.862          44.000  
E10  27114850.056   142489508.810        -956.827          44.000  
E21  26162735.412   137486078.906       -3407.425          44.000  
> 2019 11  1  2  3 12.9950000  0 18                     
G 2  22018370.082   115707314.544        1180.719          46.000  
G 4  22154014.899   116420133.290        -895.757          46.000  
G 9  21012074.029   110419191.536       -4008.624          46.000  
G12  19205920.373   100927791.235       -1852.374          46.000  
G14  20249285.592   106410712.434        -657.346          46.000  
G25  18996948.309    99829635.220         351.274          46.000  
G27  22648010.758   119016098.120       -3571.465          46.000  
G29  21214884.979   111484970.153        2873.544          46.000  
E 1  25236974.470   132621203.482       -3150.981          44.000  
E 7  26058394.033   136937794.198        2595.527          44.000  
E 8  22689505.463   119234165.410        1351.181          44.000  
E 9  22322110.829   117303492.100       -1210.164          44.000  
E11  27369642.535   143828448.933       -2519.970          44.000  
E19  22059573.577   115923850.673         302.542          44.000  
E20  22598368.507   118755239.128       -2172.720          44.000  
E27  24962468.881   131178666.773        2110.303          44.000  
E10  27115030.125   142490456.099        -938.472          44.000  
E21  26163386.113   137489493.315       -3420.789          44.000  
> 2019 11  1  2  3 13.9950000  0 18                     
G 2  22018145.078   115706131.249        1186.389          46.000  
G 4  22154183.695   116421021.361        -880.242          46.000  
G 9  21012837.459   110423203.621       -4014.854          46.000  
G12  19206272.396   100929640.466       -1846.490          46.000  
G14  20249411.268   106411372.545        -664.335          46.000  
G25  18996881.615    99829284.485         349.164          46.000  
G27  22648691.054   119019673.336       -3578.302          46.000  
G29  21214340.183   111482105.839        2854.678          46.000  
E 1  25237572.000   132624345.873       -3133.764          44.000  
E 7  26057902.199   136935208.812        2574.618          44.000  
E 8  22689249.433   119232820.224        1338.677          44.000  
E 9  22322340.684   117304699.940       -1205.612          44.000  
E11  27370121.771   143830968.142       -2520.291          44.000  
E19  22059516.166   115923548.327         301.162          44.000  
E20  22598782.374   118757414.722       -2178.471          44.000  
E27  24962066.601   131176554.105        2113.228          44.000  
E10  27115207.192   142491387.315        -925.408          44.000  
E21  26164036.622   137492917.696       -3427.292          44.000  
> 2019 11  1  2  3 14.9950000  0 18                     
G 2  22017918.313   115704939.779        1198.135          46.000  
G 4  22154349.542   116421892.875        -861.967          46.000  
G 9  21013601.586   110427219.087       -4014.111          46.000  
G12  19206623.338   100931483.831       -1839.471          46.000  
G14  20249538.777   106412042.840        -676.257          46.000  
G25  18996815.496    99828937.629         344.809          46.000  
G27  22649371.944   119023252.130       -3577.389          46.000  
G29  21213798.546   111479260.108        2837.979          46.000  
E 1  25238166.424   132627470.799       -3115.484          44.000  
E 7  26057413.994   136932644.986        2554.315          44.000  
E 8  22688996.091   119231487.241        1328.339          44.000  
E 9  22322569.770   117305902.602       -1198.668          44.000  
E11  27370601.686   143833492.575       -2529.136          44.000  
E19  22059459.261   115923249.410         297.005          44.000  
E20  22599197.305   118759594.516       -2179.624          44.000  
E27  24961665.229   131174442.939        2108.619          44.000  
E10  27115382.934   142492309.573        -919.641          44.000  
E21  26164689.173   137496345.440       -3426.120          44.000  
> 2019 11  1  2  3 15.9950000  0 18                     
G 2  22017688.825   115703733.135        1215.655          46.000  
G 4  22154511.690   116422745.261        -843.118          46.000  
G 9  21014364.859   110431229.472       -4005.503          46.000  
G12  19206972.359   100933319.175       -1831.256          46.000  
G14  20249668.886   106412725.812        -690.014          46.000  
G25  18996750.337    99828595.260         339.683          46.000  
G27  22650051.787   119026825.147       -3567.588          46.000  
G29  21213259.474   111476427.950        2827.227          46.000  
E 1  25238757.655   132630576.815       -3097.054          44.000  
E 7  26056929.349   136930098.843        2538.986          44.000  
E 8  22688743.935   119230161.997        1322.859          44.000  
E 9  22322796.972   117307096.672       -1189.332          44.000  
E11  27371084.569   143836028.329       -2543.256          44.000  
E19  22059403.176   115922954.766         292.114          44.000  
E20  22599612.045   118761772.501       -2175.276          44.000  
E27  24961264.677   131172339.086        2098.337          44.000  
E10  27115558.238   142493229.073        -920.549          44.000  
E21  26165340.869   137499766.967       -3415.798          44.000  
> 2019 11  1  2  3 16.9950000  0 18                     
G 2  22017455.725   115702508.579        1233.728          46.000  
G 4  22154670.731   116423580.803        -828.564          46.000  
G 9  21015125.845   110435228.911       -3992.407          46.000  
G12  19207320.579   100935147.379       -1825.195          46.000  
G14  20249801.629   106413423.811        -705.647          46.000  
G25  18996686.731    99828259.042         332.880          46.000  
G27  22650729.536   119030385.714       -3552.414          46.000  
G29  21212722.199   111473604.015        2822.012          46.000  
E 1  25239345.745   132633667.295       -3084.490          44.000  
E 7  26056447.444   136927565.477        2529.098          44.000  
E 8  22688492.425   119228840.617        1320.878          44.000  
E 9  22323021.853   117308281.954       -1181.295          44.000  
E11  27371570.523   143838581.573       -2563.405          44.000  
E19  22059348.819   115922666.394         284.810          44.000  
E20  22600025.144   118763944.741       -2168.239          44.000  
E27  24960867.056   131170248.960        2081.739          44.000  
E10  27115734.119   142494154.290        -930.550          44.000  
E21  26165989.528   137503175.470       -3400.208          44.000  
> 2019 11  1  2  3 17.9950000  0 18                     
G 2  22017218.629   115701265.858        1251.859          46.000  
G 4  22154827.242   116424404.175        -818.664          46.000  
G 9  21015883.796   110439212.928       -3974.842          46.000  
G12  19207667.140   100936970.180       -1820.386          46.000  
G14  20249937.427   106414136.545        -718.817          46.000  
G25  18996623.683    99827929.396         327.136          46.000  
G27  22651403.481   119033928.789       -3532.689          46.000  
G29  21212184.698   111470781.341        2824.964          46.000  
E 1  25239932.055   132636747.631       -3076.822          43.000  
E 7  26055966.342   136925037.604        2528.454          43.000  
E 8  22688240.409   119227518.276        1325.039          43.000  
E 9  22323245.896   117309459.255       -1173.302          43.000  
E11  27372060.298   143841155.292       -2583.543          43.000  
E19  22059295.037   115922384.920         278.634          43.000  
E20  22600437.021   118766107.840       -2157.110          43.000  
E27  24960472.123   131168176.434        2063.920          43.000  
E10  27115912.146   142495092.461        -946.026          43.000  
E21  26166634.471   137506565.816       -3379.515          43.000  
> 2019 11  1  2  3 18.9950000  0 18                     
G 2  22016979.195   115700007.322        1264.444          46.000  
G 4  22154982.828   116425221.714        -817.545          46.000  
G 9  21016638.448   110443179.151       -3957.879          46.000  
G12  19208013.300   100938789.765       -1819.360          46.000  
G14  20250075.109   106414861.108        -729.614          46.000  
G25  18996561.805    99827605.350         321.370          46.000  
G27  22652073.866   119037451.696       -3513.105          46.000  
G29  21211646.254   111467952.376        2833.843          46.000  
E 1  25240517.370   132639824.518       -3078.021          43.000  
E 7  26055484.471   136922506.722        2534.582          43.000  
E 8  22687987.416   119226189.986        1332.251          43.000  
E 9  22323468.579   117310630.392       -1169.400          43.000  
E11  27372553.528   143843748.949       -2603.265          43.000  
E19  22059242.460   115922109.594         272.180          43.000  
E20  22600846.281   118768259.552       -2146.193          43.000  
E27  24960081.412   131166122.263        2044.952          43.000  
E10  27116094.327   142496048.452        -966.385          43.000  
E21  26167275.348   137509935.378       -3359.442          43.000  
> 2019 11  1  2  3 19.9950000  0 18                     
G 2  22016737.963   115698739.947        1269.940          46.000  
G 4  22155138.955   116426042.869        -825.270          46.000  
G 9  21017390.186   110447130.173       -3944.204          46.000  
G12  19208359.914   100940611.084       -1823.126          46.000  
G14  20250214.606   106415594.949        -736.566          46.000  
G25  18996501.130    99827287.268         315.878          46.000  
G27  22652740.709   119040957.144       -3497.568          46.000  
G29  21211105.908   111465112.786        2846.689          46.000  
E 1  25241103.837   132642907.342       -3088.062          43.000  
E 7  26055000.873   136919966.907        2546.584          43.000  
E 8  22687733.253   119224853.891        1341.026          43.000  
E 9  22323691.086   117311800.323       -1170.302          43.000  
E11  27373050.702   143846361.002       -2619.281          43.000  
E19  22059191.156   115921840.846         266.235          43.000  
E20  22601253.866   118770401.591       -2137.375          43.000  
E27  24959694.105   131164086.413        2027.914          43.000  
E10  27116280.241   142497026.553        -989.026          43.000  
E21  26167913.118   137513286.964       -3343.401          43.000  
> 2019 11  1  2  3 20.9950000  0 18                     
G 2  22016496.330   115697469.883        1269.111          46.000  
G 4  22155297.089   116426874.295        -838.524          46.000  
G 9  21018139.446   110451068.668       -3933.665          46.000  
G12  19208707.312   100942436.436       -1828.143          46.000  
G14  20250354.627   106416331.793        -736.202          46.000  
G25  18996441.154    99826972.214         314.530          46.000  
G27  22653405.143   119044448.187       -3485.462          46.000  
G29  21210562.403   111462257.564        2863.941          46.000  
E 1  25241692.747   132646002.153       -3102.510          43.000  
E 7  26054514.745   136917411.309        2565.024          43.000  
E 8  22687477.154   119223507.014        1352.677          43.000  
E 9  22323913.751   117312971.850       -1173.277          43.000  
E11  27373549.866   143848984.668       -2626.847          43.000  
E19  22059140.829   115921575.751         264.261          43.000  
E20  22601659.531   118772534.840       -2129.562          43.000  
E27  24959309.118   131162063.595        2018.386          43.000  
E10  27116469.925   142498025.232       -1007.860          43.000  
E21  26168547.852   137516623.812       -3331.131          43.000  
> 2019 11  1  2  3 21.9950000  0 18                     
G 2  22016255.377   115696204.519        1261.179          46.000  
G 4  22155458.189   116427721.907        -856.535          46.000  
G 9  21018887.850   110455000.159       -3929.403          46.000  
G12  19209055.968   100944268.407       -1835.364          46.000  
G14  20250494.229   106417065.836        -730.481          46.000  
G25  18996381.457    99826657.709         315.845          46.000  
G27  22654067.763   119047931.071       -3480.582          46.000  
G29  21210015.967   111459385.029        2881.517          46.000  
E 1  25242284.554   132649114.026       -3121.055          43.000  
E 7  26054024.569   136914836.387        2585.373          43.000  
E 8  22687218.856   119222148.987        1363.707          43.000  
E 9  22324137.794   117314148.462       -1179.639          43.000  
E11  27374049.919   143851612.217       -2626.229          43.000  
E19  22059090.189   115921311.684         265.078          43.000  
E20  22602064.219   118774662.498       -2125.695          43.000  
E27  24958925.126   131160047.337        2015.882          43.000  
E10  27116663.588   142499040.599       -1021.309          43.000  
E21  26169181.662   137519952.395       -3326.521          43.000  
> 2019 11  1  2  3 22.9950000  0 18                     
G 2  22016016.850   115694949.850        1247.605          46.000  
G 4  22155623.216   116428588.431        -876.417          46.000  
G 9  21019635.697   110458930.555       -3932.042          46.000  
G12  19209405.653   100946107.800       -1843.414          46.000  
G14  20250632.382   106417791.005        -719.366          46.000  
G25  18996321.375    99826340.481         319.235          46.000  
G27  22654730.802   119051412.534       -3483.229          46.000  
G29  21209466.181   111456495.527        2896.997          46.000  
E 1  25242880.426   132652244.537       -3139.918          43.000  
E 7  26053530.815   136912240.917        2605.001          43.000  
E 8  22686958.185   119220780.467        1372.777          43.000  
E 9  22324362.955   117315332.116       -1187.840          43.000  
E11  27374549.379   143854234.530       -2617.150          43.000  
E19  22059039.513   115921045.146         268.639          43.000  
E20  22602468.471   118776787.867       -2125.750          43.000  
E27  24958540.924   131158029.356        2021.208          43.000  
E10  27116859.065   142500065.441       -1027.167          43.000  
E21  26169814.878   137523279.640       -3329.329          43.000  
> 2019 11  1  2  3 23.9950000  0 18                     
G 2  22015781.377   115693711.751        1229.428          46.000  
G 4  22155792.169   116429475.201        -895.885          46.000  
G 9  21020385.027   110462867.456       -3941.563          46.000  
G12  19209757.519   100947955.792       -1851.508          46.000  
G14  20250768.145   106418504.271        -705.888          46.000  
G25  18996260.108    99826019.187         324.255          46.000  
G27  22655394.590   119054901.090       -3493.833          46.000  
G29  21208913.899   111453593.619        2906.809          46.000  
E 1  25243479.841   132655393.886       -3157.389          44.000  
E 7  26053033.920   136909628.391        2619.925          44.000  
E 8  22686696.868   119219405.340        1377.711          44.000  
E 9  22324590.470   117316525.193       -1197.391          43.000  
E11  27375045.960   143856844.872       -2601.551          44.000  
E19  22058988.315   115920774.557         273.757          43.000  
E20  22602873.543   118778916.190       -2130.631          44.000  
E27  24958155.781   131156003.146        2032.912          44.000  
E10  27117054.420   142501092.607       -1025.093          44.000  
E21  26170449.804   137526614.282       -3340.057          43.000  
> 2019 11  1  2  3 24.9950000  0 18                     
G 2  22015549.481   115692491.942        1210.210          46.000  
G 4  22155964.385   116430378.840        -910.940          46.000  
G 9  21021136.608   110466815.922       -3956.051          46.000  
G12  19210110.327   100949810.702       -1857.861          46.000  
G14  20250901.098   106419203.017        -691.765          46.000  
G25  18996197.968    99825691.666         330.461          46.000  
G27  22656060.648   119058402.563       -3509.941          46.000  
G29  21208360.570   111450684.270        2910.368          46.000  
E 1  25244082.170   132658557.714       -3169.866          44.000  
E 7  26052534.599   136907003.448        2628.527          44.000  
E 8  22686434.556   119218026.979        1378.130          44.000  
E 9  22324819.243   117317727.104       -1206.338          44.000  
E11  27375539.243   143859436.907       -2582.146          44.000  
E19  22058935.597   115920497.461         280.347          44.000  
E20  22603280.168   118781050.708       -2139.166          44.000  
E27  24957767.583   131153961.933        2049.757          44.000  
E10  27117248.676   142502113.066       -1014.945          44.000  
E21  26171086.824   137529962.295       -3356.826          44.000  
> 2019 11  1  2  3 25.9950000  0 18                     
G 2  22015321.023   115691291.041        1192.485          46.000  
G 4  22156138.888   116431295.189        -920.384          46.000  
G 9  21021890.963   110470780.949       -3973.922          46.000  
G12  19210464.323   100951671.515       -1862.805          46.000  
G14  20251031.486   106419888.707        -679.743          46.000  
G25  18996134.414    99825358.505         336.037          46.000  
G27  22656730.544   119061922.501       -3529.887          46.000  
G29  21207806.962   111447775.408        2906.317          46.000  
E 1  25244686.262   132661731.124       -3175.794          44.000  
E 7  26052034.494   136904374.446        2628.294          44.000  
E 8  22686172.593   119216651.078        1373.136          44.000  
E 9  22325049.621   117318937.647       -1214.216          44.000  
E11  27376028.512   143862008.848       -2561.604          44.000  
E19  22058881.554   115920214.216         286.294          44.000  
E20  22603688.607   118783195.442       -2150.514          44.000  
E27  24957375.581   131151903.075        2068.291          44.000  
E10  27117440.611   142503120.669        -999.373          44.000  
E21  26171727.788   137533329.269       -3377.240          44.000  
> 2019 11  1  2  3 26.9950000  0 18                     
G 2  22015095.531   115690105.170        1180.803          46.000  
G 4  22156314.140   116432216.516        -920.615          46.000  
G 9  21022648.669   110474763.345       -3990.247          46.000  
G12  19210819.051   100953534.705       -1862.598          46.000  
G14  20251160.042   106420563.393        -669.997          46.000  
G25  18996070.023    99825019.614         342.060          46.000  
G27  22657404.262   119065461.923       -3548.200          46.000  
G29  21207254.662   111444873.285        2897.503          46.000  
E 1  25245290.668   132664906.124       -3172.616          44.000  
E 7  26051534.964   136901748.696        2622.307          44.000  
E 8  22685912.131   119215281.317        1366.094          44.000  
E 9  22325280.853   117320153.644       -1216.927          44.000  
E11  27376514.169   143864560.591       -2541.821          44.000  
E19  22058826.568   115919924.543         293.296          44.000  
E20  22604098.879   118785351.237       -2160.758          44.000  
E27  24956980.264   131149825.087        2087.880          44.000  
E10  27117628.480   142504109.676        -977.980          44.000  
E21  26172372.172   137536716.193       -3396.132          44.000  
> 2019 11  1  2  3 27.9950000  0 18                     
G 2  22014871.435   115688928.221        1174.121          46.000  
G 4  22156488.730   116433134.545        -914.440          46.000  
G 9  21023409.272   110478761.337       -4005.246          46.000  
G12  19211173.203   100955396.563       -1860.724          46.000  
G14  20251287.062   106421231.052        -666.474          46.000  
G25  18996004.480    99824675.979         344.787          46.000  
G27  22658080.947   119069018.939       -3565.080          46.000  
G29  21206704.736   111441983.277        2882.048          46.000  
E 1  25245893.311   132668074.592       -3163.410          44.000  
E 7  26051036.865   136899133.212        2607.781          44.000  
E 8  22685653.414   119213920.639        1354.671          44.000  
E 9  22325512.697   117321371.298       -1217.697          44.000  
E11  27376996.703   143867095.337       -2528.647          44.000  
E19  22058770.379   115919629.376         296.861          44.000  
E20  22604511.001   118787517.360       -2171.313          44.000  
E27  24956581.282   131147729.629        2102.280          44.000  
E10  27117812.859   142505077.556        -957.881          44.000  
E21  26173019.889   137540121.036       -3413.129          44.000  
> 2019 11  1  2  3 28.9950000  0 18                     
G 2  22014648.474   115687754.633        1174.501          46.000  
G 4  22156661.609   116434043.496        -902.412          46.000  
G 9  21024172.806   110482772.594       -4015.916          46.000  
G12  19211527.704   100957255.497       -1856.488          46.000  
G14  20251414.361   106421898.782        -669.532          46.000  
G25  18995939.041    99824331.281         344.596          46.000  
G27  22658760.668   119072590.768       -3576.991          46.000  
G29  21206158.003   111439110.730        2863.329          46.000  
E 1  25246494.070   132671231.360       -3148.938          44.000  
E 7  26050542.413   136896535.213        2588.189          44.000  
E 8  22685396.914   119212572.421        1342.053          44.000  
E 9  22325744.052   117322588.442       -1215.494          44.000  
E11  27377477.177   143869620.872       -2523.249          44.000  
E19  22058713.875   115919332.440         297.202          44.000  
E20  22604925.095   118789693.353       -2179.756          44.000  
E27  24956180.503   131145623.019        2110.260          44.000  
E10  27117993.451   142506027.008        -941.247          44.000  
E21  26173670.643   137543540.841       -3424.993          44.000  
> 2019 11  1  2  3 29.9950000  0 18                     
G 2  22014423.959   115686576.202        1183.052          46.000  
G 4  22156831.836   116434936.916        -884.402          46.000  
G 9  21024937.317   110486790.574       -4019.044          46.000  
G12  19211879.884   100959108.238       -1849.091          46.000  
G14  20251542.411   106422571.564        -677.128          46.000  
G25  18995873.708    99823987.219         343.043          46.000  
G27  22659442.099   119076170.113       -3580.495          46.000  
G29  21205614.848   111436256.102        2846.038          46.000  
E 1  25247091.321   132674370.909       -3130.105          44.000  
E 7  26050052.009   136893956.984        2568.237          44.000  
E 8  22685142.367   119211235.974        1331.053          44.000  
E 9  22325974.988   117323800.883       -1209.120          44.000  
E11  27377957.407   143872144.310       -2525.207          44.000  
E19  22058657.319   115919035.567         296.154          44.000  
E20  22605340.428   118791875.068       -2183.169          44.000  
E27  24955778.520   131143511.156        2111.907          44.000  
E10  27118171.042   142506961.512        -928.933          44.000  
E21  26174322.827   137546968.106       -3428.511          44.000  
> 2019 11  1  2  3 30.9950000  0 18                     
G 2  22014197.525   115685386.462        1197.261          46.000  
G 4  22156998.119   116435811.866        -865.402          46.000  
G 9  21025702.318   110490808.610       -4015.522          46.000  
G12  19212231.018   100960953.467       -1840.845          46.000  
G14  20251672.467   106423254.611        -689.265          46.000  
G25  18995808.514    99823646.389         338.758          46.000  
G27  22660123.093   119079749.461       -3576.693          46.000  
G29  21205074.921   111433418.002        2831.087          46.000  
E 1  25247685.483   132677491.393       -3110.798          44.000  
E 7  26049565.253   136891398.667        2549.438          44.000  
E 8  22684889.845   119209909.722        1322.315          44.000  
E 9  22326204.563   117325006.132       -1200.865          44.000  
E11  27378438.649   143874674.043       -2535.239          44.000  
E19  22058601.339   115918741.595         291.932          44.000  
E20  22605755.882   118794058.412       -2182.385          44.000  
E27  24955377.287   131141401.685        2105.957          44.000  
E10  27118347.028   142507887.931        -924.674          44.000  
E21  26174974.837   137550395.064       -3423.888          44.000  
> 2019 11  1  2  3 31.9950000  0 18                     
G 2  22013967.985   115684180.255        1215.395          46.000  
G 4  22157160.982   116436667.823        -847.149          46.000  
G 9  21026465.363   110494819.515       -4005.134          46.000  
G12  19212580.720   100962790.564       -1833.124          46.000  
G14  20251804.810   106423951.064        -703.764          46.000  
G25  18995744.524    99823310.358         333.261          46.000  
G27  22660802.640   119083320.733       -3564.886          46.000  
G29  21204537.000   111430591.874        2821.928          46.000  
E 1  25248275.824   132680593.449       -3093.930          44.000  
E 7  26049081.306   136888856.649        2535.491          44.000  
E 8  22684638.457   119208589.936        1317.964          44.000  
E 9  22326432.358   117326202.367       -1191.625          44.000  
E11  27378922.788   143877216.953       -2551.634          44.000  
E19  22058546.318   115918452.347         286.197          44.000  
E20  22606171.006   118796238.541       -2177.290          44.000  
E27  24954977.538   131139301.346        2093.904          44.000  
E10  27118523.467   142508813.910        -928.558          44.000  
E21  26175625.486   137553813.489       -3411.962          44.000  
> 2019 11  1  2  3 32.9950000  0 18                     
G 2  22013734.920   115682956.077        1233.709          46.000  
G 4  22157321.227   116437508.386        -834.054          46.000  
G 9  21027226.158   110498818.262       -3990.667          46.000  
G12  19212929.009   100964621.188       -1827.374          46.000  
G14  20251940.276   106424663.016        -719.019          46.000  
G25  18995682.087    99822980.977         326.470          46.000  
G27  22661479.551   119086878.156       -3548.298          46.000  
G29  21204000.580   111427772.331        2819.007          46.000  
E 1  25248863.425   132683681.600       -3082.412          44.000  
E 7  26048599.802   136886325.759        2528.271          44.000  
E 8  22684388.082   119207272.948        1317.686          44.000  
E 9  22326658.286   117327390.173       -1183.170          44.000  
E11  27379410.068   143879778.827       -2571.690          44.000  
E19  22058492.851   115918169.927         279.444          44.000  
E20  22606584.331   118798412.078       -2168.476          44.000  
E27  24954580.667   131137216.434        2076.519          44.000  
E10  27118700.796   142509748.167        -940.080          44.000  
E21  26176273.605   137557217.433       -3394.401          44.000  
> 2019 11  1  2  3 33.9950000  0 18                     
G 2  22013498.400   115681714.121        1249.394          46.000  
G 4  22157479.099   116438338.463        -827.742          46.000  
G 9  21027983.951   110502800.581       -3974.043          46.000  
G12  19213276.251   100966446.907       -1824.719          46.000  
G14  20252078.290   106425389.031        -732.747          46.000  
G25  18995620.697    99822657.925         319.533          46.000  
G27  22662153.060   119090416.962       -3529.347          46.000  
G29  21203463.882   111424951.790        2822.706          46.000  
E 1  25249449.194   132686761.445       -3078.686          44.000  
E 7  26048118.874   136883797.897        2528.537          44.000  
E 8  22684137.025   119205953.466        1321.825          44.000  
E 9  22326882.818   117328570.414       -1177.621          44.000  
E11  27379901.605   143882361.363       -2593.216          44.000  
E19  22058439.941   115917894.265         271.848          44.000  
E20  22606996.087   118800575.628       -2158.568          44.000  
E27  24954187.601   131135149.608        2056.825          44.000  
E10  27118881.685   142510697.059        -958.385          44.000  
E21  26176917.465   137560602.120       -3374.796          44.000  
> 2019 11  1  2  3 34.9950000  0 18                     
G 2  22013259.541   115680458.078        1261.649          46.000  
G 4  22157636.587   116439165.354        -827.598          46.000  
G 9  21028738.359   110506765.428       -3956.078          46.000  
G12  19213623.301   100968270.676       -1823.407          46.000  
G14  20252218.677   106426126.157        -740.953          46.000  
G25  18995560.284    99822340.542         315.292          46.000  
G27  22662822.642   119093935.948       -3509.111          46.000  
G29  21202925.630   111422123.454        2834.552          46.000  
E 1  25250035.242   132689840.464       -3080.873          44.000  
E 7  26047636.969   136881265.109        2538.034          44.000  
E 8  22683884.730   119204627.287        1330.978          44.000  
E 9  22327106.268   117329745.755       -1173.761          44.000  
E11  27380396.651   143884963.582       -2610.645          44.000  
E19  22058389.004   115917624.826         266.907          44.000  
E20  22607405.190   118802727.963       -2146.569          44.000  
E27  24953798.217   131133101.296        2039.901          44.000  
E10  27119066.169   142511665.248        -978.114          44.000  
E21  26177557.260   137563966.409       -3354.332          44.000  
> 2019 11  1  2  3 35.9950000  0 18                     
G 2  22013019.025   115679194.038        1265.632          46.000  
G 4  22157794.826   116439997.049        -836.429          46.000  
G 9  21029489.922   110510714.707       -3942.567          46.000  
G12  19213970.874   100970096.001       -1827.234          46.000  
G14  20252360.093   106426869.899        -745.062          46.000  
G25  18995500.639    99822027.430         311.680          46.000  
G27  22663488.944   119097437.159       -3493.545          46.000  
G29  21202384.900   111419281.944        2849.521          46.000  
E 1  25250622.669   132692926.436       -3091.768          44.000  
E 7  26047152.446   136878720.306        2552.799          44.000  
E 8  22683630.603   119203291.406        1341.455          44.000  
E 9  22327329.666   117330919.828       -1174.607          44.000  
E11  27380894.837   143887581.557       -2623.777          44.000  
E19  22058338.660   115917360.265         262.864          44.000  
E20  22607812.617   118804869.778       -2137.022          44.000  
E27  24953411.433   131131069.131        2025.701          44.000  
E10  27119254.474   142512654.564        -999.473          44.000  
E21  26178193.949   137567312.446       -3338.245          44.000  
> 2019 11  1  2  3 36.9950000  0 18                     
G 2  22012778.491   115677929.010        1263.510          46.000  
G 4  22157955.281   116440840.512        -850.862          46.000  
G 9  21030239.287   110514652.397       -3933.404          46.000  
G12  19214319.093   100971925.721       -1832.391          46.000  
G14  20252501.702   106427614.451        -742.839          46.000  
G25  18995441.536    99821716.221         311.397          46.000  
G27  22664152.575   119100925.134       -3483.259          46.000  
G29  21201840.819   111416423.579        2867.628          46.000  
E 1  25251212.225   132696025.659       -3107.271          44.000  
E 7  26046664.660   136876157.943        2572.562          44.000  
E 8  22683373.735   119201944.004        1353.565          44.000  
E 9  22327553.413   117332096.132       -1178.170          44.000  
E11  27381394.716   143890208.541       -2628.625          44.000  
E19  22058289.049   115917098.147         262.156          44.000  
E20  22608218.719   118807003.137       -2129.830          44.000  
E27  24953026.411   131129047.826        2018.323          44.000  
E10  27119446.548   142513663.143       -1016.454          44.000  
E21  26178828.160   137570644.963       -3327.628          44.000  
> 2019 11  1  2  3 37.9950000  0 18                     
G 2  22012538.934   115676670.332        1253.243          46.000  
G 4  22158118.859   116441700.981        -870.395          46.000  
G 9  21030987.884   110518584.415       -3931.663          46.000  
G12  19214668.446   100973762.151       -1840.649          46.000  
G14  20252642.577   106428353.976        -735.645          46.000  
G25  18995382.222    99821404.314         312.776          46.000  
G27  22664815.247   119104406.501       -3480.919          46.000  
G29  21201293.598   111413547.470        2884.226          46.000  
E 1  25251805.375   132699142.426       -3126.632          44.000  
E 7  26046173.594   136873575.293        2592.454          44.000  
E 8  22683115.263   119200585.220        1363.613          44.000  
E 9  22327778.451   117333277.935       -1185.700          44.000  
E11  27381894.926   143892836.412       -2625.851          44.000  
E19  22058238.863   115916835.715         263.251          44.000  
E20  22608623.651   118809131.462       -2127.552          44.000  
E27  24952642.437   131127030.431        2017.418          44.000  
E10  27119641.066   142514686.246       -1028.707          44.000  
E21  26179461.306   137573970.837       -3325.414          44.000  
> 2019 11  1  2  3 38.9950000  0 18                     
G 2  22012301.908   115675425.779        1235.953          46.000  
G 4  22158286.835   116442582.562        -892.088          46.000  
G 9  21031736.603   110522519.054       -3937.902          46.000  
G12  19215019.807   100975607.979       -1850.342          46.000  
G14  20252781.900   106429085.019        -725.181          46.000  
G25  18995322.508    99821090.755         315.247          46.000  
G27  22665478.269   119107890.429       -3487.527          46.000  
G29  21200743.358   111410656.960        2896.655          46.000  
E 1  25252402.399   132702279.691       -3146.896          44.000  
E 7  26045678.531   136870974.266        2609.595          44.000  
E 8  22682855.220   119199218.432        1370.006          44.000  
E 9  22328005.007   117334469.107       -1196.068          44.000  
E11  27382394.125   143895458.421       -2616.259          44.000  
E19  22058188.711   115916571.775         265.909          44.000  
E20  22609028.932   118811260.498       -2130.616          44.000  
E27  24952258.131   131125010.806        2023.485          44.000  
E10  27119837.660   142515718.270       -1033.664          44.000  
E21  26180094.574   137577299.438       -3332.280          44.000  
> 2019 11  1  2  3 39.9950000  0 18                     
G 2  22012068.529   115674198.638        1218.170          46.000  
G 4  22158458.179   116443483.756        -909.567          46.000  
G 9  21032486.892   110526461.877       -3948.360          46.000  
G12  19215372.301   100977462.161       -1857.660          46.000  
G14  20252918.465   106429803.215        -710.550          46.000  
G25  18995261.886    99820772.532         321.379          46.000  
G27  22666142.773   119111383.381       -3499.212          46.000  
G29  21200191.163   111407755.392        2905.594          46.000  
E 1  25253002.687   132705434.894       -3162.554          44.000  
E 7  26045180.572   136868357.374        2623.368          44.000  
E 8  22682594.007   119197846.004        1374.401          44.000  
E 9  22328233.692   117335669.790       -1205.007          44.000  
E11  27382890.025   143898066.409       -2598.730          44.000  
E19  22058137.302   115916303.060         271.976          44.000  
E20  22609435.173   118813393.578       -2136.021          44.000  
E27  24951872.079   131122980.889        2037.454          44.000  
E10  27120034.219   142516749.991       -1028.338          44.000  
E21  26180729.623   137580637.418       -3344.444          44.000  
> 2019 11  1  2  3 40.9950000  0 16                     
G 2  22011838.570   115672990.992        1197.819          46.000  
G 4  22158633.065   116444401.550        -924.511          46.000  
G 9  21033239.747   110530418.670       -3965.375          46.000  
G12  19215726.628   100979323.801       -1864.923          46.000  
G14  20253052.431   106430507.780        -698.228          46.000  
G25  18995200.391    99820448.893         326.188          46.000  
G27  22666810.628   119114891.824       -3517.990          46.000  
G29  21199638.567   111404849.352        2905.701          46.000  
E 8  22682332.411   119196472.706        1371.914          44.000  
E 9  22328463.983   117336880.090       -1214.964          44.000  
E11  27383382.872   143900655.919       -2579.613          44.000  
E19  22058085.248   115916028.546         277.462          44.000  
E20  22609842.392   118815534.867       -2146.661          44.000  
E27  24951482.748   131120935.649        2053.815          44.000  
E10  27120228.964   142517773.733       -1017.656          44.000  
E21  26181367.777   137583991.347       -3363.645          44.000  
> 2019 11  1  2  3 41.9950000  0 18                     
G 2  22011612.398   115671801.559        1181.815          46.000  
G 4  22158809.364   116445330.075        -931.217          46.000  
G 9  21033996.144   110534392.717       -3982.779          46.000  
G12  19216081.757   100981190.603       -1868.127          46.000  
G14  20253184.180   106431199.865        -686.453          46.000  
G25  18995137.797    99820119.695         332.011          46.000  
G27  22667481.850   119118419.522       -3537.507          46.000  
G29  21199085.814   111401945.830        2900.327          46.000  
E 1  25254206.455                1      -3177.333          43.000  
E 7  26044179.836                1       2626.625          44.000  
E 8  22682072.071   119195103.159        1366.625          44.000  
E 9  22328695.948   117338098.370       -1220.990          44.000  
E11  27383871.600   143903225.148       -2558.880          44.000  
E19  22058031.763   115915747.902         283.845          44.000  
E20  22610252.280   118817686.998       -2157.729          44.000  
E27  24951089.856   131118872.203        2073.065          44.000  
E10  27120420.881   142518782.828        -999.756          44.000  
E21  26182009.962   137587365.020       -3383.679          44.000  
> 2019 11  1  2  3 42.9950000  0 18                     
G 2  22011388.738   115670626.397        1169.993          46.000  
G 4  22158986.641   116446261.986        -930.854          46.000  
G 9  21034755.752   110538384.776       -4000.406          46.000  
G12  19216437.602   100983059.575       -1868.658          46.000  
G14  20253314.131   106431882.809        -679.678          46.000  
G25  18995074.418    99819785.809         336.152          46.000  
G27  22668156.929   119121967.334       -3557.153          46.000  
G29  21198535.190   111399051.608        2887.897          46.000  
E 1  25254813.234   132714937.469       -3173.950          44.000  
E 7  26043682.174   136860477.087        2616.511          44.000  
E 8  22681812.848   119193741.572        1356.718          44.000  
E 9  22328929.013   117339321.903       -1224.817          44.000  
E11  27384357.152   143905775.654       -2542.291          44.000  
E19  22057977.179   115915461.876         288.475          44.000  
E20  22610664.227   118819851.030       -2169.667          44.000  
E27  24950693.754   131116790.664        2089.948          44.000  
E10  27120609.152   142519773.098        -979.906          44.000  
E21  26182656.109   137590759.243       -3403.796          44.000  
> 2019 11  1  2  3 43.9950000  0 18                     
G 2  22011166.440   115669458.775        1166.639          46.000  
G 4  22159163.220   116447188.947        -921.631          46.000  
G 9  21035518.397   110542392.196       -4013.375          46.000  
G12  19216792.661   100984926.915       -1865.155          46.000  
G14  20253443.089   106432560.958        -677.250          46.000  
G25  18995009.869    99819448.400         338.944          46.000  
G27  22668835.359   119125532.406       -3572.001          46.000  
G29  21197986.886   111396171.460        2872.280          46.000  
E 1  25255413.836   132718106.187       -3162.166          44.000  
E 7  26043182.748   136857867.993        2601.312          44.000  
E 8  22681555.684   119192390.386        1345.688          44.000  
E 9  22329161.991   117340546.625       -1223.771          44.000  
E11  27384839.476   143908311.401       -2530.111          44.000  
E19  22057922.176   115915171.604         291.972          44.000  
E20  22611077.919   118822025.630       -2178.874          44.000  
E27  24950294.859   131114693.434        2103.944          44.000  
E10  27120793.670   142520742.869        -959.586          44.000  
E21  26183305.310   137594171.009       -3418.856          44.000  
> 2019 11  1  2  3 44.9950000  0 18                     
G 2  22010944.351   115668291.665        1169.021          46.000  
G 4  22159337.268   116448104.294        -908.125          46.000  
G 9  21036283.048   110546410.766       -4022.579          46.000  
G12  19217147.128   100986789.880       -1860.394          46.000  
G14  20253572.430   106433240.281        -682.128          46.000  
G25  18994945.653    99819109.971         337.794          46.000  
G27  22669515.970   119129109.947       -3581.966          46.000  
G29  21197442.422   111393308.771        2853.228          46.000  
E 1  25256018.067   132721260.901       -3146.397          44.000  
E 7  26042691.176   136855276.957        2580.503          44.000  
E 8  22681301.156   119191051.209        1332.846          44.000  
E 9  22329394.760   117341769.110       -1220.529          44.000  
E11  27385320.701   143910839.506       -2527.089          44.000  
E19  22057866.545   115914879.675         291.598          44.000  
E20  22611493.078   118824208.647       -2186.276          44.000  
E27  24949893.748   131112586.226        2109.789          44.000  
E10  27120974.507   142521694.537        -944.424          44.000  
E21  26183957.267   137597595.314       -3428.556          44.000  
> 2019 11  1  2  3 45.9950000  0 17                     
G 2  22010721.163   115667118.013        1179.278          46.000  
G 4  22159508.507   116449003.296        -889.822          46.000  
G 9  21037048.781   110550434.544       -4024.139          46.000  
G12  19217500.512   100988646.477       -1852.838          46.000  
G25  18994881.384    99818773.281         335.194          46.000  
G27  22670197.750   119132693.257       -3583.563          46.000  
G29  21196901.151   111390464.206        2836.265          46.000  
E 1  25256615.318   132724397.909       -3127.208          44.000  
E 7  26042203.285   136852706.386        2560.536          44.000  
E 8  22681048.564   119189723.843        1322.278          44.000  
E 9  22329625.975   117342986.376       -1213.521          44.000  
E11  27385801.821   143913368.366       -2531.519          44.000  
E19  22057811.262   115914589.017         289.519          44.000  
E20  22611909.422   118826396.628       -2188.908          43.000  
E27  24949492.323   131110476.304        2109.050          44.000  
E10  27121153.459   142522633.414        -934.396          44.000  
E21  26184609.905   137601025.264       -3429.803          44.000  
> 2019 11  1  2  3 46.9950000  0 18                     
G 2  22010495.217   115665930.999        1195.121          46.000  
G 4  22159675.925   116449883.037        -870.308          46.000  
G 9  21037813.851   110554455.930       -4018.034          46.000  
G12  19217852.448   100990494.915       -1844.330          46.000  
G14  20253832.804                1       -703.527          46.000  
G25  18994818.004    99818439.993         330.902          46.000  
G27  22670879.390   119136273.872       -3576.855          46.000  
G29  21196362.585   111387634.757        2823.233          46.000  
E 1  25257208.416   132727515.418       -3108.344          44.000  
E 7  26041716.494   136850154.682        2543.018          44.000  
E 8  22680797.682   119188405.399        1314.963          44.000  
E 9  22329855.917   117344195.462       -1204.790          44.000  
E11  27386284.930   143915905.423       -2543.585          44.000  
E19  22057756.539   115914301.567         285.052          44.000  
E20  22612325.942   118828584.510       -2186.273          44.000  
E27  24949091.858   131108370.544        2101.225          44.000  
E10  27121330.858   142523566.105        -932.466          44.000  
E21  26185261.671   137604452.172       -3422.910          44.000  
> 2019 11  1  2  3 47.9950000  0 18                     
G 2  22010265.939   115664727.130        1212.987          46.000  
G 4  22159839.904   116450744.902        -853.869          46.000  
G 9  21038577.751   110558468.925       -4006.815          46.000  
G12  19218202.691   100992335.888       -1837.610          46.000  
G14  20253970.312   106435321.315        -719.720          46.000  
G25  18994755.742    99818112.449         324.352          46.000  
G27  22671558.867   119139844.910       -3564.049          46.000  
G29  21195826.288   111384816.228        2815.252          46.000  
E 1  25257797.326   132730615.878       -3093.181          44.000  
E 7  26041233.385   136847618.348        2530.734          44.000  
E 8  22680547.987   119187092.770        1311.349          44.000  
E 9  22330084.480   117345395.872       -1196.084          44.000  
E11  27386770.430   143918457.960       -2561.762          44.000  
E19  22057702.862   115914019.879         278.497          44.000  
E20  22612741.379   118830768.476       -2180.543          44.000  
E27  24948693.348   131106276.287        2086.777          44.000  
E10  27121508.815   142524501.298        -939.013          44.000  
E21  26185911.901   137607868.968       -3409.395          44.000  
> 2019 11  1  2  3 48.9950000  0 18                     
G 2  22010033.467   115663504.376        1232.249          46.000  
G 4  22160001.074   116451591.931        -841.130          46.000  
G 9  21039338.406   110562467.585       -3989.765          46.000  
G12  19218551.835   100994170.017       -1831.061          46.000  
G14  20254109.879   106436048.094        -733.141          46.000  
G25  18994694.352    99817790.855         318.970          46.000  
G27  22672235.342   119143399.766       -3544.849          46.000  
G29  21195290.775   111382001.442        2815.743          46.000  
E 1  25258386.149   132733703.195       -3082.361          44.000  
E 7  26040753.102   136845090.266        2526.859          44.000  
E 8  22680298.431   119185780.729        1313.751          44.000  
E 9  22330311.071   117346587.296       -1186.988          44.000  
E11  27387259.944   143921029.640       -2581.403          44.000  
E19  22057650.494   115913744.431         272.786          44.000  
E20  22613155.385   118832944.040       -2169.848          44.000  
E27  24948297.786   131104197.827        2070.024          44.000  
E10  27121689.146   142525446.192        -951.629          44.000  
E21  26186558.850   137611268.960       -3389.660          44.000  
> 2019 11  1  2  3 49.9950000  0 18                     
G 2  22009797.505   115662264.594        1246.496          46.000  
G 4  22160160.587   116452430.424        -837.250          46.000  
G 9  21040095.955   110566449.144       -3973.159          46.000  
G12  19218900.107   100995999.932       -1829.260          46.000  
G14  20254249.603   106436788.185        -746.227          46.000  
G25  18994634.725    99817475.386         312.072          46.000  
G27  22672908.240   119146935.243       -3525.893          46.000  
G29  21194754.583   111379183.542        2821.188          46.000  
E 1  25258972.371   132736784.226       -3080.939          44.000  
E 7  26040272.872   136842562.812        2529.123          44.000  
E 8  22680047.759   119184464.833        1318.590          44.000  
E 9  22330536.562   117347771.735       -1182.374          44.000  
E11  27387753.069   143923621.944       -2602.838          44.000  
E19  22057599.312   115913475.568         265.229          44.000  
E20  22613567.420   118835108.972       -2159.805          44.000  
E27  24947905.628   131102137.794        2050.105          44.000  
E10  27121871.815   142526407.266        -971.072          44.000  
E21  26187201.961   137614648.950       -3370.352          44.000  
> 2019 11  1  2  3 50.9950000  0 18                     
G 2  22009559.379   115661013.541        1255.269          46.000  
G 4  22160320.030   116453269.305        -841.076          46.000  
G 9  21040850.468   110570414.679       -3957.473          46.000  
G12  19219248.221   100997830.108       -1830.817          46.000  
G14  20254393.776   106437539.401        -754.734          46.000  
G25  18994575.952    99817166.447         306.828          46.000  
G27  22673577.176   119150452.375       -3507.974          46.000  
G29  21194216.627   111376357.330        2832.719          46.000  
E 1  25259559.432   132739867.951       -3087.093          44.000  
E 7  26039790.321   136840029.434        2539.333          44.000  
E 8  22679796.353   119183142.427        1327.388          44.000  
E 9  22330761.286   117348953.519       -1181.199          44.000  
E11  27388250.174   143926234.275       -2620.394          44.000  
E19  22057549.562   115913213.809         259.359          44.000  
E20  22613977.483   118837263.887       -2149.540          44.000  
E27  24947517.465   131100097.078        2032.483          44.000  
E10  27122058.933   142527389.742        -993.246          44.000  
E21  26187841.825   137618010.017       -3351.738          44.000  
> 2019 11  1  2  3 51.9950000  0 18                     
G 2  22009320.294   115659756.928        1257.214          46.000  
G 4  22160481.200   116454115.630        -852.284          46.000  
G 9  21041602.555   110574365.988       -3945.341          46.000  
G12  19219597.016   100999663.129       -1835.223          46.000  
G14  20254537.845   106438295.986        -757.168          46.000  
G25  18994517.738    99816861.605         303.549          46.000  
G27  22674243.426   119153953.221       -3494.054          46.000  
G29  21193675.880   111373517.077        2848.651          46.000  
E 1  25260147.975   132742961.079       -3099.754          44.000  
E 7  26039305.973   136837482.641        2555.484          44.000  
E 8  22679542.540   119181810.096        1337.984          44.000  
E 9  22330986.551   117350135.510       -1182.973          44.000  
E11  27388750.314   143928861.033       -2631.575          44.000  
E19  22057500.736   115912956.694         255.851          44.000  
E20  22614385.661   118839409.116       -2140.845          44.000  
E27  24947131.902   131098071.633        2019.632          44.000  
E10  27122249.490   142528393.553       -1013.654          44.000  
E21  26188478.322   137621354.382       -3337.432          44.000  
> 2019 11  1  2  3 52.9950000  0 18                     
G 2  22009081.086   115658501.636        1252.733          46.000  
G 4  22160644.935   116454975.596        -868.066          46.000  
G 9  21042352.582   110578307.344       -3937.948          46.000  
G12  19219946.701   101001501.418       -1841.302          46.000  
G14  20254681.251   106439051.683        -752.962          46.000  
G25  18994460.065    99816558.006         304.243          46.000  
G27  22674907.511   119157442.640       -3485.524          46.000  
G29  21193132.323   111370659.542        2866.781          46.000  
E 1  25260739.537   132746069.067       -3116.319          44.000  
E 7  26038817.594   136834917.280        2576.035          44.000  
E 8  22679286.563   119180466.218        1350.028          44.000  
E 9  22331211.868   117351320.878       -1187.676          44.000  
E11  27389251.537   143931494.586       -2633.927          44.000  
E19  22057452.364   115912701.289         255.921          44.000  
E20  22614792.478   118841546.825       -2134.504          44.000  
E27  24946748.347   131096055.237        2014.594          44.000  
E10  27122444.007   142529415.630       -1029.334          44.000  
E21  26189112.533   137624687.131       -3328.741          44.000  
> 2019 11  1  2  3 53.9950000  0 18                     
G 2  22008844.078   115657254.635        1240.286          46.000  
G 4  22160812.073   116455853.583        -888.333          46.000  
G 9  21043101.773   110582244.870       -3938.242          46.000  
G12  19220297.869   101003346.826       -1849.866          46.000  
G14  20254824.448   106439800.679        -744.402          46.000  
G25  18994402.043    99816252.930         306.265          46.000  
G27  22675570.916   119160927.568       -3485.761          46.000  
G29  21192585.521   111367784.458        2882.721          46.000  
E 1  25261334.607   132749195.264       -3136.162          44.000  
E 7  26038325.707   136832331.371        2595.319          44.000  
E 8  22679028.701   119179111.276        1359.207          44.000  
E 9  22331438.791   117352512.510       -1196.104          44.000  
E11  27389752.219   143934126.476       -2628.746          44.000  
E19  22057403.713   115912444.694         257.499          44.000  
E20  22615198.684   118843680.625       -2133.776          44.000  
E27  24946364.878   131094040.471        2015.888          44.000  
E10  27122640.532   142530450.219       -1039.035          44.000  
E21  26189745.731   137628015.403       -3329.120          44.000  
> 2019 11  1  2  3 54.9950000  0 18                     
G 2  22008609.808   115656023.197        1222.594          46.000  
G 4  22160983.155   116456752.773        -909.193          46.000  
G 9  21043852.027   110586186.910       -3946.162          46.000  
G12  19220651.079   101005201.718       -1859.302          46.000  
G14  20254964.643   106440539.911        -732.934          46.000  
G25  18994343.254    99815945.527         309.500          46.000  
G27  22676235.089   119164417.205       -3494.042          46.000  
G29  21192035.507   111364895.957        2893.987          46.000  
E 1  25261933.150   132752341.768       -3155.717          44.000  
E 7  26037830.383   136829727.722        2611.745          44.000  
E 8  22678769.687   119177749.130        1365.024          44.000  
E 9  22331667.563   117353713.924       -1206.236          44.000  
E11  27390251.696   143936750.143       -2616.945          44.000  
E19  22057354.259   115912185.772         261.031          44.000  
E20  22615605.029   118845816.307       -2137.631          44.000  
E27  24945980.467   131092021.239        2024.214          44.000  
E10  27122838.888   142531491.315       -1041.298          44.000  
E21  26190379.837   137631348.618       -3337.837          44.000  
> 2019 11  1  2  3 55.9950000  0 18                     
G 2  22008378.925   115654810.373        1203.516          46.000  
G 4  22161157.937   116457671.282        -926.497          46.000  
G 9  21044604.306   110590139.282       -3958.874          46.000  
G12  19221005.807   101007065.152       -1866.779          46.000  
G14  20255102.639   106441266.096        -718.854          46.000  
G25  18994283.626    99815633.467         315.260          46.000  
G27  22676901.198   119167918.228       -3508.165          46.000  
G29  21191484.063   111361998.470        2900.403          46.000  
E 1  25262535.165   132755505.610       -3170.536          44.000  
E 7  26037332.074   136827110.162        2622.940          44.000  
E 8  22678509.923   119176382.976        1367.163          44.000  
E 9  22331898.325   117354925.346       -1215.775          44.000  
E11  27390747.719   143939358.481       -2598.675          44.000  
E19  22057304.072   115911921.982         267.211          44.000  
E20  22616012.510   118847957.641       -2144.922          44.000  
E27  24945594.276   131089990.335        2038.899          44.000  
E10  27123036.407   142532530.064       -1034.485          44.000  
E21  26191016.369   137634693.616       -3352.580          44.000  
> 2019 11  1  2  3 56.9950000  0 11                     
G 9  21045359.220   110594106.362       -3975.526          46.000  
G14  20255238.105   106441978.272        -705.605          46.000  
G25  18994223.126    99815315.416         321.099          46.000  
G27  22677570.502   119171435.657       -3526.981          46.000  
E 8  22678249.845   119175016.825        1364.672          44.000  
E11  27391240.460   143941947.003       -2578.074          44.000  
E19  22057252.506   115911651.760         273.368          44.000  
E20  22616421.490   118850107.641       -2155.176          44.000  
E27  24945204.613   131087942.524        2057.200          44.000  
E10  27123232.199   142533558.180       -1020.690          44.000  
E21  26191656.007   137638055.475       -3371.599          44.000  
> 2019 11  1  2  3 57.9950000  0 18                     
E 9  22332361.611                1      -1229.074          43.000  
G12  19221719.870   101010819.4251      -1875.385          46.000  
G 9  21046117.607   110598091.353       -3993.928          46.000  
G29  21190382.134   111356208.8213       2891.500          46.000  
G14  20255371.425   106442678.888        -695.686          46.000  
G25  18994161.632    99814992.107         325.983          46.000  
G27  22678243.679   119174973.042       -3547.459          46.000  
G 2  22007930.611   115652455.0381       1169.250          46.000  
E 1  25263742.458   132761872.4081      -3181.515          44.000  
G 4  22161514.567   116459544.2763       -943.680          46.000  
E 8  22677991.216   119173655.857        1357.264          44.000  
E 7  26036330.798   136821852.1331       2622.044          44.000  
E11  27391729.049   143944515.482       -2558.703          44.000  
E19  22057199.615   115911375.639         279.057          44.000  
E20  22616832.844   118852269.100       -2167.188          44.000  
E27  24944811.407   131085876.353        2075.571          44.000  
E10  27123424.605   142534570.249       -1002.504          44.000  
E21  26192299.815   137641437.774       -3392.685          44.000  
> 2019 11  1  2  3 58.9950000  0 18                     
E 9  22332596.212   117358593.358       -1231.450          44.000  
G12  19222072.993   101012694.332       -1873.767          46.000  
G 9  21046879.099   110602093.301       -4009.480          46.000  
G29  21189830.672   111353323.3882       2878.858          46.000  
G14  20255503.157   106443370.973        -689.395          46.000  
G25  18994099.404    99814663.828         330.539          46.000  
G27  22678920.503   119178529.459       -3565.064          46.000  
G 2  22007705.503   115651290.460        1161.054          46.000  
E 1  25264345.747   132765050.585       -3174.053          44.000  
G 4  22161694.042   116460486.5032       -939.576          46.000  
E 8  22677733.563   119172303.118        1347.821          44.000  
E 7  26035831.443   136819235.204        2611.107          44.000  
E11  27392214.095   143947065.548       -2542.180          44.000  
E19  22057145.851   115911093.865         284.353          44.000  
E20  22617246.345   118854441.740       -2177.684          44.000  
E27  24944414.572   131083791.962        2092.674          44.000  
E10  27123613.625   142535562.097        -981.258          44.000  
E21  26192946.852   137644839.503       -3410.423          44.000  
> 2019 11  1  2  3 59.9950000  0 18                     
E 9  22332830.184   117359824.256       -1229.864          44.000  
G12  19222432.467   101014566.353       -1869.843          46.000  
G 9  21047643.366   110606109.240       -4021.736          46.000  
G29  21189286.487   111350452.8532       2861.818          46.000  
G14  20255634.295   106444059.583        -689.148          46.000  
G25  18994036.304    99814332.293         332.067          46.000  
G27  22679600.154   119182101.613       -3578.655          46.000  
G 2  22007484.287   115650131.022        1158.916          46.000  
E 1  25264946.820   132768218.438       -3160.812          44.000  
G 4  22161871.267   116461421.2632       -929.238          46.000  
E 8  22677478.109   119170960.988        1336.036          44.000  
E 7  26035334.339   136816632.416        2593.819          44.000  
E11  27392696.890   143949602.347       -2532.691          44.000  
E19  22057091.301   115910808.177         286.561          44.000  
E20  22617661.433   118856624.108       -2186.760          44.000  
E27  24944015.189   131081692.931        2104.147          44.000  
E10  27123798.476   142536533.412        -962.294          44.000  
E21  26193597.483   137648257.178       -3424.066          44.000  
> 2019 11  1  2  4  0.9950000  0 18                     
E 9  22333066.181   117361052.613       -1225.766          44.000  
G12  19222786.864   101016433.973       -1864.661          46.000  
G 9  21048409.256   110610135.414       -4029.118          46.000  
G29  21188742.546   111347600.8992       2842.667          46.000  
G14  20255766.062   106444751.861        -695.921          46.000  
G25  18993973.117    99814001.167         330.247          46.000  
G27  22680282.091   119185685.119       -3586.817          46.000  
G 2  22007264.728   115648970.599        1163.392          46.000  
E 1  25265552.744   132771371.607       -3144.418          44.000  
G 4  22162046.240   116462343.3952       -914.230          46.000  
E 8  22677225.169   119169631.646        1323.047          44.000  
E 7  26034848.175   136814049.344        2572.622          44.000  
E11  27393178.970   143952134.587       -2532.510          44.000  
E19  22057037.118   115910522.351         285.107          43.000  
E20  22618078.528   118858814.676       -2193.319          44.000  
E27  24943614.061   131079586.569        2107.865          44.000  
E10  27123980.150   142537488.564        -948.748          44.000  
E21  26194250.261   137651686.247       -3432.312          44.000  
> 2019 11  1  2  4  1.9950000  0 18                     
E 9  22333298.007   117362274.603       -1217.974          44.000  
G12  19223140.213   101018294.420       -1856.402          46.000  
G 9  21049176.001   110614164.492       -4028.174          46.000  
G29  21188203.614   111344766.3162       2826.639          46.000  
G14  20255899.346   106445452.425        -706.245          46.000  
G25  18993910.541    99813672.142         327.184          46.000  
G27  22680964.464   119189271.833       -3585.594          46.000  
G 2  22007041.976   115647801.314        1175.719          46.000  
E 1  25266148.616   132774506.072       -3124.760          44.000  
G 4  22162218.125   116463247.8752       -894.941          46.000  
E 8  22676974.357   119168313.272        1313.671          44.000  
E 7  26034361.419   136811486.471        2553.189          44.000  
E11  27393661.364   143954669.692       -2539.188          44.000  
E19  22056983.197   115910238.277         282.333          44.000  
E20  22618495.780   118861008.659       -2194.058          44.000  
E27  24943213.020   131077479.381        2105.205          44.000  
E10  27124159.905   142538432.579        -940.799          44.000  
E21  26194903.370   137655118.320       -3430.978          44.000  
> 2019 11  1  2  4  2.9950000  0 18                     
E 9  22333530.915   117363488.579       -1209.589          44.000  
G12  19223493.109   101020147.220       -1848.792          46.000  
G 9  21049942.031   110618189.851       -4021.208          46.000  
G29  21187667.351   111341946.3162       2814.531          46.000  
G14  20256035.161   106446165.833        -720.435          46.000  
G25  18993848.645    99813347.709         321.735          46.000  
G27  22681646.122   119192854.252       -3577.553          46.000  
G 2  22006818.003   115646617.859        1192.109          46.000  
E 1  25266742.063   132777621.912       -3106.995          44.000  
G 4  22162387.915   116464133.6702       -876.655          46.000  
E 8  22676724.871   119167003.497        1306.849          44.000  
E 7  26033876.251   136808942.226        2536.291          44.000  
E11  27394146.218   143957215.812       -2553.860          44.000  
E19  22056930.096   115909958.690         276.924          44.000  
E20  22618913.312   118863201.896       -2191.189          44.000  
E27  24942813.741   131075379.096        2094.646          44.000  
E10  27124338.891   142539373.400        -941.759          44.000  
E21  26195555.554   137658545.672       -3422.469          44.000  
> 2019 11  1  2  4  3.9950000  0 17                     
E 9  22333759.112   117364693.292       -1199.678          44.000  
G12  19223843.963   101021992.256       -1841.278          46.000  
G 9  21050705.862   110622204.564       -4007.213          46.000  
G29  21187131.699   111339134.9352       2809.671          46.000  
G14  20256173.524   106446893.808        -734.984          46.000  
G25  18993788.023    99813028.819         316.094          46.000  
G27  22682325.668   119196424.648       -3561.979          46.000  
G 2  22006588.672   115645416.347        1211.272          46.000  
G 4  22162553.326   116465001.8832       -860.406          46.000  
E 8  22676476.589   119165697.744        1305.668          44.000  
E 7  26033393.996   136806411.163        2527.027          44.000  
E11  27394633.708   143959778.457       -2571.808          44.000  
E19  22056877.920   115909684.788         271.113          44.000  
E20  22619329.656   118865389.480       -2183.065          44.000  
E27  24942416.609   131073291.464        2079.916          44.000  
E10  27124518.890   142540318.635        -949.546          44.000  
E21  26196205.139   137661960.428       -3405.867          44.000  
> 2019 11  1  2  4  4.9950000  0 18                     
E 9  22333986.680   117365889.300       -1192.664          44.000  
G12  19224193.875   101023830.894       -1836.627          46.000  
G 9  21051466.953   110626203.685       -3990.710          46.000  
G29  21186597.304   111336325.1412       2811.073          46.000  
G14  20256314.766   106447636.082        -749.178          46.000  
G25  18993728.587    99812715.794         309.751          46.000  
G27  22683001.271   119199977.446       -3543.171          46.000  
G 2  22006356.130   115644196.004        1228.829          46.000  
G 4  22162715.229                3       -851.270          46.000  
E 8  22676227.924   119164391.071        1308.248          44.000  
E 7  26032913.766   136803886.034        2524.375          44.000  
E11  27395124.826   143962360.836       -2592.935          44.000  
E19  22056826.965   115909417.115         264.073          44.000  
E20  22619743.767   118867567.652       -2173.027          44.000  
E27  24942022.374   131071220.475        2061.500          44.000  
E10  27124700.983   142541275.505        -965.052          44.000  
E21  26196851.390   137665356.986       -3386.729          44.000  
E 1  25267912.048                1      -3086.225          43.000  
> 2019 11  1  2  4  5.9950000  0 18                     
E 9  22334213.341   117367080.683       -1190.361          44.000  
G12  19224543.961   101025667.750       -1837.445          46.000  
G 9  21052224.851   110630186.900       -3975.378          46.000  
G29  21186061.983   111333511.8122       2817.159          46.000  
G14  20256458.818   106448392.404        -762.326          46.000  
G25  18993670.408    99812410.298         301.824          46.000  
G27  22683674.152   119203512.029       -3525.555          46.000  
G 2  22006121.250   115642961.290        1240.158          46.000  
G 4  22162878.301   116466711.2932       -850.652          46.000  
E 8  22675978.455   119163080.892        1312.911          44.000  
E 7  26032433.502   136801360.784        2527.716          44.000  
E11  27395620.727   143964965.198       -2615.104          44.000  
E19  22056777.564   115909157.452         255.781          44.000  
E20  22620156.814   118869736.354       -2163.934          44.000  
E27  24941632.047   131069169.676        2040.592          44.000  
E10  27124887.020   142542251.598        -987.192          44.000  
E21  26197494.064   137668734.695       -3368.396          44.000  
E 1  25268501.185   132786869.463       -3086.874          44.000  
> 2019 11  1  2  4  6.9950000  0 18                     
E 9  22334439.461   117368270.273       -1188.938          43.000  
G12  19224893.663   101027505.630       -1838.537          45.000  
G 9  21052979.870   110634154.377       -3959.629          45.000  
G29  21185524.848   111330688.3842       2831.049          45.000  
G14  20256604.422   106449158.310        -768.291          45.000  
G25  18993613.782    99812110.726         297.993          45.000  
G27  22684343.001   119207028.599       -3507.659          45.000  
G 2  22005884.416   115641716.885        1248.015          46.000  
G 4  22163039.227   116467563.9182       -855.686          45.000  
E 8  22675727.765   119161763.134        1323.350          43.000  
E 7  26031951.579   136798827.323        2540.826          43.000  
E11  27396119.925   143967588.246       -2629.618          43.000  
E19  22056729.558   115908904.289         251.250          43.000  
E20  22620567.278   118871894.964       -2152.698          43.000  
E27  24941245.403   131067137.340        2024.999          43.000  
E10  27125076.599   142543249.465       -1008.133          43.000  
E21  26198133.126   137672093.860       -3349.729          43.000  
E 1  25269091.055   132789959.590       -3094.236          43.000  
> 2019 11  1  2  4  7.9950000  0 18                     
E 9  22334666.104   117369461.072       -1192.820          43.000  
G12  19225243.837   101029347.155       -1844.452          45.000  
G 9  21053732.445   110638108.640       -3949.553          45.000  
G29  21184984.694   111327849.7582       2846.745          45.000  
G14  20256751.074   106449927.759        -769.540          45.000  
G25  18993557.697    99811814.498         294.862          45.000  
G27  22685009.512   119210530.057       -3496.012          45.000  
G 2  22005646.988   115640468.940        1247.171          45.000  
G 4  22163204.027   116468426.0222       -869.267          45.000  
E 8  22675474.772   119160434.841        1333.511          43.000  
E 7  26031466.829   136796278.737        2557.265          43.000  
E11  27396621.427   143970223.707       -2639.684          43.000  
E19  22056682.181   115908654.932         248.007          43.000  
E20  22620976.137   118874044.398       -2145.931          43.000  
E27  24940861.149   131065118.662        2013.579          43.000  
E10  27125270.419   142544268.108       -1028.419          43.000  
E21  26198768.995   137675437.592       -3338.220          43.000  
E 1  25269683.873   132793060.933       -3109.294          43.000  
> 2019 11  1  2  4  8.9950000  0 17                     
E 9  22334893.550   117370656.198       -1198.054          43.000  
G12  19225595.441   101031194.597       -1850.787          45.000  
G 9  21054483.154   110642054.589       -3943.539          45.000  
G29  21184441.277   111324993.4672       2865.446          45.000  
G14  20256896.958   106450694.516        -763.252          45.000  
G25  18993501.193    99811518.727         296.687          45.000  
G27  22685673.807   119214021.937       -3489.138          45.000  
G 2  22005410.433   115639224.449        1240.792          45.000  
G 4  22163371.322   116469303.3142       -886.062          45.000  
E 8  22675219.685   119159094.960        1345.745          43.000  
E 7  26030978.153   136793710.655        2578.516          43.000  
E11  27397123.958   143972863.486       -2638.886          43.000  
E19  22056634.716   115908406.428         249.295          43.000  
E20  22621383.896   118876187.190       -2140.378          43.000  
E10  27125467.502   142545303.566       -1041.723          43.000  
E21  26199403.903   137678771.599       -3331.373          43.000  
E 1  25270278.821   132796178.395       -3126.241          43.000  
> 2019 11  1  2  4  9.9950000  0 18                     
E 9  22335122.061   117371858.914       -1207.249          42.000  
G12  19225948.546   101033050.156       -1859.912          45.000  
G 9  21055233.653   110645999.270       -3946.450          45.000  
G29  21183894.492   111322120.7642       2880.100          45.000  
G14  20257041.481   106451453.639        -753.603          45.000  
G25  18993444.480    99811221.398         298.845          45.000  
G27  22686338.294   119217512.141       -3491.890          45.000  
G 2  22005175.606   115637990.748        1226.266          45.000  
G 4  22163540.886   116470200.0482       -906.883          45.000  
E 8  22674962.329   119157745.188        1353.804          42.000  
E 7  26030485.324   136791122.691        2597.243          42.000  
E11  27397625.512   143975499.765       -2631.956          42.000  
E19  22056586.868   115908156.514         251.397          42.000  
E20  22621791.254   118878327.879       -2141.041          42.000  
E27  24940092.135                1       2014.563          42.000  
E10  27125666.818   142546350.110       -1049.652          42.000  
E21  26200038.219   137682104.023       -3334.419          42.000  
E 1  25270873.839   132799315.188       -3146.827          42.000  
> 2019 11  1  2  4 10.9950000  0 18                     
E 9  22335352.665   117373070.696       -1216.040          42.000  
G12  19226303.170   101034914.137       -1867.664          45.000  
G 9  21055985.408   110649949.285       -3954.202          45.000  
G29  21183345.281   111319234.7852       2891.397          45.000  
G14  20257183.386   106452200.862        -739.889          45.000  
G25  18993387.156    99810920.063         304.334          45.000  
G27  22687003.740   119221008.153       -3500.778          45.000  
G 2  22004943.797   115636772.809        1209.345          45.000  
G 4  22163716.732   116471116.7862       -925.761          45.000  
E 8  22674704.205   119156388.079        1360.011          42.000  
E 7  26029989.511   136788516.865        2613.560          42.000  
E11  27398125.095   143978124.529       -2616.313          42.000  
E19  22056538.391   115907902.507         257.216          42.000  
E20  22622198.961   118880470.628       -2144.740          42.000  
E27  24939706.311   131059050.972        2025.619          42.000  
E10  27125866.955   142547399.580       -1047.698          42.000  
E21  26200673.668   137685442.524       -3343.633          42.000  
E 1  25271474.510   132802470.741       -3163.954          42.000  
> 2019 11  1  2  4 11.9950000  0 18                     
E 9  22335585.224   117374291.726       -1225.810          42.000  
G12  19226659.189   101036785.635       -1875.098          45.000  
G 9  21056739.100   110653910.553       -3968.944          45.000  
G29  21182794.657   111316340.9032       2895.127          45.000  
G14  20257323.040   106452933.927        -726.387          45.000  
G25  18993328.890    99810613.058         309.677          45.000  
G27  22687671.421   119224516.659       -3517.142          45.000  
G 2  22004715.356   115635573.322        1189.776          45.000  
G 4  22163893.939   116472051.1552       -942.019          45.000  
E 8  22674445.820   119155027.522        1360.363          42.000  
E 7  26029491.203   136785898.131        2622.494          42.000  
E11  27398621.152   143980731.780       -2597.461          42.000  
E19  22056488.937   115907642.521         262.875          42.000  
E20  22622607.976   118882619.461       -2153.538          42.000  
E27  24939320.906   131057017.607        2041.503          42.000  
E10  27126065.451   142548443.574       -1039.163          42.000  
E21  26201311.387   137688793.914       -3359.960          42.000  
E 1  25272078.305   132805641.675       -3177.316          42.000  
> 2019 11  1  2  4 12.9950000  0 18                     
E 9  22335819.686   117375522.078       -1233.765          42.000  
G12  19227016.779   101038663.949       -1880.499          45.000  
G 9  21057496.126   110657888.521       -3986.925          45.000  
G29  21182243.858   111313447.0992       2891.958          45.000  
G14  20257459.937   106453654.258        -714.153          45.000  
G25  18993269.263    99810301.002         314.915          45.000  
G27  22688342.486   119228043.677       -3536.830          45.000  
G 2  22004490.807   115634393.408        1171.353          45.000  
G 4  22164074.147   116472999.3882       -952.607          45.000  
E 8  22674187.347   119153669.311        1355.865          42.000  
E 7  26028991.917   136783274.810        2623.374          42.000  
E11  27399113.597   143983319.611       -2577.469          42.000  
E19  22056438.541   115907376.964         268.754          42.000  
E20  22623018.999   118884778.749       -2164.958          42.000  
E27  24938932.202   131054967.443        2059.764          42.000  
E10  27126261.644   142549475.911       -1024.108          42.000  
E21  26201952.734   137692164.353       -3380.475          42.000  
E 1  25272684.037   132808823.547       -3184.607          42.000  
> 2019 11  1  2  4 13.9950000  0 18                     
E 9  22336054.949   117376758.488       -1238.478          42.000  
G12  19227374.770   101040545.375       -1882.135          45.000  
G 9  21058256.327   110661884.134       -4004.515          45.000  
G29  21181694.368   111310559.4422       2882.484          45.000  
G14  20257594.740   106454363.460        -705.083          45.000  
G25  18993208.937    99809983.408         319.998          45.000  
G27  22689017.548   119231590.445       -3556.667          45.000  
G 2  22004269.206   115633229.241        1157.787          45.000  
G 4  22164255.560   116473953.6772       -954.718          45.000  
E 8  22673930.376   119152316.960        1347.978          42.000  
E 7  26028493.138   136780653.990        2616.844          42.000  
E11  27399602.378   143985887.263       -2558.493          42.000  
E19  22056387.080   115907105.224         274.394          42.000  
E20  22623432.220   118886949.325       -2176.511          42.000  
E27  24938542.015   131052898.374        2078.093          42.000  
E10  27126454.678   142550490.378       -1004.641          42.000  
E21  26202598.061   137695554.967       -3400.758          42.000  
E 1  25273289.682   132812008.192       -3183.427          42.000  
> 2019 11  1  2  4 14.9950000  0 18                     
E 9  22336290.859   117377998.105       -1240.290          42.000  
G12  19227732.849   101042427.090       -1880.817          45.000  
G 9  21059019.949   110665896.905       -4020.402          45.000  
G29  21181147.566   111307684.3872       2867.192          45.000  
G14  20257728.583   106455066.314        -701.491          45.000  
G25  18993147.617    99809662.061         322.361          45.000  
G27  22689696.204   119235156.368       -3574.397          45.000  
G 2  22004049.909   115632075.870        1149.975          45.000  
G 4  22164436.675   116474906.7072       -950.074          45.000  
E 8  22673674.765   119150974.424        1336.871          42.000  
E 7  26027996.679   136778043.722        2602.675          42.000  
E11  27400087.825   143988438.509       -2545.036          42.000  
E19  22056334.276   115906829.067         277.620          42.000  
E20  22623847.710   118889131.640       -2187.798          42.000  
E27  24938144.115   131050812.633        2092.695          42.000  
E10  27126643.838   142551484.935        -984.683          42.000  
E21  26203247.069   137698965.088       -3418.965          42.000  
E 1  25273894.785   132815188.413       -3175.773          42.000  
> 2019 11  1  2  4 15.9950000  0 18                     
E 9  22336526.803   117379237.239       -1237.688          42.000  
G12  19228090.264   101044305.933       -1876.581          45.000  
G 9  21059786.257   110669923.327       -4031.663          45.000  
G29  21180603.294   111304826.0712       2849.089          45.000  
G14  20257862.077   106455768.313        -703.363          45.000  
G25  18993085.966    99809338.986         323.069          45.000  
G27  22690377.600   119238737.505       -3586.729          45.000  
G 2  22003831.066   115630926.353        1149.982          45.000  
G 4  22164616.709   116475851.0512       -937.909          45.000  
E 8  22673421.527   119149643.831        1324.264          42.000  
E 7  26027503.082   136775449.990        2583.957          42.000  
E11  27400571.057   143990979.388       -2537.986          42.000  
E19  22056281.524   115906550.574         278.934          42.000  
E20  22624264.630   118891323.936       -2196.397          42.000  
E27  24937743.720   131048714.709        2102.102          42.000  
E10  27126829.456   142552460.452        -967.010          42.000  
E21  26203898.765   137702390.597       -3431.651          42.000  
E 1  25274497.638   132818357.305       -3161.474          42.000  
> 2019 11  1  2  4 16.9950000  0 18                     
E 9  22336761.474   117380471.867       -1230.911          42.000  
G12  19228446.737   101046178.710       -1868.677          45.000  
G 9  21060554.154   110673957.217       -4034.822          45.000  
G29  21180062.686   111301985.5172       2832.300          45.000  
G14  20257996.723   106456474.710        -709.821          45.000  
G25  18993024.558    99809016.052         322.586          45.000  
G27  22691060.672   119242327.039       -3590.690          45.000  
G 2  22003611.298   115629772.684        1158.622          45.000  
G 4  22164793.742   116476780.2922       -919.805          45.000  
E 8  22673170.610   119148324.893        1313.968          42.000  
E 7  26027013.255   136772875.690        2565.018          42.000  
E11  27401053.747   143993517.130       -2538.427          42.000  
E19  22056228.580   115906271.792         278.656          42.000  
E20  22624683.017   118893522.397       -2199.464          42.000  
E27  24937343.552   131046610.545        2105.432          42.000  
E10  27127012.317   142553420.310        -953.414          42.000  
E21  26204552.119   137705824.407       -3434.953          42.000  
E 1  25275097.681   132821509.280       -3141.833          42.000  
> 2019 11  1  2  4 17.9950000  0 18                     
E 9  22336994.591   117381698.499       -1221.960          42.000  
G12  19228801.448   101048043.039       -1859.943          45.000  
G 9  21061321.737   110677991.122       -4031.438          45.000  
G29  21179524.870   111299160.7802       2817.867          45.000  
G14  20258133.044   106457189.964        -721.111          45.000  
G25  18992963.325    99808694.971         319.583          45.000  
G27  22691743.743   119245916.617       -3586.884          45.000  
G 2  22003389.419   115628607.422        1173.009          45.000  
G 4  22164966.656   116477690.2602       -899.846          45.000  
E 8  22672921.212   119147015.396        1305.763          42.000  
E 7  26026527.091   136770320.495        2546.274          42.000  
E11  27401537.781   143996059.277       -2546.980          42.000  
E19  22056175.968   115905994.628         275.677          42.000  
E20  22625101.647   118895722.149       -2198.813          42.000  
E27  24936943.383   131044506.846        2101.150          42.000  
E10  27127193.241   142554370.245        -947.486          42.000  
E21  26205205.385   137709258.027       -3430.826          42.000  
E 1  25275693.571   132824641.295       -3121.908          42.000  
> 2019 11  1  2  4 18.9950000  0 18                     
E 9  22337226.383   117382916.566       -1213.487          41.000  
G12  19229154.623   101049899.490       -1852.765          44.000  
G 9  21062088.116   110682019.165       -4022.816          44.000  
G29  21178989.777   111296348.5611       2807.028          44.000  
G14  20258271.564   106457918.767        -736.208          44.000  
G25  18992903.314    99808378.787         313.287          44.000  
G27  22692425.348   119249499.506       -3577.140          44.000  
G 2  22003164.765   115627426.553        1189.604          44.000  
G 4  22165135.993   116478581.5342       -882.590          44.000  
E 8  22672673.628   119145713.229        1299.870          41.000  
E 7  26026044.122   136767782.572        2530.939          41.000  
E11  27402024.189   143998614.270       -2563.594          41.000  
E19  22056124.036   115905722.371         269.065          41.000  
E20  22625519.650   118897919.636       -2194.894          41.000  
E27  24936544.646   131042411.879        2088.519          41.000  
E10  27127374.025   142555319.210        -951.149          42.000  
E21  26205857.273   137712684.498       -3420.440          42.000  
E 1  25276286.111   132827754.969       -3105.265          42.000  
> 2019 11  1  2  4 19.9950000  0 18                     
E 9  22337456.376   117384125.735       -1204.723          43.000  
G12  19229506.524   101051748.772       -1846.100          46.000  
G 9  21062852.645   110686035.261       -4008.420          46.000  
G29  21178456.463   111293543.856        2803.594          46.000  
G14  20258412.911   106458662.673        -751.211          46.000  
G25  18992844.437    99808068.640         307.257          46.000  
G27  22693104.616   119253068.865       -3560.616          46.000  
G 2  22002936.760   115626227.441        1208.550          46.000  
G 4  22165302.887   116479456.5722       -868.300          46.000  
E 8  22672426.620   119144414.037        1299.490          43.000  
E 7  26025563.194   136765256.270        2522.938          44.000  
E11  27402513.598   144001187.405       -2583.487          43.000  
E19  22056073.395   115905456.389         262.724          44.000  
E20  22625936.448   118900110.614       -2186.439          44.000  
E27  24936148.857   131040331.307        2072.049          44.000  
E10  27127555.385   142556275.214        -961.756          44.000  
E21  26206506.526   137716096.862       -3403.559          44.000  
E 1  25276875.806   132830853.739       -3092.956          43.000  
> 2019 11  1  2  4 20.9950000  0 13                     
G12  19229856.994                3      -1842.725          46.000  
G 2  22002702.159                3       1224.023          46.000  
G 9  21063613.771   110690035.293       -3991.752          46.000  
G25  18992786.485    99807764.828         300.384          46.000  
G27  22693780.480   119256620.041       -3541.623          46.000  
E 8  22672179.002   119143113.027        1302.815          44.000  
G 4  22165467.390                3       -861.035          46.000  
E11  27403006.654   144003781.153       -2604.751          44.000  
E19  22056024.064   115905197.147         255.518          43.000  
E20  22626351.886   118902291.873       -2176.143          44.000  
E27  24935756.803   131038268.616        2052.638          44.000  
E10  27127739.799   142557245.232        -979.362          44.000  
E21  26207152.323   137719490.386       -3383.672          44.000  
> 2019 11  1  2  4 21.9950000  0 18                     
G12  19230208.633   101055428.0622      -1843.005          46.000  
G 2  22002472.305   115623771.4982       1235.856          46.000  
G 9  21064371.913   110694018.935       -3975.484          46.000  
G29  21177385.683   111287912.6243       2815.692          46.000  
E 1  25278046.768                1      -3090.558          44.000  
G25  18992729.929    99807467.919         294.234          46.000  
G27  22694452.488   119260152.506       -3523.030          46.000  
E 9  22337910.134                1      -1196.361          43.000  
E 8  22671930.005   119141806.998        1310.103          44.000  
G 4  22165631.387   116481179.0592       -862.116          46.000  
E11  27403504.596   144006396.022       -2624.156          44.000  
E19  22055976.128   115904945.322         248.727          43.000  
E20  22626764.863   118904463.051       -2165.762          43.000  
E27  24935368.117   131036225.675        2033.663          44.000  
E10  27127928.349   142558235.320       -1000.745          44.000  
E 7  26024595.440                1       2528.734          44.000  
E21  26207794.561   137722864.622       -3364.497          44.000  
G14  20258703.108   106460202.8363       -775.885          46.000  
> 2019 11  1  2  4 22.9950000  0 18                     
G12  19230560.691   101057272.3522      -1846.026          46.000  
G 2  22002232.522   115622532.8002       1240.725          46.000  
G 9  21065126.827   110697986.991       -3961.152          46.000  
G29  21176851.287   111285090.0292       2830.368          46.000  
E 1  25278639.866   132840137.975       -3101.038          44.000  
G25  18992674.385    99807175.968         290.336          46.000  
G27  22695121.390   119263667.204       -3506.739          46.000  
E 9  22338136.062   117387716.653       -1196.681          43.000  
E 8  22671679.838   119140492.122        1320.332          44.000  
G 4  22165795.210   116482044.5272       -869.820          46.000  
E11  27404005.853   144009027.731       -2638.137          44.000  
E19  22055929.099   115904698.957         244.575          43.000  
E20  22627176.269   118906623.914       -2156.056          44.000  
E27  24934982.502   131034199.779        2018.947          44.000  
E10  27128120.231   142559246.957       -1022.157          44.000  
E 7  26024115.594   136757646.513        2543.064          44.000  
E21  26208433.222   137726220.632       -3348.115          44.000  
G14  20258851.679   106460981.3492       -780.336          46.000  
> 2019 11  1  2  4 23.9950000  0 18                     
G12  19230910.533   101059120.7492      -1850.915          46.000  
G 2  22001996.926   115621292.3642       1239.087          46.000  
G 9  21065879.420   110701942.798       -3951.080          46.000  
G29  21176312.093   111282251.0272       2848.108          46.000  
E 1  25279227.555   132843246.147       -3116.075          44.000  
G25  18992619.417    99806886.299         289.623          46.000  
G27  22695787.552   119267167.923       -3495.341          46.000  
E 9  22338365.812   117388914.724       -1199.911          43.000  
E 8  22671427.700   119139165.986        1332.283          44.000  
G 4  22165964.442   116482921.1092       -883.750          46.000  
E11  27404508.402   144011669.318       -2643.746          44.000  
E19  22055882.944   115904455.315         243.460          43.000  
E20  22627585.878   118908775.899       -2148.238          44.000  
E27  24934599.121   131032185.519        2010.836          44.000  
E10  27128316.808   142560278.263       -1039.597          44.000  
E 7  26023631.821   136755093.926        2562.485          44.000  
E21  26209069.055   137729562.353       -3336.275          44.000  
G14  20259000.791   106461761.2942       -778.351          46.000  
> 2019 11  1  2  4 24.9950000  0 18                     
G12  19231265.069   101060975.8362      -1858.929          46.000  
G 2  22001763.774   115620057.6522       1229.547          46.000  
G 9  21066631.001   110705892.220       -3948.302          46.000  
G29  21175767.577   111279394.4552       2865.127          46.000  
E 1  25279826.132   132846371.670       -3135.219          44.000  
G25  18992564.291    99806596.517         290.719          46.000  
G27  22696452.545   119270661.240       -3492.179          46.000  
E 9  22338597.708   117390118.184       -1207.055          44.000  
E 8  22671173.014   119137828.601        1342.571          44.000  
G 4  22166132.051   116483814.4172       -902.826          46.000  
E11  27405011.492   144014312.954       -2642.044          44.000  
E19  22055836.369   115904211.825         244.321          44.000  
E20  22627994.230   118910922.464       -2145.290          43.000  
E27  24934216.839   131030176.266        2009.297          44.000  
E10  27128516.090   142561324.911       -1052.186          44.000  
E 7  26023144.349   136752521.418        2582.553          43.000  
E21  26209703.371   137732896.614       -3333.040          44.000  
G14  20259147.949   106462536.9632       -771.600          46.000  
> 2019 11  1  2  4 25.9950000  0 18                     
G12  19231618.279   101062838.5132      -1866.644          46.000  
G 2  22001531.616   115618834.6252       1215.517          46.000  
G 9  21067382.843   110709841.526       -3951.507          46.000  
G29  21175220.495   111276521.3522       2880.254          46.000  
E 1  25280425.809   132849515.871       -3153.344          44.000  
G25  18992508.712    99806303.660         295.170          46.000  
G27  22697117.276   119274154.281       -3495.475          46.000  
E 9  22338828.923   117391329.066       -1215.109          43.000  
E 8  22670916.548   119136481.150        1351.640          44.000  
G 4  22166306.937   116484726.8782       -922.218          46.000  
E11  27405513.028   144016949.800       -2630.908          44.000  
E19  22055789.166   115903965.288         249.030          44.000  
E20  22628402.251   118913067.328       -2145.481          43.000  
E27  24933833.789   131028163.951        2016.265          44.000  
E10  27128717.011   142562379.568       -1055.857          44.000  
E 7  26022652.585   136749928.509        2602.446          44.000  
E21  26210337.756   137736230.752       -3336.535          44.000  
G14  20259293.274   106463302.7652       -759.448          46.000  
> 2019 11  1  2  4 26.9950000  0 14                     
G12  19231974.333   101064710.0202      -1875.769          46.000  
G 2  22001301.884   115617628.9542       1196.180          46.000  
E 1  25281026.079   132852678.686       -3171.014          44.000  
G25  18992452.296    99806006.779         299.278          46.000  
G27  22697783.595   119277655.710       -3507.776          46.000  
E 9  22339061.413   117392549.733       -1225.614          44.000  
G 4  22166483.464   116485659.4582       -941.751          46.000  
E11  27406012.070   144019573.630       -2615.369          44.000  
E19  22055741.946   115903714.571         253.332          44.000  
E20  22628811.302   118915215.998       -2151.916          43.000  
E27  24933449.082   131026142.458        2028.025          44.000  
E10  27128917.776   142563435.189       -1053.452          44.000  
E21  26210973.886   137739573.612       -3349.447          44.000  
G14  20259437.500   106464056.2502       -746.807          46.000  
> 2019 11  1  2  4 27.9950000  0 18                     
G12  19232333.215   101066589.8612      -1883.325          46.000  
G 2  22001076.514   115616443.2302       1175.963          46.000  
G29  21174119.473                3       2889.758          46.000  
E 8  22670398.294                1       1353.417          43.000  
E 1  25281631.322   132855856.681       -3183.690          44.000  
G25  18992394.762    99805705.218         304.110          46.000  
G27  22698452.776   119281172.524       -3526.247          46.000  
E 9  22339295.141   117393780.692       -1235.560          44.000  
G 9  21068889.739                3      -3979.596          46.000  
G 4  22166664.178   116486609.6682       -957.277          46.000  
E11  27406508.110   144022179.943       -2596.531          44.000  
E19  22055693.155   115903458.736         258.721          43.000  
E20  22629221.836   118917373.006       -2162.260          44.000  
E27  24933061.774   131024106.760        2044.087          44.000  
E 7  26021653.403                1       2621.475          44.000  
E10  27129117.302   142564484.200       -1043.270          44.000  
E21  26211613.367   137742932.285       -3368.285          44.000  
G14  20259577.922   106464796.6232       -733.835          46.000  
> 2019 11  1  2  4 28.9950000  0 17                     
G12  19232690.787   101068474.9772      -1886.902          46.000  
G 2  22000854.670   115615275.6702       1159.643          46.000  
G29  21173569.285   111267860.6922       2885.047          46.000  
E 8  22670144.167   119132405.535        1348.217          43.000  
G25  18992336.165    99805397.832         310.304          46.000  
G27  22699125.447   119284707.951       -3545.447          46.000  
E 9  22339530.317   117395019.582       -1242.099          44.000  
G 9  21069647.620   110721749.5622      -3996.476          46.000  
G 4  22166847.824   116487571.0252       -964.585          46.000  
E11  27406999.787   144024765.681       -2575.488          44.000  
E19  22055643.684   115903196.527         265.270          44.000  
E20  22629634.446   118919540.348       -2173.023          43.000  
E27  24932670.977   131022052.787        2063.375          44.000  
E 7  26021154.117   136742099.629        2620.812          44.000  
E10  27129314.071   142565518.901       -1025.762          44.000  
E21  26212256.058   137746310.059       -3388.094          44.000  
G14  20259716.477   106465523.9612       -721.619          46.000  
> 2019 11  1  2  4 29.9950000  0 18                     
G12  19233050.523   101070362.5852      -1887.189          46.000  
G 2  22000635.129   115614122.7432       1147.936          46.000  
G29  21173022.657   111264984.5623       2874.262          46.000  
E 8  22669884.909   119131061.525        1339.651          44.000  
G25  18992276.607    99805085.507         314.917          46.000  
G27  22699802.096   119288263.431       -3564.558          46.000  
E 9  22339767.239   117396263.897       -1245.523          44.000  
G 9  21070412.445   110725755.1582      -4013.727          46.000  
G 4  22167029.760   116488526.9453       -964.301          46.000  
E11  27407488.550   144027332.181       -2557.376          44.000  
E19  22055592.275   115902928.740         270.549          43.000  
E20  22630049.028   118921719.494       -2184.498          44.000  
E27  24932276.305   131019980.412        2081.396          44.000  
E 7  26020657.746   136739489.7381       2612.247          43.000  
E10  27129507.803   142566534.952       -1005.471          44.000  
E 1  25282839.854   132862230.6851      -3184.482          43.000  
E21  26212903.322   137749708.320       -3407.753          44.000  
G14  20259853.199   106466241.5782       -713.621          46.000  
> 2019 11  1  2  4 30.9950000  0 18                     
G12  19233409.143   101072248.4332      -1883.752          45.000  
G 2  22000417.420   115612977.5452       1143.797          45.000  
G29  21172475.471   111262117.8412       2859.040          45.000  
E 8  22669633.888   119129726.963        1329.327          42.000  
G25  18992216.020    99804768.825         318.423          45.000  
G27  22700481.974   119291836.109       -3579.783          45.000  
E 9  22340003.951   117397509.194       -1244.319          42.000  
G 9  21071176.974   110729776.0332      -4026.997          45.000  
G 4  22167214.768   116489487.6912       -955.867          45.000  
E11  27407974.172   144029882.706       -2544.248          43.000  
E19  22055539.890   115902655.966         274.669          42.000  
E20  22630465.111   118923908.930       -2193.773          42.000  
E27  24931879.156   131017891.306        2096.226          43.000  
E 7  26020162.857   136736884.225        2598.129          43.000  
E10  27129696.998   142567529.882        -984.365          42.000  
E 1  25283445.045   132865409.861       -3172.833          42.000  
E21  26213553.168   137753124.050       -3423.067          42.000  
G14  20259988.421   106466953.2662       -710.213          45.000  
> 2019 11  1  2  4 31.9950000  0 18                     
G12  19233766.994   101074129.7422      -1878.424          45.000  
G 2  22000199.257   115611833.2082       1146.086          45.000  
G29  21171935.491   111259267.7722       2840.881          45.000  
E 8  22669382.936   119128403.805        1316.861          42.000  
G25  18992155.433    99804450.312         318.260          45.000  
G27  22701164.243   119295421.596       -3590.119          45.000  
E 9  22340240.716   117398752.144       -1240.969          42.000  
G 9  21071945.429   110733808.3442      -4036.481          45.000  
G 4  22167394.540   116490437.0052       -942.014          45.000  
E11  27408457.753   144032424.265       -2540.101          43.000  
E19  22055487.853   115902380.842         275.171          42.000  
E20  22630883.952   118926106.788       -2201.220          42.000  
E27  24931479.057   131015790.977        2103.430          43.000  
E 7  26019668.755   136734295.755        2578.616          43.000  
E10  27129882.459   142568505.837        -968.235          42.000  
E 1  25284049.399   132868575.232       -3157.214          43.000  
E21  26214205.544   137756552.711       -3433.439          42.000  
G14  20260123.939   106467665.0982       -714.236          45.000  
> 2019 11  1  2  4 32.9950000  0 15                     
G12  19234124.043   101076005.6512      -1872.314          45.000  
G 2  21999980.588   115610683.8782       1154.480          45.000  
G29  21171397.152   111256436.6442       2822.696          45.000  
E 8  22669134.044   119127093.263        1305.331          43.000  
G25  18992095.509    99804133.890         315.282          45.000  
G27  22701847.908   119299014.623       -3593.693          45.000  
E 9  22340476.503   117399990.902       -1235.092          42.000  
G 9  21072712.681   110737847.5112      -4039.697          45.000  
G 4  22167572.183   116491371.1612       -924.778          45.000  
E11  27408941.647   144034966.344       -2544.566          43.000  
E20  22631303.053   118928310.959       -2205.377          42.000  
E 7  26019183.132   136731728.426        2557.228          43.000  
E10  27130065.460   142569469.076        -958.451          43.000  
E 1  25284649.930   132871723.955       -3139.071          43.000  
E21  26214859.282   137759988.763       -3436.342          42.000  
> 2019 11  1  2  4 33.9950000  0 18                     
G12  19234479.818   101077873.6872      -1864.087          45.000  
G 2  21999759.529   115609522.0982       1169.644          45.000  
G29  21170861.221   111253621.3442       2808.718          45.000  
E 8  22668887.123   119125792.261        1297.305          42.000  
G14  20260399.025   106469115.3543       -736.240          45.000  
G25  18992036.003    99803820.819         310.834          45.000  
G27  22702531.502   119302606.284       -3588.229          45.000  
E 9  22340710.685   117401221.931       -1226.746          42.000  
G 9  21073481.084   110741885.5522      -4035.360          45.000  
G 4  22167746.964   116492286.4802       -905.603          45.000  
E11  27409426.868   144037516.059       -2555.857          42.000  
E19  22055381.163   115901820.3431        267.689          42.000  
E20  22631722.557   118930515.967       -2204.075          42.000  
E27  24930679.156   131011613.1041       2095.436          42.000  
E 7  26018698.016   136729180.551        2539.026          42.000  
E10  27130247.570   142570425.530        -955.701          42.000  
E 1  25285246.170   132874853.436       -3120.102          42.000  
E21  26215512.775   137763423.160       -3431.007          42.000  
> 2019 11  1  2  4 34.9950000  0 18                     
G12  19234833.744   101079734.4162      -1857.233          45.000  
G 2  21999535.398   115608344.2082       1186.745          45.000  
G29  21170328.344   111250818.0182       2799.216          45.000  
E 8  22668639.958   119124497.943        1292.369          42.000  
G14  20260540.040   106469860.3232       -752.777          45.000  
G25  18991977.597    99803513.557         304.110          45.000  
G27  22703213.213   119306189.649       -3576.781          45.000  
E 9  22340943.628   117402444.649       -1218.587          42.000  
G 9  21074249.033   110745916.3332      -4025.013          45.000  
G 4  22167917.244   116493184.0722       -889.522          45.000  
E11  27409914.863   144040080.986       -2574.357          42.000  
E19  22055333.332   115901556.134         260.760          42.000  
E20  22632141.624   118932717.945       -2199.170          42.000  
E27  24930278.744   131009524.558        2080.804          42.000  
E 7  26018213.145   136726649.113        2524.984          42.000  
E10  27130429.750   142571383.962        -962.070          42.000  
E 1  25285837.680   132877965.843       -3104.982          42.000  
E21  26216164.471   137766848.754       -3419.082          42.000  
> 2019 11  1  2  4 35.9950000  0 18                     
G12  19235186.692   101081588.5012      -1851.288          45.000  
G 2  21999307.725   115607147.9802       1205.195          45.000  
G29  21169795.623   111248019.8032       2798.059          45.000  
E 8  22668394.032   119123205.286        1293.589          42.000  
G14  20260686.342   106470620.4932       -767.229          45.000  
G25  18991920.221    99803212.591         297.719          45.000  
G27  22703892.497   119309757.986       -3559.158          45.000  
E 9  22341174.372   117403658.776       -1210.149          42.000  
G 9  21075013.352   110749933.8492      -4009.398          45.000  
G 4  22168085.446   116494066.8002       -876.910          45.000  
E11  27410406.523   144042665.206       -2594.639          42.000  
E19  22055279.184   115901298.529         254.229          42.000  
E20  22632559.295   118934912.437       -2189.596          42.000  
E27  24929884.875   131007451.755        2063.912          42.000  
E 7  26017736.562   136724127.326        2519.674          42.000  
E10  27130613.990   142572351.746        -974.522          42.000  
E 1  25286428.963   132881064.902       -3094.213          42.000  
E21  26216813.602   137770258.691       -3400.459          42.000  
> 2019 11  1  2  4 36.9950000  0 18                     
G12  19235538.610   101083438.3602      -1848.620          45.000  
G 2  21999077.156   115605934.8682       1220.693          45.000  
G29  21169262.606   111245219.8272       2803.185          45.000  
E 8  22668147.338   119121909.813        1298.754          42.000  
G14  20260831.546   106471394.7022       -780.015          45.000  
G25  18991864.084    99802918.153         291.658          45.000  
G27  22704567.803   119313307.625       -3539.474          45.000  
E 9  22341404.139   117404866.076       -1204.634          42.000  
G 9  21075774.740   110753934.8682      -3992.047          45.000  
G 4  22168251.869   116494940.6922       -871.653          45.000  
E11  27410902.022   144045270.507       -2615.419          42.000  
E19  22055236.640   115901047.906         247.521          42.000  
E20  22632974.906   118937096.868       -2178.632          42.000  
E27  24929495.997   131005397.668        2044.628          42.000  
E 7  26017257.606   136721607.666        2521.483          42.000  
E10  27130801.300   142573335.584        -993.326          42.000  
E 1  25287016.826   132884157.205       -3091.174          42.000  
E21  26217458.841   137773649.303       -3380.045          42.000  
> 2019 11  1  2  4 37.9950000  0 18                     
G12  19235890.267   101085286.5532      -1848.328          45.000  
G 2  21998843.846   115604708.4862       1231.135          45.000  
G29  21168728.176   111242410.9052       2815.381          45.000  
E 8  22667899.231   119120606.937        1307.696          42.000  
G14  20260982.822   106472179.0502       -787.851          45.000  
G25  18991809.133    99802628.962         287.019          45.000  
G27  22705239.270   119316837.327       -3520.180          45.000  
E 9  22341632.720   117406068.913       -1201.815          42.000  
G 9  21076532.603   110757918.2542      -3974.955          45.000  
G 4  22168417.629   116495812.6872       -873.589          45.000  
E11  27411401.308   144047894.815       -2632.744          42.000  
E19  22055190.153   115900803.026         242.512          42.000  
E20  22633388.756   118939269.785       -2167.397          42.000  
E27  24929107.921   131003361.650        2027.749          42.000  
E 7  26016776.695   136719081.652        2531.657          42.000  
E10  27130992.607   142574339.075       -1013.844          42.000  
E 1  25287605.544   132887249.856       -3095.518          42.000  
E21  26218099.979   137777019.448       -3360.570          42.000  
> 2019 11  1  2  4 38.9950000  0 18                     
G12  19236242.290   101087137.0402      -1852.179          45.000  
G 2  21998609.263   115603475.6642       1234.091          45.000  
G29  21168191.146   111239588.4132       2830.840          45.000  
E 8  22667649.257   119119294.335        1318.392          42.000  
G14  20261133.208   106472969.2122       -790.851          45.000  
G25  18991754.898    99802343.968         283.935          45.000  
G27  22705907.736   119320350.046       -3505.242          45.000  
E 9  22341861.562   117407271.463       -1203.231          42.000  
G 9  21077287.517   110761886.7472      -3961.926          45.000  
G 4  22168584.575   116496691.1812       -883.695          45.000  
E11  27411903.926   144050534.095       -2644.458          42.000  
E19  22055144.555   115900562.812         238.988          42.000  
E20  22633800.389   118941432.563       -2157.918          42.000  
E27  24928723.842   131001341.320        2014.531          42.000  
E 7  26016293.341   136716542.886        2547.358          42.000  
E10  27131187.509   142575363.905       -1034.712          42.000  
E 1  25288195.675   132890350.903       -3106.977          42.000  
E21  26218738.116   137780372.172       -3345.249          42.000  
> 2019 11  1  2  4 39.9950000  0 18                     
G12  19236595.640   101088992.7392      -1859.253          45.000  
G 2  21998374.470   115602243.6132       1229.093          45.000  
G29  21167650.939   111236749.1562       2847.861          45.000  
E 8  22667397.503   119117970.576        1329.183          42.000  
G14  20261282.669   106473759.3182       -788.469          45.000  
G25  18991701.081    99802060.861         282.878          45.000  
G27  22706574.142   119323850.761       -3497.030          45.000  
E 9  22342091.486   117408477.309       -1208.719          42.000  
G 9  21078041.122   110765844.7642      -3954.984          45.000  
G 4  22168754.557   116497582.9322       -900.300          45.000  
E11  27412407.644   144053181.312       -2648.619          42.000  
E19  22055100.860   115900324.837         237.529          42.000  
E20  22634210.050   118943587.576       -2152.249          42.000  
E27  24928341.037   130999331.103        2007.250          42.000  
E 7  26015806.847   136713986.270        2566.463          42.000  
E10  27131386.319   142576407.668       -1051.950          42.000  
E 1  25288788.546   132893466.499       -3124.670          42.000  
E21  26219373.740   137783712.675       -3336.849          42.000  
> 2019 11  1  2  4 40.9950000  0 18                     
G12  19236950.036   101090855.7962      -1867.249          45.000  
G 2  21998141.458   115601019.4632       1217.970          45.000  
G29  21167107.365   111233892.6632       2864.378          45.000  
E 8  22667143.689   119116636.031        1339.368          42.000  
G14  20261432.863   106474543.6282       -779.753          45.000  
G25  18991647.073    99801777.077         284.734          45.000  
G27  22707239.327   119327346.335       -3495.476          45.000  
E 9  22342322.544   117409689.549       -1216.159          42.000  
G 9  21078793.506   110769798.4122      -3953.809          45.000  
G 4  22168927.559   116498492.7142       -919.860          45.000  
E11  27412911.833   144055828.228       -2644.101          42.000  
E19  22055055.367   115900086.313         239.885          42.000  
E20  22634619.799   118945738.467       -2150.186          42.000  
E27  24927960.325   130997323.843        2008.215          42.000  
E 7  26015316.356   136711409.549        2586.682          42.000  
E10  27131587.712   142577465.092       -1061.845          42.000  
E 1  25289384.558   132896600.404       -3143.656          42.000  
E21  26220008.387   137787048.034       -3335.384          42.000  
> 2019 11  1  2  4 41.9950000  0 18                     
G12  19237306.317   101092727.5812      -1875.592          45.000  
G 2  21997911.289   115599809.5322       1201.803          45.000  
G29  21166560.894   111231021.5292       2877.536          45.000  
E 8  22666888.096   119115293.196        1346.368          42.000  
G14  20261580.073   106475317.7472       -767.285          45.000  
G25  18991592.489    99801490.509         289.186          45.000  
G27  22707905.070   119330844.838       -3502.053          45.000  
E 9  22342554.527   117410910.701       -1225.672          42.000  
G 9  21079546.430   110773754.8612      -3959.447          45.000  
G 4  22169104.539   116499422.8732       -939.819          45.000  
E11  27413413.946   144058466.958       -2631.652          42.000  
E19  22055009.456   115899844.987         244.025          42.000  
E20  22635029.495   118947889.867       -2152.691          42.000  
E27  24927577.345   130995312.271        2016.377          42.000  
E 7  26014822.550   136708813.979        2604.483          42.000  
E10  27131790.291   142578529.148       -1064.290          42.000  
E 1  25289984.863   132899753.938       -3162.583          42.000  
E21  26220643.558   137790386.531       -3342.230          42.000  
> 2019 11  1  2  4 42.9950000  0 18                     
G12  19237663.785   101094606.9791      -1883.649          45.000  
G 2  21997684.262   115598616.7551       1182.738          45.000  
G29  21166012.765   111228140.0392       2884.613          45.000  
E 8  22666631.473   119113945.177        1349.064          42.000  
G14  20261724.787   106476078.3112       -753.361          45.000  
G25  18991537.154    99801198.947         294.328          45.000  
G27  22708572.576   119334353.169       -3515.543          45.000  
E 9  22342788.709   117412141.172       -1235.133          42.000  
G 9  21080301.187   110777720.2432      -3971.747          45.000  
G 4  22169285.149   116500371.9522       -957.592          45.000  
E11  27413912.883   144061090.345       -2614.180          42.000  
E19  22054962.235   115899598.329         249.883          42.000  
E20  22635439.174   118950045.714       -2159.523          42.000  
E27  24927192.603   130993289.090        2030.620          42.000  
E 7  26014325.620   136706203.112        2616.590          42.000  
E10  27131992.313   142579591.080       -1058.042          42.000  
E 1  25290588.606   132902924.576       -3177.838          42.000  
E21  26221280.840   137793735.240       -3356.177          42.000  
> 2019 11  1  2  4 43.9950000  0 12                     
G14  20261866.937   106476824.8792       -739.955          45.000  
G25  18991480.615    99800901.624         300.223          46.000  
G27  22709243.345   119337877.413       -3533.669          46.000  
G 9  21081058.614   110781699.9252      -3988.244          45.000  
G 4  22169468.708   116501336.2952       -970.235          46.000  
E11  27414408.259   144063694.293       -2593.702          43.000  
E19  22054914.090   115899345.465         256.027          43.000  
E20  22635851.034   118952209.970       -2169.475          43.000  
E27  24926804.213   130991249.586        2048.635          43.000  
E10  27132192.589   142580643.318       -1045.130          43.000  
E 1  25291194.094   132906107.876       -3187.741          43.000  
E21  26221921.245   137797100.299       -3374.810          43.000  
> 2019 11  1  2  4 44.9950000  0 15                     
G12  19238383.048   101098384.8463      -1892.773          45.000  
G29  21164912.983   111222368.2613       2877.716          45.000  
G 2  21997240.398   115596277.8821       1148.302          45.000  
E 8  22666113.376   119111239.5761       1340.805          43.000  
G25  18991423.064    99800598.876         305.319          46.000  
G27  22709917.656   119341421.241       -3553.866          46.000  
E 9  22343258.905   117414627.7791      -1249.435          42.000  
G 9  21081819.269   110785697.1862      -4006.167          45.000  
E11  27414900.006   144066277.922       -2573.720          43.000  
E19  22054864.409   115899086.576         261.806          43.000  
E20  22636264.761   118954385.394       -2181.213          43.000  
E27  24926412.840   130989191.677        2067.382          43.000  
E 7  26013325.077   136700955.5631       2617.952          42.000  
E10  27132389.811   142581679.868       -1027.159          43.000  
E21  26222565.490   137800485.418       -3395.307          43.000  
> 2019 11  1  2  4 45.9950000  0 17                     
G12  19238742.976   101100277.2852      -1891.870          45.000  
G29  21164365.587   111219496.0732       2865.540          46.000  
G 2  21997021.346   115595134.598        1138.987          45.000  
E 8  22665860.522   119109903.097        1331.451          43.000  
G25  18991364.310    99800290.872         310.049          46.000  
G27  22710595.929   119344984.200       -3571.971          46.000  
E 9  22343492.686   117415878.602       -1251.596          43.000  
G 9  21082583.030   110789711.5222      -4022.302          45.000  
G14  20262148.915                3       -723.136          45.000  
E11  27415388.229   144068842.565       -2556.676          43.000  
E19  22054813.961   115898821.812         266.977          43.000  
E20  22636681.141   118956571.984       -2192.144          43.000  
E27  24926017.540   130987115.167        2084.870          43.000  
E 7  26012828.147   136698342.159        2607.726          43.000  
E10  27132583.212   142582696.284       -1005.938          43.000  
G 4  22169836.994   116503279.3091       -973.105          45.000  
E21  26223213.260   137803890.071       -3414.011          43.000  
> 2019 11  1  2  4 46.9950000  0 18                     
G12  19239101.578   101102168.1512      -1888.928          45.000  
G29  21163825.084   111216639.1462       2848.270          46.000  
G 2  21996807.231   115593998.137        1135.590          46.000  
E 8  22665609.920   119108577.826        1319.032          43.000  
E 1  25293007.660   132915662.5781      -3172.227          43.000  
G25  18991305.084    99799980.243         311.280          46.000  
G27  22711276.871   119348564.400       -3587.151          45.000  
E 9  22343732.993   117417130.438       -1251.151          43.000  
G 9  21083349.949   110793741.3342      -4036.155          45.000  
G14  20262281.833   106479032.5092       -722.442          46.000  
E11  27415873.449   144071394.118       -2547.269          43.000  
E19  22054762.901   115898553.845         268.924          43.000  
E20  22637098.951   118958769.555       -2202.260          43.000  
E27  24925619.867   130985024.346        2096.346          43.000  
E 7  26012330.327   136695743.060        2590.314          43.000  
E10  27132772.651   142583692.931        -987.405          43.000  
G 4  22170025.998   116504248.301        -963.721          45.000  
E21  26223864.781   137807312.181       -3429.274          43.000  
> 2019 11  1  2  4 47.9950000  0 18                     
G12  19239462.065   101104053.9742      -1882.538          45.000  
G29  21163285.226   111213799.6572       2830.403          46.000  
G 2  21996590.186   115592860.585        1140.406          46.000  
E 8  22665363.435   119107264.286        1307.589          43.000  
E 1  25293612.258   132918826.277       -3154.971          43.000  
G25  18991246.015    99799668.724         310.972          46.000  
G27  22711960.361   119352155.896       -3594.958          46.000  
E 9  22343975.656   117418379.124       -1246.275          43.000  
G 9  21084118.597   110797781.2372      -4043.099          46.000  
G14  20262419.463   106479756.9032       -727.650          46.000  
E11  27416357.780   144073939.247       -2544.923          43.000  
E19  22054711.702   115898284.572         268.905          43.000  
E20  22637518.507   118960974.909       -2208.222          43.000  
E27  24925220.170   130982924.443        2102.009          43.000  
E 7  26011843.955   136693162.325        2570.613          43.000  
E10  27132958.828   142584671.978        -972.105          43.000  
G 4  22170204.531   116505204.371        -948.135          46.000  
E21  26224518.082   137810745.633       -3437.084          43.000  
> 2019 11  1  2  4 48.9950000  0 18                     
G12  19239819.882   101105933.1362      -1874.927          46.000  
G29  21162747.707   111210978.0772       2813.736          46.000  
G 2  21996373.175   115591715.302        1151.607          46.000  
E 8  22665116.253   119105962.257        1297.292          43.000  
E 1  25294208.514   132921971.861       -3135.577          43.000  
G25  18991187.085    99799359.282         308.104          46.000  
G27  22712644.741   119355752.033       -3595.544          46.000  
E 9  22344210.536   117419622.058       -1238.899          43.000  
G 9  21084888.012   110801824.8701      -4043.391          46.000  
G14  20262558.925   106480489.4612       -737.678          46.000  
E11  27416842.373   144076486.674       -2550.763          43.000  
E19  22054660.992   115898017.147         266.059          43.000  
E20  22637939.057   118963184.680       -2210.052          43.000  
E27  24924820.316   130980823.150        2100.028          43.000  
E 7  26011359.310   136690602.184        2550.529          43.000  
E10  27133143.312   142585639.494        -963.553          43.000  
G 4  22170384.251   116506143.501        -929.510          46.000  
E21  26225172.622   137814183.524       -3437.041          43.000  
> 2019 11  1  2  4 49.9950000  0 15                     
G12  19240174.749   101107803.3382      -1865.540          46.000  
G 2  21996152.674   115590555.153        1169.084          46.000  
E 1  25294807.196   132925097.425       -3115.844          43.000  
G25  18991128.609    99799052.830         304.486          46.000  
G27  22713328.319   119359343.618       -3586.670          46.000  
E 9  22344446.148   117420855.825       -1228.585          43.000  
G 9  21085656.764   110805864.920       -4035.537          46.000  
G14  20262700.900   106481233.3062       -750.479          46.000  
E11  27417328.850   144079043.046       -2563.048          43.000  
E19  22054610.962   115897752.708         262.387          43.000  
E20  22638359.764   118965393.061       -2206.128          43.000  
E27  24924421.421   130978726.606        2092.105          43.000  
E10  27133326.242   142586601.665        -961.888          43.000  
G 4  22170559.084   116507062.705        -909.401          46.000  
E21  26225825.662   137817616.499       -3427.705          43.000  
> 2019 11  1  2  4 50.9950000  0 15                     
G12  19240528.936   101109665.4822      -1859.131          46.000  
G29  21161682.372   111205390.8883       2795.221          46.000  
G 2  21995928.212   115589377.139        1186.881          46.000  
E 8  22664618.154   119103382.1021       1288.639          43.000  
E 1  25295399.334   132928205.936       -3101.835          43.000  
G25  18991071.338    99798751.601         297.640          46.000  
E 7  26010390.736                1       2523.151          43.000  
E 9  22344679.126   117422080.268       -1220.411          43.000  
G14  20262843.695   106481991.5392       -766.275          46.000  
E11  27417818.224   144081615.327       -2582.378          43.000  
E19  22054561.456   115897493.684         255.468          43.000  
E27  24924024.656   130976641.956        2076.354          43.000  
E10  27133510.045   142587567.291        -970.493          43.000  
G 4  22170732.033   116507963.941        -894.118          46.000  
E21  26226476.485   137821037.704       -3413.820          43.000  
> 2019 11  1  2  4 51.9950000  0 18                     
G12  19240882.792   101111523.0082      -1855.835          46.000  
G29  21161148.185   111202597.0712       2794.035          46.000  
G 2  21995701.254   115588182.418        1202.690          46.000  
E 8  22664377.585   119102094.097        1288.881          43.000  
E 1  25295989.204   132931304.326       -3095.224          43.000  
G25  18991015.340    99798458.273         289.497          46.000  
E 7  26009913.559   136683016.956        2517.546          43.000  
E 9  22344911.144   117423297.927       -1214.446          43.000  
G 9  21087186.362                1      -4009.668          46.000  
G14  20262992.773   106482766.3582       -782.723          46.000  
E11  27418312.048   144084209.235       -2604.914          43.000  
E19  22054513.904   115897242.944         246.950          43.000  
E27  24923631.153   130974575.671        2056.516          43.000  
E10  27133696.169   142588545.927        -987.177          43.000  
G 4  22170900.812   116508853.368        -885.386          46.000  
E21  26227124.551   137824443.367       -3396.320          43.000  
G27  22714685.858   119366479.3991      -3556.214          46.000  
E20  22639195.333                1      -2190.781          43.000  
> 2019 11  1  2  4 52.9950000  0 18                     
G12  19241235.757   101113377.6552      -1854.175          46.000  
G29  21160617.001   111199800.0182       2800.845          46.000  
G 2  21995470.667   115586972.317        1216.330          46.000  
E 8  22664131.171   119100802.556        1294.645          43.000  
E 1  25296577.835   132934398.665       -3094.646          43.000  
G25  18990960.773    99798171.867         283.234          46.000  
E 7  26009433.818   136680497.876        2521.457          43.000  
E 9  22345142.185   117424510.088       -1210.354          43.000  
G 9  21087948.850   110817912.760       -3992.087          46.000  
G14  20263141.920   106483554.9242       -794.198          46.000  
E11  27418809.815   144086824.662       -2625.649          43.000  
E19  22054467.556   115896999.603         239.878          43.000  
E27  24923241.909   130972528.901        2037.167          43.000  
E10  27133885.574   142589542.651       -1007.080          43.000  
G 4  22171068.613   116509736.598        -882.421          46.000  
E21  26227769.162   137827829.746       -3376.556          43.000  
G27  22715358.809   119370026.149       -3536.903          46.000  
E20  22639608.903   118971957.726       -2180.893          43.000  
> 2019 11  1  2  4 53.9950000  0 18                     
G12  19241588.758   101115231.9092      -1854.852          46.000  
G29  21160082.710   111196992.6382       2814.405          46.000  
G 2  21995238.125   115585750.927        1225.250          46.000  
E 8  22663884.826   119099502.940        1304.701          43.000  
E 1  25297167.844   132937495.897       -3101.068          43.000  
G25  18990907.393    99797890.593         279.433          46.000  
E 7  26008954.565   136677970.565        2533.772          43.000  
E 9  22345372.563   117425719.103       -1208.657          43.000  
G 9  21088706.695   110821896.416       -3975.644          46.000  
G14  20263293.736   106484352.6152       -800.517          46.000  
E11  27419310.881   144089458.321       -2641.265          43.000  
E19  22054422.343   115896761.868         235.750          43.000  
E27  24922855.665   130970499.930        2021.174          43.000  
E10  27134079.481   142590560.012       -1027.854          43.000  
G 4  22171236.711   116510620.587        -886.728          46.000  
E21  26228409.463   137831196.325       -3357.447          43.000  
G27  22716035.615   119373553.642       -3518.558          46.000  
E20  22640024.480   118974132.765       -2169.562          43.000  
> 2019 11  1  2  4 54.9950000  0 18                     
G12  19241942.107   101117088.9782      -1859.387          46.000  
G29  21159544.476   111194170.1222       2831.321          46.000  
G 2  21995004.903   115584524.794        1226.316          46.000  
E 8  22663635.253   119098192.641        1316.441          43.000  
E 1  25297759.023   132940603.126       -3113.928          43.000  
G25  18990854.571    99797612.529         277.200          46.000  
E 7  26008469.205   136675428.393        2551.360          43.000  
E 9  22345602.731   117426928.524       -1210.389          43.000  
G 9  21089463.302   110825865.826       -3963.633          46.000  
G14  20263446.496   106485154.0072       -801.035          46.000  
E11  27419814.372   144092104.693       -2650.282          43.000  
E19  22054378.176   115896527.749         233.299          43.000  
E27  24922472.424   130968484.829        2010.249          43.000  
E10  27134276.982   142591597.947       -1047.218          43.000  
G 4  22171406.467   116511512.853        -898.538          46.000  
E21  26229046.902   137834546.351       -3343.190          43.000  
G27  22716702.493   119377064.923       -3504.506          46.000  
E20  22640436.759   118976297.797       -2160.562          43.000  
> 2019 11  1  2  4 55.9950000  0 15                     
G12  19242296.626   101118951.5922      -1866.656          46.000  
G29  21159005.211   111191330.0632       2848.587          46.000  
G 2  21994771.995   115583301.221        1219.527          46.000  
E 8  22663383.918   119096870.760        1327.002          43.000  
E 1  25298353.220   132943725.893       -3132.168          43.000  
G25  18990802.029    99797335.223         277.270          46.000  
E 7  26007982.274   136672867.015        2571.250          43.000  
E 9  22345833.092   117428141.876       -1216.914          43.000  
G 9  21090216.383   110829825.988       -3958.173          46.000  
E11  27420318.788   144094756.252       -2651.986          43.000  
E10  27134477.642   142592653.150       -1062.588          43.000  
G 4  22171579.172   116512419.642        -915.906          46.000  
E21  26229682.526   137837885.675       -3336.846          43.000  
G27  22717368.376   119380565.658       -3498.240          46.000  
E20  22640848.183   118978455.595       -2155.949          43.000  
> 2019 11  1  2  4 56.9950000  0 18                     
G12  19242652.855   101120822.7742      -1875.201          45.000  
G29  21158461.881   111188473.9222       2863.977          45.000  
G 2  21994541.146   115582088.261        1206.104          45.000  
E 8  22663131.814   119095539.342        1335.982          43.000  
E 1  25298950.890   132946868.346       -3151.872          43.000  
G25  18990749.015    99797057.289         279.648          45.000  
E 7  26007491.556   136670286.231        2590.807          43.000  
E 9  22346065.476   117429363.143       -1225.237          43.000  
G 9  21090969.936   110833784.484       -3959.376          45.000  
E19  22054282.794                1        235.859          42.000  
E11  27420823.448   144097405.757       -2645.130          43.000  
G14  20263751.299   106486731.7813       -786.686          45.000  
E27  24921699.815                1       2007.452          43.000  
E10  27134680.745   142593720.762       -1070.715          43.000  
G 4  22171755.297   116513346.141        -936.268          45.000  
E21  26230317.627   137841222.874       -3337.993          43.000  
G27  22718034.032   119384064.202       -3499.403          45.000  
E20  22641258.717   118980611.203       -2155.106          43.000  
> 2019 11  1  2  4 57.9950000  0 18                     
G12  19243010.584   101122702.1982      -1883.582          45.000  
G29  21157915.899   111185603.7092       2875.527          45.000  
G 2  21994313.386   115580890.286        1189.191          45.000  
E 8  22662875.680   119094199.931        1342.200          43.000  
E 1  25299552.207   132950029.500       -3170.025          43.000  
G25  18990695.390    99796775.423         284.281          45.000  
E 7  26006996.057   136667686.853        2607.323          43.000  
E 9  22346299.571   117430593.124       -1234.660          43.000  
G 9  21091723.122   110837747.161       -3967.124          45.000  
E19  22054240.215   115895810.133         240.374          42.000  
E11  27421325.526   144100044.318       -2631.158          43.000  
G14  20263899.242   106487512.4762       -773.922          45.000  
E27  24921317.254   130962413.731        2018.482          43.000  
E10  27134885.000   142594791.973       -1070.313          43.000  
G 4  22171935.278   116514292.414        -955.891          45.000  
E21  26230953.810   137844564.863       -3346.950          43.000  
G27  22718700.770   119387567.281       -3508.003          45.000  
E20  22641669.600   118982768.019       -2159.040          43.000  
> 2019 11  1  2  4 58.9950000  0 18                     
G12  19243369.779   101124590.2082      -1892.023          45.000  
G29  21157368.241   111182725.6282       2879.907          45.000  
G 2  21994088.994   115579711.363        1168.973          45.000  
E 8  22662620.488   119092857.353        1342.752          43.000  
E 1  25300157.258   132953207.424       -3184.727          43.000  
G25  18990640.998    99796488.951         289.005          45.000  
E 7  26006499.093   136665074.598        2616.665          43.000  
E 9  22346535.672   117431833.216       -1244.908          43.000  
G 9  21092479.938   110841721.173       -3981.329          45.000  
E19  22054195.595   115895567.345         245.565          43.000  
E11  27421824.515   144102666.662       -2612.868          43.000  
G14  20264044.148   106488279.9042       -760.678          45.000  
E27  24920935.793   130960388.315        2033.197          43.000  
E10  27135088.226   142595859.410       -1062.917          43.000  
G 4  22172118.732   116515257.494        -973.153          45.000  
E21  26231592.453   137847919.747       -3363.269          43.000  
G27  22719369.567   119391082.841       -3523.766          45.000  
E20  22642081.913   118984931.212       -2167.605          43.000  
> 2019 11  1  2  4 59.9950000  0 18                     
G12  19243730.371   101126484.8262      -1896.661          45.000  
G29  21156820.270   111179846.1542       2878.451          45.000  
G 2  21993868.318   115578551.536        1151.503          45.000  
E 8  22662365.087   119091515.949        1339.604          42.000  
E 1  25300764.282   132956396.459       -3191.706          42.000  
G25  18990585.053    99796196.947         295.213          45.000  
E 7  26006000.854   136662456.169        2619.325          42.000  
E 9  22346773.781   117433082.264       -1252.401          42.000  
G 9  21093239.145   110845710.934       -3998.305          45.000  
E19  22054150.207   115895318.506         252.317          42.000  
E11  27422319.787   144105269.177       -2591.756          42.000  
G14  20264186.874   106489033.8582       -747.454          45.000  
E27  24920551.469   130958345.869        2052.292          42.000  
E10  27135289.043   142596915.335       -1047.656          42.000  
G 4  22172304.857   116516236.473        -983.377          45.000  
E21  26232234.062   137851292.570       -3382.401          42.000  
G27  22720042.307   119394615.875       -3542.394          45.000  
E20  22642495.414   118987103.983       -2177.677          42.000  
> 2019 11  1  2  5  0.9950000  0 18                     
G12  19244091.433   101128383.2462      -1899.011          45.000  
G29  21156273.328   111176972.1962       2869.080          45.000  
G 2  21993650.487   115577408.106        1137.032          45.000  
E 8  22662111.326   119090180.041        1332.062          42.000  
E 1  25301372.073   132959589.452       -3192.124          42.000  
G25  18990528.601    99795899.597         299.919          45.000  
E 7  26005502.755   136659839.422        2613.583          42.000  
E 9  22347012.761   117434337.876       -1257.531          42.000  
G 9  21094001.597   110849718.510       -4016.270          45.000  
E19  22054101.852   115895063.690         258.010          42.000  
E11  27422811.010   144107851.536       -2572.720          42.000  
G14  20264328.238   106489776.5242       -737.872          45.000  
E27  24920160.497   130956284.781        2070.361          42.000  
E10  27135486.597   142597954.065       -1028.690          42.000  
G 4  22172492.603   116517222.557        -986.803          45.000  
E21  26232879.354   137854685.718       -3403.250          42.000  
G27  22720718.364   119398168.796       -3562.757          45.000  
E20  22642911.043   118989288.246       -2190.040          42.000  
> 2019 11  1  2  5  1.9950000  0 18                     
G12  19244452.757   101130282.1502      -1897.815          45.000  
G29  21155728.444   111174109.8032       2855.100          45.000  
G 2  21993435.064   115576275.851        1128.975          45.000  
E 8  22661858.838   119088853.225        1321.557          42.000  
E 1  25301978.834   132962778.631       -3184.692          42.000  
G25  18990471.295    99795597.998         303.323          45.000  
E 7  26005007.029   136657232.010        2600.678          42.000  
E 9  22347252.178   117435596.783       -1259.175          42.000  
G 9  21094767.592   110853743.309       -4032.414          45.000  
E19  22054052.206   115894804.076         261.562          42.000  
E11  27423298.831   144110416.660       -2558.082          42.000  
G14  20264469.567   106490512.0592       -733.503          45.000  
E27  24919764.883   130954206.360        2086.140          42.000  
E10  27135680.277   142598972.732       -1008.219          42.000  
G 4  22172680.141   116518207.930        -982.323          45.000  
E21  26233528.694   137858098.420       -3421.402          42.000  
G27  22721398.085   119401740.909       -3580.607          45.000  
E20  22643328.627   118991484.138       -2201.325          42.000  
> 2019 11  1  2  5  2.9950000  0 17                     
G12  19244813.558   101132177.7392      -1892.621          45.000  
G29  21155186.528   111171262.8832       2838.653          45.000  
G 2  21993220.304   115575147.429        1129.292          45.000  
E 8  22661608.585   119087537.261        1310.508          42.000  
E 1  25302583.362   132965956.395       -3169.683          42.000  
G25  18990413.325    99795293.550         305.592          45.000  
E 9  22347491.735   117436854.752       -1255.697          42.000  
G 9  21095536.117   110857781.565       -4042.927          45.000  
E19  22054002.718   115894541.092         264.108          42.000  
E11  27423784.558   144112969.812       -2549.224          42.000  
G14  20264608.820   106491245.3192       -733.716          45.000  
E27  24919364.697   130952114.293        2097.376          42.000  
E10  27135870.344   142599971.263        -989.122          42.000  
G 4  22172866.056   116519184.558        -969.849          45.000  
E21  26234181.227   137861526.380       -3433.383          42.000  
G27  22722080.650   119405328.119       -3592.562          45.000  
E20  22643748.514   118993689.570       -2208.922          42.000  
> 2019 11  1  2  5  3.9950000  0 18                     
G12  19245173.085   101134066.8052      -1885.358          45.000  
G29  21154647.822   111168432.9232       2821.153          45.000  
G 2  21993004.602   115574014.997        1136.500          45.000  
E 8  22661360.425   119086232.250        1299.500          42.000  
E 1  25303184.958   132969117.043       -3151.118          42.000  
G25  18990355.251    99794988.183         304.641          45.000  
E 7  26004018.771   136652050.7721       2563.670          42.000  
E 9  22347730.122   117438107.850       -1249.997          42.000  
G 9  21096306.073   110861827.485       -4047.888          45.000  
E19  22053951.431   115894276.874         263.767          42.000  
E11  27424269.901   144115518.185       -2548.927          42.000  
G14  20264748.858   106491981.7252       -740.048          45.000  
E27  24918965.715   130950014.390        2101.344          42.000  
E10  27136056.939   142600952.850        -975.285          42.000  
G 4  22173048.951   116520145.904        -952.541          45.000  
E21  26234835.087   137864962.935       -3438.489          42.000  
G27  22722765.012   119408923.957       -3597.922          45.000  
E20  22644169.134   118995901.058       -2213.415          42.000  
> 2019 11  1  2  5  4.9950000  0 18                     
G12  19245531.373   101135948.9022      -1878.882          45.000  
G29  21154112.746   111165620.4342       2804.257          45.000  
G 2  21992787.556   115572873.051        1147.929          45.000  
E 8  22661113.505   119084938.262        1288.844          42.000  
E 1  25303782.681   132972259.202       -3133.212          42.000  
G25  18990297.648    99794685.658         299.877          45.000  
E 7  26003533.882   136649497.476        2542.981          42.000  
E 9  22347967.253   117439354.519       -1243.307          42.000  
G 9  21097076.395   110865875.723       -4047.338          45.000  
E19  22053901.751   115894015.392         258.773          42.000  
E11  27424755.680   144118071.418       -2558.938          42.000  
G14  20264890.955   106492727.9152       -753.020          45.000  
E27  24918566.646   130947915.446        2095.484          42.000  
E10  27136241.825   142601925.100        -970.768          42.000  
G 4  22173228.270   116521089.641        -934.969          45.000  
E21  26235489.400   137868401.769       -3438.061          42.000  
G27  22723449.794   119412522.300       -3597.516          45.000  
E20  22644590.731   118998115.823       -2215.401          42.000  
> 2019 11  1  2  5  5.9950000  0 17                     
G12  19245888.247   101137824.4762      -1871.490          45.000  
G29  21153580.550   111162823.0232       2792.338          45.000  
G 2  21992567.596   115571717.449        1164.342          45.000  
E 1  25304377.611   132975384.252       -3116.514          42.000  
G25  18990241.231    99794389.170         293.873          45.000  
E 7  26003051.540   136646963.472        2526.750          42.000  
E 9  22348203.180   117440594.176       -1235.024          42.000  
G 9  21097846.055   110869920.463       -4040.011          45.000  
E19  22053853.396   115893760.030         252.589          42.000  
E11  27425244.269   144120638.196       -2574.720          42.000  
G14  20265035.635   106493488.8932       -768.462          45.000  
E27  24918168.642   130945825.811        2083.800          42.000  
E10  27136426.867   142602896.919        -973.453          42.000  
G 4  22173404.691   116522016.050        -917.378          45.000  
E21  26236142.911   137871835.903       -3428.514          42.000  
G27  22724133.738   119416116.399       -3588.765          45.000  
E20  22645012.224   119000330.417       -2212.284          42.000  
> 2019 11  1  2  5  6.9950000  0 18                     
G12  19246243.551   101139692.0871      -1864.551          45.000  
G29  21153049.574   111160033.4062       2787.914          45.000  
G 2  21992344.129   115570543.755        1183.101          45.000  
E 8  22660621.060                1       1280.280          42.000  
E 1  25304969.418   132978493.753       -3102.737          42.000  
G25  18990185.914    99794098.487         287.760          45.000  
E 7  26002574.835   136644441.887        2518.060          42.000  
E 9  22348437.572   117441824.820       -1225.969          42.000  
G 9  21098613.341   110873953.884       -4025.953          45.000  
E19  22053805.879   115893510.763         246.264          42.000  
E11  27425735.981   144123222.633       -2594.194          42.000  
G14  20265183.281   106494264.8892       -783.335          45.000  
E27  24917773.848   130943749.931        2067.834          42.000  
E10  27136612.694   142603874.864        -983.141          42.000  
G 4  22173577.850   116522925.801        -902.874          45.000  
E21  26236794.275   137875256.679       -3411.906          42.000  
G27  22724815.116   119419697.704       -3572.614          45.000  
E20  22645431.622   119002538.922       -2203.967          42.000  
> 2019 11  1  2  5  7.9950000  0 17                     
G12  19246598.000   101141554.033       -1859.662          46.000  
G29  21152518.896   111157244.1692       2791.539          46.000  
G 2  21992117.328   115569351.525        1200.812          46.000  
E 8  22660378.920   119081094.289        1285.457          44.000  
E 1  25305559.095   132981592.848       -3096.050          43.000  
G25  18990131.661    99793813.548         282.194          46.000  
E 7  26002095.356   136641924.966        2517.426          43.000  
E 9  22348669.590   117443047.007       -1218.560          43.000  
G 9  21099377.887   110877971.084       -4008.091          46.000  
E19  22053760.142   115893267.649         240.418          43.000  
E11  27426231.602   144125827.061       -2614.342          44.000  
G14  20265333.684   106495054.9312       -796.183          46.000  
E27  24917382.160   130941691.119        2049.895          43.000  
E10  27136801.610   142604865.631        -998.854          44.000  
E21  26237441.295   137878658.610       -3391.304          43.000  
G27  22725493.075   119423260.768       -3552.730          46.000  
E20  22645850.550   119004737.478       -2192.399          43.000  
> 2019 11  1  2  5  8.9950000  0 14                     
G12  19246951.628   101143413.164       -1858.710          46.000  
E 8  22660134.024   119079805.805        1292.565          44.000  
G25  18990078.630    99793534.499         276.503          46.000  
E 9  22348901.451   117444263.704       -1214.817          44.000  
G 9  21100139.258   110881970.800       -3990.912          46.000  
E19  22053714.911   115893030.924         233.994          44.000  
E11  27426730.992   144128451.802       -2633.887          44.000  
G14  20265486.304   106495856.9612       -806.501          46.000  
E27  24916994.050   130939651.023        2031.212          43.000  
E10  27136993.597   142605874.996       -1019.652          44.000  
G 4  22173918.391   116524726.9743       -892.823          46.000  
E21  26238084.859   137882040.167       -3371.351          44.000  
G27  22726167.438   119426804.063       -3533.251          46.000  
E20  22646266.772   119006924.926       -2181.607          44.000  
> 2019 11  1  2  5  9.9950000  0 15                     
G12  19247305.554   101145272.855       -1861.005          46.000  
G29  21151451.396   111151626.8283       2814.746          46.000  
G 2  21991657.690   115566941.1413       1219.667          46.000  
E 8  22659888.185   119078508.357        1302.790          44.000  
E 7  26001130.498   136636873.1801       2537.889          44.000  
G25  18990026.524    99793260.090         272.844          46.000  
E 9  22349132.457   117445478.316       -1214.699          43.000  
G 9  21100897.435   110885954.026       -3975.790          46.000  
E19  22053670.762   115892799.269         229.810          43.000  
E11  27427233.628   144131093.408       -2648.215          44.000  
E10  27137190.174   142606905.310       -1040.741          44.000  
E 1  25306736.584   132987808.8241      -3106.548          43.000  
E21  26238724.496   137885402.575       -3353.826          44.000  
G27  22726838.190   119430328.673       -3516.201          46.000  
E20  22646680.761   119009101.283       -2171.129          44.000  
> 2019 11  1  2  5 10.9950000  0 18                     
G12  19247660.421   101147136.793       -1866.711          46.000  
G29  21150915.797   111148804.2132       2831.517          46.000  
G 2  21991423.892   115565722.4542       1217.637          46.000  
E 8  22659641.422   119077200.410        1313.646          44.000  
E 7  26000648.087   136634327.332        2555.502          44.000  
G25  18989974.749    99792988.810         270.931          46.000  
G14  20265793.951   106497465.2853       -811.022          46.000  
E 9  22349364.108   117446695.010       -1218.609          43.000  
G 9  21101653.047   110889924.821       -3965.918          46.000  
E19  22053627.311   115892571.061         227.587          43.000  
E11  27427738.393   144133746.269       -2655.824          44.000  
G 4  22174262.753   116526536.8752       -913.643          46.000  
E10  27137390.066   142607956.133       -1059.750          44.000  
E 1  25307328.216   132990922.774       -3121.686          43.000  
E27  24916223.483                1       2007.972          43.000  
E21  26239361.621   137888750.485       -3342.433          44.000  
G27  22727506.114   119433839.081       -3504.994          46.000  
E20  22647093.738   119011268.861       -2163.776          43.000  
> 2019 11  1  2  5 11.9950000  0 18                     
G12  19248016.109   101149006.579       -1873.303          46.000  
G29  21150374.124   111145963.5072       2849.556          46.000  
G 2  21991192.816   115564508.0962       1209.856          46.000  
E 8  22659389.127   119075880.596        1325.342          44.000  
E 7  26000163.250   136631761.203        2576.460          44.000  
G25  18989923.271    99792717.219         272.490          46.000  
G14  20265949.188   106498273.1482       -803.833          46.000  
E 9  22349596.388   117447916.201       -1224.382          43.000  
G 9  21102407.193   110893887.756       -3961.326          46.000  
E19  22053583.912   115892342.684         229.298          43.000  
E11  27428243.909   144136401.494       -2653.590          44.000  
G 4  22174438.058   116527459.1682       -931.239          46.000  
E10  27137592.873   142609022.338       -1072.035          44.000  
E 1  25307921.576   132994053.061       -3139.567          44.000  
E27  24915838.095   130933622.555        2004.696          43.000  
E21  26239996.739   137892089.333       -3336.945          44.000  
G27  22728172.364   119437340.510       -3499.416          46.000  
E20  22647504.848   119013429.862       -2159.233          43.000  
> 2019 11  1  2  5 12.9950000  0 18                     
G12  19248373.490   101150884.151       -1882.141          46.000  
G29  21149831.143   111143106.2152       2863.844          46.000  
G 2  21990964.340   115563304.9962       1194.958          46.000  
E 8  22659135.784   119074550.730        1333.326          44.000  
E 7  25999670.072   136629174.720        2595.274          44.000  
G25  18989870.990    99792443.166         275.369          46.000  
G14  20266100.552   106499071.8152       -793.389          46.000  
E 9  22349830.291   117449144.866       -1233.682          43.000  
G 9  21103161.094   110897849.861       -3964.654          46.000  
E19  22053540.234   115892111.793         232.117          43.000  
E11  27428748.429   144139051.106       -2645.051          44.000  
G 4  22174617.534   116528400.6662       -952.122          46.000  
E10  27137797.599   142610097.631       -1078.059          44.000  
E 1  25308526.924   132997202.235       -3159.427          44.000  
E27  24915458.658   130931615.675        2009.456          44.000  
E21  26240631.945   137895427.230       -3340.863          44.000  
G27  22728838.351   119440840.869       -3503.071          46.000  
E20  22647915.678   119015588.767       -2160.153          43.000  
> 2019 11  1  2  5 13.9950000  0 18                     
G12  19248732.615   101152771.479       -1891.907          46.000  
G29  21149284.358   111140237.7102       2872.474          46.000  
G 2  21990739.040   115562119.5982       1175.637          46.000  
E 8  22658881.343   119073215.419        1337.015          43.000  
E 7  25999176.650   136626572.284        2609.066          44.000  
G25  18989818.255    99792166.182         279.141          46.000  
G14  20266249.891   106499859.1642       -780.786          46.000  
E 9  22350066.008   117450384.048       -1244.376          43.000  
G 9  21103916.602   110901819.569       -3975.411          46.000  
E19  22053495.370   115891877.674         236.367          43.000  
E11  27429250.455   144141689.193       -2630.194          44.000  
G 4  22174800.150   116529363.1892       -972.120          46.000  
E10  27138002.970   142611175.565       -1076.214          44.000  
E 1  25309128.538   133000371.077       -3177.563          44.000  
E27  24915079.953   130929601.219        2020.371          44.000  
E21  26241269.000   137898773.630       -3352.897          44.000  
G27  22729506.032   119444349.421       -3514.879          46.000  
E20  22648327.207   119017751.652       -2166.041          43.000  
> 2019 11  1  2  5 14.9950000  0 15                     
G29  21148734.641                3       2877.832          46.000  
G 2  21990516.690   115560952.9062       1157.330          46.000  
E 8  22658627.250   119071877.526        1337.843          44.000  
E 7  25998678.970   136623958.079        2617.767          44.000  
G25  18989764.421    99791883.614         285.686          46.000  
G14  20266396.996   106500632.2892       -766.011          46.000  
E 9  22350303.872   117451632.507       -1252.644          43.000  
G 9  21104674.255   110905801.475       -3989.492          46.000  
E19  22053449.738   115891637.544         243.331          43.000  
E11  27429748.973   144144309.041       -2609.425          44.000  
E10  27138206.562   142612246.665       -1065.064          44.000  
E27  24914694.530   130927572.053        2037.915          44.000  
E21  26241908.463   137902133.981       -3368.978          44.000  
G27  22730176.382   119447871.504       -3530.601          46.000  
E20  22648739.939   119019921.347       -2174.117          43.000  
> 2019 11  1  2  5 15.9950000  0 17                     
G 4  22175171.945                3       -995.386          46.000  
G29  21148189.217   111134483.5342       2872.353          46.000  
E 8  22658372.913   119070541.750        1333.080          44.000  
G14  20266539.843                3       -753.662          46.000  
G25  18989709.610    99791595.147         291.185          46.000  
E 7  25998178.532                1       2617.187          43.000  
E 9  22350542.975   117452888.992       -1259.876          43.000  
G 9  21105435.189   110909799.630       -4006.994          46.000  
E19  22053402.814   115891390.932         249.620          43.000  
E11  27430243.250   144146908.273       -2588.870          44.000  
G12  19249455.089   101156568.7031      -1902.753          46.000  
E 1  25310340.176                1      -3194.514          43.000  
E10  27138407.798   142613303.970       -1048.720          44.000  
E27  24914303.628   130925524.735        2056.778          44.000  
E21  26242551.661   137905512.928       -3389.300          44.000  
G27  22730850.222   119451411.700       -3550.196          46.000  
E20  22649154.888   119022100.997       -2185.335          44.000  
> 2019 11  1  2  5 16.9950000  0 18                     
G 4  22175363.199   116532311.3002       -996.482          46.000  
G29  21147645.451   111131616.3882       2861.067          46.000  
G 2  21990081.795                1       1127.631          46.000  
E 8  22658120.059   119069213.034        1323.800          44.000  
G14  20266682.447   106502134.4162       -746.596          46.000  
G25  18989653.769    99791301.984         295.072          46.000  
E 7  25997680.451   136618742.488        2609.234          43.000  
E 9  22350783.108   117454151.572       -1264.631          43.000  
G 9  21106199.596   110913816.179       -4025.631          46.000  
E19  22053354.913   115891139.041         254.126          43.000  
E11  27430734.229   144149488.284       -2571.518          44.000  
G12  19249815.419   101158472.390       -1904.346          46.000  
E 1  25310945.227   133009939.422       -3193.037          43.000  
E10  27138605.299   142614343.317       -1029.639          44.000  
E27  24913910.492   130923459.265        2073.933          44.000  
E21  26243198.680   137908912.713       -3410.149          44.000  
G27  22731527.953   119454972.334       -3570.747          46.000  
E20  22649571.843   119024292.789       -2197.926          44.000  
> 2019 11  1  2  5 17.9950000  0 18                     
G 4  22175552.761   116533306.0972       -991.326          44.000  
G29  21147102.732   111128763.6982       2844.380          44.000  
G 2  21989869.880   115557536.646        1119.577          44.000  
E 8  22657869.544   119067895.605        1311.209          42.000  
G14  20266826.184   106502880.0802       -745.049          44.000  
G25  18989597.545    99791006.470         296.370          44.000  
E 7  25997183.346   136616141.113        2593.349          42.000  
E 9  22351024.060   117455417.730       -1266.398          42.000  
G 9  21106967.301   110917850.659       -4041.970          44.000  
E19  22053305.913   115890884.259         255.885          42.000  
E11  27431222.399   144152053.899       -2559.958          42.000  
G12  19250177.999   101160376.989       -1903.717          44.000  
E 1  25311555.270   133013129.249       -3185.013          42.000  
E10  27138799.643   142615363.773       -1010.918          42.000  
E27  24913514.128   130921378.837        2086.812          42.000  
E21  26243849.381   137912332.665       -3428.679          42.000  
G27  22732209.245   119458552.812       -3588.886          44.000  
E20  22649991.678   119026497.358       -2210.054          41.000  
> 2019 11  1  2  5 18.9950000  0 18                     
G 4  22175739.618   116534291.0532       -978.058          44.000  
G29  21146563.695   111125928.2062       2826.583          44.000  
G 2  21989656.010   115556416.891        1121.084          44.000  
E 8  22657620.861   119066590.233        1299.240          42.000  
G14  20266968.648   106503626.1442       -747.901          44.000  
G25  18989541.216    99790709.668         296.813          44.000  
E 7  25996696.101   136613557.116        2574.299          42.000  
E 9  22351264.734   117456682.777       -1263.127          42.000  
G 9  21107737.187   110921898.166       -4051.894          44.000  
E19  22053257.366   115890627.776         256.664          42.000  
E11  27431709.068   144154610.549       -2554.471          42.000  
G12  19250542.150   101162278.290       -1898.505          44.000  
E 1  25312160.530   133016306.793       -3169.541          42.000  
E10  27138990.565   142616365.754        -993.767          42.000  
E27  24913116.490   130919287.323        2094.955          42.000  
E21  26244503.206   137915767.196       -3439.710          42.000  
G27  22732893.346   119462147.778       -3600.046          44.000  
E20  22650412.787   119028711.679       -2217.925          42.000  
> 2019 11  1  2  5 19.9950000  0 18                     
G 4  22175925.114   116535260.5032       -960.223          44.000  
G29  21146026.717   111123110.8532       2808.876          44.000  
G 2  21989442.507   115555292.131        1129.730          44.000  
E 8  22657375.214   119065296.746        1288.241          42.000  
G14  20267111.268   106504378.1972       -756.669          44.000  
G25  18989484.659    99790413.763         294.988          44.000  
E 7  25996210.427   136610993.282        2553.708          42.000  
E 9  22351504.569   117457943.106       -1256.702          42.000  
G 9  21108508.609   110925952.651       -4055.533          44.000  
E19  22053208.907   115890371.975         254.892          42.000  
E11  27432195.336   144157166.026       -2557.504          42.000  
G12  19250902.148   101164173.582       -1891.589          44.000  
E 1  25312762.912   133019467.268       -3150.852          42.000  
E10  27139178.312   142617353.564        -982.600          42.000  
E27  24912717.927   130917191.223        2096.227          42.000  
E21  26245157.920   137919209.354       -3443.343          42.000  
G27  22733578.825   119465750.459       -3603.965          45.000  
E20  22650835.588   119030932.104       -2221.919          42.000  
> 2019 11  1  2  5 20.9950000  0 18                     
G 4  22176106.107   116536210.9232       -940.706          44.000  
G29  21145492.653   111120309.3452       2794.817          44.000  
G 2  21989225.478   115554155.246        1144.619          44.000  
E 8  22657130.981   119064012.726        1280.469          42.000  
G14  20267256.611   106505140.5252       -768.759          44.000  
G25  18989429.080    99790120.488         291.605          44.000  
E 7  25995722.274   136608448.814        2535.699          42.000  
E 9  22351742.660   117459195.526       -1247.718          42.000  
G 9  21109280.083   110930006.588       -4051.282          44.000  
E19  22053160.640   115890118.825         251.017          42.000  
E11  27432682.895   144159727.859       -2567.405          42.000  
G12  19251260.838   101166060.680       -1882.483          44.000  
E 1  25313361.838   133022608.178       -3131.061          42.000  
E10  27139364.785   142618333.381        -978.306          42.000  
E27  24912319.678   130915097.410        2090.429          42.000  
E21  26245813.141   137922650.553       -3437.969          42.000  
G27  22734264.148   119469352.492       -3599.097          44.000  
E20  22651258.075   119033153.665       -2220.525          42.000  
> 2019 11  1  2  5 21.9950000  0 18                     
G 4  22176283.733   116537141.9142       -922.075          46.000  
G29  21144963.074   111117518.9482       2786.631          46.000  
G 2  21989005.780   115553001.113        1163.608          46.000  
E 8  22656887.428   119062734.347        1276.921          43.000  
G14  20267404.048   106505915.9632       -782.542          46.000  
G25  18989374.008    99789831.228         286.907          46.000  
E 7  25995242.463   136605919.881        2523.069          43.000  
E 9  22351979.338   117460438.178       -1237.606          43.000  
G 9  21110050.144   110934052.600       -4039.943          46.000  
E19  22053113.018   115889869.837         246.436          43.000  
E11  27433172.653   144162302.723       -2583.080          43.000  
G12  19251618.794   101167938.825       -1873.810          46.000  
E 1  25313954.081   133025730.130       -3113.469          43.000  
E10  27139550.997   142619312.739        -981.737          43.000  
E27  24911922.877   130913012.384        2078.673          43.000  
E21  26246466.408   137926082.394       -3424.510          43.000  
G27  22734948.039   119472945.646       -3586.281          46.000  
E20  22651680.091   119035371.231       -2214.001          43.000  
> 2019 11  1  2  5 22.9950000  0 17                     
G 4  22176457.834   116538057.1752       -909.027          46.000  
G29  21144433.180   111114734.1662       2784.192          46.000  
G 2  21988782.662   115551828.361        1181.909          46.000  
E 8  22656644.469   119061457.852        1277.112          43.000  
G14  20267555.516   106506706.2852       -797.697          46.000  
G25  18989320.453    99789547.705         280.421          46.000  
E 7  25994764.031   136603401.187        2515.725          43.000  
E 9  22352214.008   117461671.710       -1229.500          43.000  
G 9  21110817.639   110938085.545       -4025.009          46.000  
E19  22053066.723   115889626.958         239.632          43.000  
E11  27433665.936   144164896.139       -2603.731          43.000  
G12  19251974.255   101169809.631       -1867.950          46.000  
E10  27139738.988   142620300.254        -993.914          43.000  
E27  24911529.078   130910942.219        2061.348          43.000  
E21  26247116.463   137929498.955       -3407.279          43.000  
G27  22735628.755   119476524.089       -3569.388          46.000  
E20  22652100.502   119037581.374       -2205.288          43.000  
> 2019 11  1  2  5 23.9950000  0 18                     
G 4  22176632.441   116538989.2191       -903.404          46.000  
G29  21143902.903   111111948.3562       2788.105          46.000  
G 2  21988556.454   115550638.332        1197.100          46.000  
E 8  22656400.777   119060178.969        1281.129          43.000  
G14  20267708.240   106507510.7212       -810.989          46.000  
G25  18989267.596    99789270.496         273.754          46.000  
E 1  25315133.227   133031933.4781      -3098.797          43.000  
E 7  25994284.795   136600885.460        2516.449          43.000  
E 9  22352447.160   117462897.998       -1224.019          43.000  
G 9  21111581.976   110942102.072       -4008.130          46.000  
E19  22053021.771   115889390.853         232.372          43.000  
E11  27434163.546   144167510.450       -2625.179          43.000  
G12  19252329.245   101171675.583       -1864.923          46.000  
E10  27139929.771   142621303.019       -1012.654          43.000  
E27  24911138.211   130908890.352        2042.041          43.000  
E21  26247762.418   137932896.345       -3387.734          43.000  
G27  22736306.015   119480083.984       -3550.378          46.000  
E20  22652519.028   119039781.507       -2195.151          43.000  
> 2019 11  1  2  5 24.9950000  0 18                     
G 4  22176802.039   116539893.030        -904.636          46.000  
G29  21143371.492   111109155.4552       2799.310          46.000  
G 2  21988327.438   115549435.497        1208.213          46.000  
E 8  22656156.282   119058894.205        1289.723          43.000  
G14  20267863.408   106508326.7592       -819.410          46.000  
G25  18989216.066    99788999.652         268.930          46.000  
E 1  25315721.928   133035033.635       -3101.969          43.000  
E 7  25993805.316   136598365.413        2525.457          43.000  
E 9  22352679.405   117464120.503       -1220.836          43.000  
G 9  21112343.015   110946101.851       -3990.898          46.000  
E19  22052978.006   115889161.564         227.048          43.000  
E11  27434665.013   144170145.127       -2642.879          43.000  
G12  19252684.426   101173540.434       -1864.600          46.000  
E10  27140124.603   142622326.151       -1033.318          43.000  
E27  24910751.636   130906857.743        2024.477          43.000  
E21  26248405.162   137936274.130       -3367.576          43.000  
G27  22736979.820   119483624.835       -3530.734          46.000  
E20  22652935.635   119041971.050       -2183.424          43.000  
> 2019 11  1  2  5 25.9950000  0 18                     
G 4  22176975.023   116540801.649        -913.701          46.000  
G29  21142837.567   111106348.7062       2814.695          46.000  
G 2  21988096.833   115548224.607        1212.325          46.000  
E 8  22655910.077   119057599.220        1300.490          43.000  
G14  20268019.500   106509148.2902       -822.782          46.000  
G25  18989164.954    99788732.373         265.805          46.000  
E 1  25316314.729   133038140.487       -3112.761          43.000  
E 7  25993323.637   136595832.561        2540.760          43.000  
E 9  22352911.947   117465341.463       -1221.719          43.000  
G 9  21113101.018   110950085.363       -3977.008          46.000  
E19  22052935.445   115888936.221         223.683          43.000  
E11  27435169.621   144172794.562       -2655.034          43.000  
G12  19253039.329   101175406.237       -1867.792          46.000  
E10  27140322.942   142623369.762       -1053.812          43.000  
E27  24910368.063   130904840.432        2010.830          43.000  
E21  26249044.503   137939633.145       -3351.363          43.000  
G27  22737650.450   119487147.333       -3514.941          46.000  
E20  22653350.217   119044149.297       -2173.419          43.000  
> 2019 11  1  2  5 26.9950000  0 18                     
G 4  22177150.241   116541723.314        -929.410          46.000  
G29  21142300.380   111103525.9782       2831.742          46.000  
G 2  21987866.455   115547014.120        1208.571          46.000  
E 8  22655661.743   119056293.690        1311.496          43.000  
G14  20268176.046   106509970.8162       -820.440          46.000  
G25  18989114.488    99788467.790         264.575          46.000  
E 1  25316910.061   133041261.679       -3129.426          43.000  
E 7  25992838.312   136593282.837        2559.695          43.000  
E 9  22353144.995   117466565.820       -1226.508          43.000  
G 9  21113857.083   110954058.100       -3968.811          46.000  
E19  22052893.041   115888713.798         222.384          43.000  
E11  27435675.590   144175453.301       -2660.247          43.000  
G12  19253395.453   101177277.369       -1874.072          46.000  
E10  27140525.364   142624433.213       -1071.375          43.000  
E27  24909986.287   130902834.476        2002.867          43.000  
E21  26249681.209   137942979.551       -3341.676          43.000  
G27  22738318.566   119490657.468       -3505.528          46.000  
E20  22653763.560   119046319.778       -2167.036          43.000  
> 2019 11  1  2  5 27.9950000  0 18                     
G 4  22177329.769   116542662.791        -949.367          46.000  
G29  21141759.789   111100686.1672       2847.777          46.000  
G 2  21987637.666   115545810.988        1197.227          46.000  
E 8  22655411.506   119054977.519        1320.867          44.000  
G14  20268331.597   106510788.2852       -813.259          46.000  
G25  18989063.900    99788203.105         265.442          46.000  
E 1  25317506.928   133044401.085       -3149.463          44.000  
E 7  25992349.496   136590713.323        2579.263          44.000  
E 9  22353379.386   117467796.513       -1234.712          44.000  
G 9  21114612.189   110958025.745       -3967.437          46.000  
E19  22052850.794   115888491.331         223.184          44.000  
E11  27436181.646   144178112.859       -2657.297          44.000  
G12  19253752.973   101179155.894       -1882.861          46.000  
E10  27140730.614   142625511.228       -1083.389          44.000  
E27  24909605.401   130900832.588        2002.164          44.000  
E21  26250316.850   137946319.995       -3340.144          44.000  
G27  22738985.496   119494161.647       -3503.766          46.000  
E20  22654175.787   119048485.705       -2164.992          44.000  
> 2019 11  1  2  5 28.9950000  0 17                     
G 4  22177511.338   116543622.212        -968.990          46.000  
G29  21141216.477   111097830.9812       2861.867          46.000  
G 2  21987411.284   115544621.120        1182.038          46.000  
E 8  22655159.351   119053652.394        1329.010          44.000  
G14  20268485.037   106511595.5942       -800.809          46.000  
G25  18989013.224    99787935.700         269.655          46.000  
E 1  25318109.816   133047559.804       -3167.838          44.000  
E 7  25991856.563   136588124.308        2598.099          44.000  
E 9  22353615.278   117469035.609       -1243.342          44.000  
G 9  21115367.626   110961994.937       -3971.909          46.000  
E19  22052808.041   115888265.949         227.919          44.000  
E11  27436686.185   144180764.777       -2645.202          44.000  
G12  19254112.081   101181042.814       -1890.930          46.000  
E10  27140937.294   142626596.401       -1085.926          44.000  
E21  26250952.806   137949662.154       -3345.240          44.000  
G27  22739652.356   119497667.369       -3508.726          46.000  
E20  22654587.734   119050651.200       -2166.402          44.000  
> 2019 11  1  2  5 29.9950000  0 17                     
G 4  22177697.951   116544600.939        -988.000          46.000  
G29  21140671.280   111094964.8732       2869.577          46.000  
G 2  21987188.165   115543448.682        1162.854          46.000  
E 8  22654905.886   119052321.740        1331.788          44.000  
G14  20268636.173   106512389.6122       -787.090          46.000  
G25  18988961.572    99787663.671         274.560          46.000  
E 1  25318713.698   133050736.186       -3184.143          44.000  
E 7  25991360.819   136585519.456        2610.692          44.000  
E 9  22353852.828   117470284.175       -1253.481          44.000  
G 9  21116124.617   110965972.330       -3983.253          46.000  
E19  22052764.502   115888035.599         233.111          44.000  
E11  27437187.808   144183402.090       -2628.370          44.000  
G12  19254472.777   101182938.131       -1899.426          46.000  
E10  27141143.713   142627680.508       -1080.983          44.000  
E21  26251590.437   137953013.713       -3358.720          44.000  
G27  22740321.153   119501182.130       -3521.619          46.000  
E20  22655000.536   119052820.702       -2172.967          44.000  
> 2019 11  1  2  5 30.9950000  0 17                     
G 4  22177887.199   116545595.785       -1000.942          46.000  
G29  21140125.123   111092094.5652       2870.289          46.000  
G 2  21986969.008   115542295.637        1143.747          46.000  
E 8  22654652.474   119050990.374        1330.496          44.000  
G14  20268784.796   106513169.9342       -773.557          46.000  
G25  18988908.889    99787386.440         280.048          46.000  
E 7  25990863.366   136582905.384        2616.640          44.000  
E 9  22354092.001   117471542.312       -1262.147          44.000  
G 9  21116884.173   110969963.892       -3999.791          46.000  
E19  22052719.498   115887799.523         239.335          44.000  
E11  27437685.960   144186020.659       -2608.207          44.000  
G12  19254834.695   101184841.064       -1905.927          46.000  
E10  27141348.299   142628756.073       -1068.663          44.000  
E27  24908449.917   130894797.8761       2040.938          43.000  
E21  26252231.366   137956381.349       -3376.873          44.000  
G27  22740992.952   119504712.533       -3539.478          46.000  
E20  22655415.276   119054998.591       -2182.683          44.000  
> 2019 11  1  2  5 31.9950000  0 18                     
G 4  22178078.488   116546600.860       -1008.055          46.000  
G29  21139579.559   111089227.0552       2863.722          46.000  
G 2  21986752.887   115541160.559        1127.167          46.000  
E 8  22654400.179   119049662.913        1323.956          44.000  
G14  20268930.872   106513937.9902       -763.102          46.000  
G25  18988854.916    99787103.882         284.813          46.000  
E 1  25319927.169                1      -3197.351          44.000  
E 7  25990365.651   136580289.837        2613.443          44.000  
E 9  22354333.285   117472808.327       -1269.315          44.000  
G 9  21117647.044   110973972.907       -4018.315          46.000  
E19  22052673.325   115887557.546         244.533          44.000  
E11  27438180.115   144188618.957       -2588.608          44.000  
G12  19255197.868   101186749.296       -1910.120          46.000  
E10  27141549.902   142629816.646       -1051.803          44.000  
E27  24908058.160   130892747.966        2059.013          44.000  
E21  26252876.117   137959768.872       -3398.229          44.000  
G27  22741668.380   119508262.358       -3560.194          46.000  
E20  22655831.586   119057187.576       -2195.082          44.000  
> 2019 11  1  2  5 32.9950000  0 18                     
G 4  22178270.196   116547608.658       -1006.432          45.000  
G29  21139035.758   111086368.9602       2851.770          45.000  
G 2  21986539.611   115540039.243        1116.654          45.000  
E 8  22654148.966   119048343.371        1314.796          42.000  
G14  20269075.430   106514697.2622       -756.075          45.000  
G25  18988800.209    99786816.752         289.353          45.000  
E 1  25320536.076   133060325.529       -3194.152          42.000  
E 7  25989869.000   136577680.741        2603.734          42.000  
E 9  22354575.110   117474079.244       -1271.782          42.000  
G 9  21118413.108   110977999.993       -4035.196          45.000  
E19  22052626.471   115887310.437         249.360          42.000  
E11  27438671.321   144191198.651       -2571.385          42.000  
G12  19255561.391   101188659.672       -1909.943          45.000  
E10  27141748.328   142630858.147       -1031.133          42.000  
E27  24907668.915   130890680.058        2076.235          43.000  
E21  26253524.724   137963176.856       -3417.197          42.000  
G27  22742347.647   119511832.276       -3579.017          45.000  
E20  22656250.269   119059388.618       -2206.673          42.000  
> 2019 11  1  2  5 33.9950000  0 18                     
G 4  22178461.154   116548611.514        -997.644          45.000  
G29  21138494.383   111083525.5922       2835.030          45.000  
G 2  21986327.573   115538925.553        1112.604          45.000  
E 8  22653899.899   119047034.751        1302.830          42.000  
G14  20269219.464   106515452.8812       -755.492          45.000  
G25  18988745.119    99786526.787         291.166          45.000  
E 1  25321139.121   133063514.702       -3182.935          42.000  
E 7  25989375.351   136575085.204        2587.262          42.000  
E 9  22354817.092   117475351.622       -1271.506          42.000  
G 9  21119182.488   110982043.132       -4049.595          45.000  
E19  22052578.431   115887060.005         251.791          42.000  
E11  27439159.962   144193764.597       -2560.829          42.000  
G12  19255924.775   101190568.980       -1907.404          45.000  
E10  27141942.584   142631879.810       -1011.970          42.000  
E27  24907272.080   130888597.332        2088.889          42.000  
E21  26254176.769   137966602.967       -3433.407          42.000  
G27  22743030.264   119515420.035       -3594.783          45.000  
E20  22656670.924   119061601.016       -2216.964          42.000  
> 2019 11  1  2  5 34.9950000  0 18                     
G 4  22178649.634   116549602.061        -982.376          45.000  
G29  21137956.602   111080699.3852       2817.494          45.000  
G 2  21986115.518   115537811.560        1116.901          45.000  
E 8  22653653.100   119045737.713        1291.380          42.000  
G14  20269363.725   106516210.0232       -759.589          45.000  
G25  18988689.767    99786235.554         291.398          45.000  
E 1  25321747.348   133066689.361       -3165.612          42.000  
E 7  25988884.564   136572507.561        2567.988          42.000  
E 9  22355058.638   117476621.144       -1266.546          42.000  
G 9  21119954.032   110986097.116       -4057.014          45.000  
E19  22052530.303   115886808.006         252.094          42.000  
E11  27439646.474   144196323.180       -2557.096          42.000  
G12  19256287.041   101192473.527       -1901.129          45.000  
E10  27142133.576   142632883.392        -995.834          42.000  
E27  24906875.192   130886504.714        2095.713          42.000  
E21  26254831.082   137970041.223       -3441.737          42.000  
G27  22743715.116   119519019.937       -3603.524          45.000  
E20  22657093.795   119063821.664       -2223.229          42.000  
> 2019 11  1  2  5 35.9950000  0 18                     
G 4  22178834.763   116550575.817        -964.398          45.000  
G29  21137422.485   111077890.9682       2800.141          45.000  
G 2  21985902.032   115536690.398        1126.862          45.000  
E 8  22653408.588   119044452.075        1280.385          42.000  
G14  20269509.138   106516974.6202       -769.861          45.000  
G25  18988634.520    99785945.803         288.216          45.000  
E 1  25322348.997   133069845.963       -3146.759          42.000  
E 7  25988398.296   136569950.238        2547.289          42.000  
E 9  22355299.556   117477884.960       -1260.055          42.000  
G 9  21120726.396   110990156.045       -4059.009          45.000  
E19  22052482.891   115886557.353         249.219          42.000  
E11  27440133.527   144198882.929       -2563.054          42.000  
G12  19256648.243   101194371.338       -1893.982          45.000  
E10  27142322.021   142633874.484        -987.098          42.000  
E27  24906476.629   130884409.556        2093.807          42.000  
E21  26255486.146   137973484.770       -3443.505          42.000  
G27  22744400.944   119522625.260       -3605.507          45.000  
E20  22657517.242   119066047.136       -2226.448          42.000  
> 2019 11  1  2  5 36.9950000  0 17                     
G 4  22179016.245   116551530.184        -944.330          45.000  
G29  21136890.900   111075096.8251       2788.097          45.000  
G 2  21985686.103   115535555.426        1143.890          45.000  
E 8  22653165.611   119043174.971        1274.375          42.000  
G14  20269656.697   106517750.1481       -782.343          45.000  
G25  18988579.988    99785659.167         284.926          45.000  
E 1  25322945.044   133072982.951       -3127.159          42.000  
E 7  25987915.291   136567411.555        2531.125          42.000  
E 9  22355538.344   117479140.229       -1249.977          42.000  
G 9  21121497.923   110994212.313       -4052.180          45.000  
E19  22052435.897   115886309.936         245.707          42.000  
E11  27440622.064   144201451.247       -2574.344          42.000  
G12  19257007.962   101196260.652       -1884.290          45.000  
E10  27142509.646   142634859.824        -984.584          42.000  
E27  24906077.979   130882318.739        2086.751          42.000  
G27  22745086.668   119526227.558       -3597.498          45.000  
E20  22657940.706   119068272.315       -2223.068          42.000  
> 2019 11  1  2  5 37.9950000  0 18                     
G 4  22179194.185   116552466.218        -928.680          45.000  
G29  21136361.093   111072313.129        2780.010          45.000  
G 2  21985466.597   115534402.826        1161.154          45.000  
E 8  22652923.594   119041902.782        1270.292          42.000  
G14  20269807.240   106518540.361        -798.617          45.000  
G25  18988526.450    99785377.390         278.240          45.000  
E 1  25323541.126   133076102.309       -3112.604          42.000  
E 7  25987434.555   136564887.406        2518.065          42.000  
E 9  22355775.109   117480386.043       -1241.878          42.000  
G 9  21122268.158   110998259.288       -4041.025          45.000  
E19  22052389.689   115886067.655         238.736          42.000  
E11  27441113.619   144204034.777       -2593.268          42.000  
G12  19257365.796   101198141.622       -1877.899          45.000  
E10  27142697.306   142635847.616        -992.476          42.000  
E27  24905681.842   130880238.980        2071.521          42.000  
E21  26256789.171   137980368.1411      -3422.178          42.000  
G27  22745770.141   119529819.435       -3585.233          45.000  
E20  22658363.228   119070492.748       -2217.669          42.000  
> 2019 11  1  2  5 38.9950000  0 18                     
G 4  22179370.066   116553389.801        -919.111          45.000  
G29  21135832.474   111069534.888        2778.087          45.000  
G 2  21985244.124   115533233.412        1177.675          45.000  
E 8  22652681.769   119040632.945        1270.302          42.000  
G14  20269960.592   106519347.167        -814.414          45.000  
G25  18988474.327    99785103.299         270.408          45.000  
E 1  25324131.729   133079210.759       -3104.910          42.000  
E 7  25986956.489   136562373.217        2512.006          42.000  
E 9  22356010.600   117481624.872       -1235.765          42.000  
G 9  21123035.845   111002293.704       -4026.706          45.000  
E19  22052344.737   115885833.476         230.119          42.000  
E11  27441609.449   144206639.634       -2616.161          42.000  
G12  19257722.601   101200017.540       -1873.974          45.000  
E10  27142887.792   142636847.560       -1008.131          42.000  
E27  24905290.015   130878177.080        2052.008          42.000  
E21  26257439.698   137983782.352       -3405.238          42.000  
G27  22746450.751   119533396.906       -3568.666          45.000  
E20  22658784.372   119072706.536       -2209.608          42.000  
> 2019 11  1  2  5 39.9950000  0 17                     
G 4  22179544.324   116554306.132        -914.711          45.000  
G29  21135303.104   111066754.018        2784.675          45.000  
G 2  21985018.527   115532048.021        1192.330          45.000  
E 8  22652438.932   119039359.871        1276.201          42.000  
G25  18988423.302    99784835.848         264.496          45.000  
E 1  25324721.581   133082313.942       -3102.962          42.000  
E 7  25986477.812   136559860.116        2515.540          42.000  
E 9  22356245.357   117482857.599       -1230.527          42.000  
G 9  21123800.497   111006311.529       -4009.083          45.000  
E19  22052301.723   115885606.385         224.087          42.000  
E11  27442109.625   144209265.777       -2636.239          42.000  
G12  19258078.917   101201889.840       -1871.283          45.000  
E10  27143081.141   142637864.787       -1027.041          42.000  
E27  24904901.363   130876134.288        2033.239          42.000  
E21  26258083.349   137987177.178       -3384.601          42.000  
G27  22747128.029   119536955.596       -3548.555          45.000  
E20  22659203.910   119074910.164       -2197.872          42.000  
> 2019 11  1  2  5 40.9950000  0 18                     
G 4  22179718.704   116555221.907        -918.110          45.000  
G29  21134771.902   111063963.125        2797.700          45.000  
G 2  21984790.715   115530850.247        1201.922          45.000  
E 8  22652195.274   119038078.724        1286.068          42.000  
G14  20270274.975   106521013.5553       -833.134          45.000  
G25  18988373.220    99784573.198         260.695          45.000  
E 1  25325312.585   133085418.604       -3108.143          42.000  
E 7  25985998.088   136557339.276        2527.227          42.000  
E 9  22356479.121   117484086.354       -1228.067          42.000  
G 9  21124561.762   111010311.631       -3991.980          45.000  
E19  22052259.929   115885384.523         219.597          42.000  
E11  27442612.436   144211910.129       -2652.157          42.000  
G12  19258435.128   101203760.805       -1871.552          45.000  
E10  27143278.677   142638901.954       -1047.720          42.000  
E27  24904516.272   130874109.070        2017.073          42.000  
E21  26258732.916   137990551.514       -3364.864          42.000  
G27  22747801.747   119540494.316       -3529.570          45.000  
E20  22659621.302   119077102.005       -2186.358          42.000  
> 2019 11  1  2  5 41.9950000  0 17                     
G 4  22179894.497   116556145.292        -929.237          44.000  
G29  21134238.257   111061157.769        2814.115          44.000  
G 2  21984561.716   115529647.107        1203.630          44.000  
E 8  22651949.593   119036787.379        1297.117          42.000  
G14  20270429.514   106521847.7232       -834.310          44.000  
E 1  25325905.177   133088532.598       -3120.594          42.000  
E 7  25985515.834   136554804.478        2543.658          42.000  
E 9  22356712.744   117485315.278       -1230.022          42.000  
G 9  21125319.800   111014297.044       -3979.238          44.000  
E19  22052218.625   115885166.590         216.914          42.000  
E11  27443118.736   144214568.089       -2662.411          42.000  
G12  19258791.514   101205634.271       -1875.391          45.000  
E10  27143480.140   142639959.992       -1067.685          42.000  
E27  24904133.501   130872098.453        2005.273          42.000  
E21  26259370.512   137993908.816       -3350.030          42.000  
G27  22748471.871   119544016.368       -3514.853          44.000  
E20  22660036.303   119079283.620       -2177.032          42.000  
> 2019 11  1  2  5 42.9950000  0 18                     
G 4  22180073.100   116557082.506        -945.910          44.000  
G29  21133700.947   111058334.988        2831.545          44.000  
G 2  21984333.083   115528445.594        1198.154          44.000  
E 8  22651701.485   119035484.427        1308.170          42.000  
G14  20270591.383   106522680.1642       -829.861          44.000  
G25  18988273.562    99784050.6693        258.018          45.000  
E 1  25326500.683   133091661.455       -3137.812          42.000  
E 7  25985029.374   136552250.766        2563.823          42.000  
E 9  22356947.083   117486547.681       -1235.229          42.000  
G 9  21126076.476   111018272.287       -3972.221          44.000  
E19  22052177.372   115884949.809         216.873          42.000  
E11  27443625.456   144217232.038       -2664.191          42.000  
G12  19259149.017   101207512.899       -1882.233          44.000  
E10  27143684.901   142641035.704       -1082.946          42.000  
E27  24903752.755   130870096.335        1999.926          42.000  
E21  26260005.543   137997254.404       -3342.224          42.000  
G27  22749139.900   119547526.876       -3507.207          44.000  
E20  22660450.030   119081457.354       -2171.077          42.000  
> 2019 11  1  2  5 43.9950000  0 18                     
G 4  22180255.088   116558038.929        -966.264          44.000  
G29  21133160.654   111055495.817        2847.031          44.000  
G 2  21984106.317   115527253.803        1185.248          44.000  
E 8  22651451.965   119034171.626        1317.321          42.000  
G14  20270747.702   106523506.3392       -821.211          44.000  
G25  18988223.218    99783792.2682        259.716          44.000  
E 1  25327099.958   133094809.640       -3157.990          42.000  
E 7  25984540.123   136549677.497        2583.110          42.000  
E 9  22357183.464   117487787.629       -1244.064          42.000  
G 9  21126832.420   111022244.771       -3972.938          44.000  
E19  22052135.614   115884732.570         218.692          42.000  
E11  27444131.896   144219894.751       -2659.153          42.000  
G12  19259507.933   101209399.805       -1890.997          44.000  
E10  27143891.895   142642124.440       -1092.494          42.000  
E27  24903371.991   130868096.479        2001.445          42.000  
E21  26260643.453   138000596.659       -3342.946          42.000  
G27  22749807.196   119551033.999       -3507.582          44.000  
E20  22660863.024   119083628.141       -2170.298          42.000  
> 2019 11  1  2  5 44.9950000  0 18                     
G 4  22180440.811   116559015.131        -985.737          44.000  
G29  21132617.551   111052642.062        2859.590          44.000  
G 2  21983882.309   115526076.461        1168.607          44.000  
E 8  22651200.559   119032850.452        1324.291          42.000  
G14  20270903.340   106524320.9122       -808.025          44.000  
G25  18988174.357    99783530.2522        264.456          44.000  
E 1  25327702.427   133097976.670       -3175.920          42.000  
E 7  25984046.787   136547085.194        2600.479          42.000  
E 9  22357421.275   117489036.159       -1253.252          42.000  
G 9  21127589.043   111026220.508       -3979.646          44.000  
E19  22052093.332   115884511.450         223.742          42.000  
E11  27444636.643   144222547.245       -2645.082          42.000  
G12  19259868.507   101211294.982       -1899.139          44.000  
E10  27144099.972   142643217.684       -1092.971          42.000  
E27  24902990.390   130866090.441        2011.162          42.000  
E21  26261279.042   138003942.645       -3350.494          42.000  
G27  22750475.470   119554544.618       -3514.827          44.000  
E20  22661276.542   119085799.500       -2173.269          42.000  
> 2019 11  1  2  5 45.9950000  0 18                     
G 4  22180630.286   116560010.409       -1003.531          44.000  
G29  21132072.947   111049779.639        2865.171          44.000  
G 2  21983661.895   115524917.846        1149.154          44.000  
E 8  22650948.491   119031525.546        1325.673          42.000  
G14  20271057.094   106525122.2322       -794.047          44.000  
G25  18988126.387    99783263.8592        269.159          44.000  
E 1  25328308.630   133101160.901       -3191.067          42.000  
E 7  25983550.974   136544479.174        2610.990          42.000  
E 9  22357660.954   117490294.784       -1263.266          42.000  
G 9  21128347.866   111030206.778       -3992.964          44.000  
E19  22052050.125   115884285.488         228.908          42.000  
E11  27445138.407   144225184.084       -2627.365          42.000  
G12  19260230.982   101213198.921       -1907.428          44.000  
E10  27144307.507   142644307.958       -1085.763          42.000  
E27  24902606.258   130864072.549        2025.784          42.000  
E21  26261918.418   138007300.592       -3365.873          42.000  
G27  22751145.506   119558066.823       -3529.699          44.000  
E20  22661691.002   119087976.672       -2181.132          42.000  
> 2019 11  1  2  5 46.9950000  0 16                     
G29  21131527.924   111046914.893        2863.929          44.000  
G 2  21983444.954   115523778.366        1130.715          44.000  
E 8  22650696.527   119030201.153        1322.991          42.000  
G14  20271206.782   106525909.9102       -781.075          44.000  
G25  18988074.542    99782992.0062        274.878          44.000  
E 7  25983053.765   136541865.962        2614.608          42.000  
E 9  22357902.116   117491562.491       -1271.292          42.000  
G 9  21129109.394   111034208.288       -4009.934          44.000  
E19  22052006.238   115884053.528         235.116          42.000  
E11  27445636.401   144227801.238       -2606.566          42.000  
G12  19260594.854   101215109.809       -1913.324          44.000  
E10  27144513.053   142645387.471       -1071.815          42.000  
E27  24902219.387   130862038.000        2044.129          42.000  
E21  26262560.412   138010675.875       -3385.002          42.000  
G27  22751818.927   119561605.915       -3548.714          44.000  
E20  22662106.841   119090163.036       -2191.579          42.000  
> 2019 11  1  2  5 47.9950000  0 13                     
E 1  25329522.764   133107550.2871      -3199.807          43.000  
G14  20271353.870   106526685.3082       -770.361          46.000  
G25  18988020.167    99782714.1152        280.779          46.000  
G 4  22181014.906   116562019.6123      -1017.908          46.000  
G29  21130985.763                3       2858.740          45.000  
G 9  21129874.080   111038226.881       -4027.020          46.000  
E19  22051961.025   115883814.946         241.606          43.000  
E11  27446130.417   144230397.411       -2586.196          43.000  
E10  27144715.127   142646449.600       -1052.153          43.000  
E27  24901828.520   130859984.194        2063.436          43.000  
E21  26263206.070   138014070.691       -3404.792          43.000  
G27  22752496.292   119565164.077       -3567.809          46.000  
E20  22662524.704   119092360.122       -2202.688          43.000  
> 2019 11  1  2  5 48.9950000  0 18                     
E 1  25330131.096   133110747.657       -3193.540          43.000  
E 9  22358381.212                1      -1278.240          43.000  
G12  19261322.860   101218934.2003      -1914.661          46.000  
E 8  22650191.553                1       1306.867          43.000  
G14  20271500.068   106527452.9882       -765.533          46.000  
G25  18987967.311    99782431.7782        284.007          46.000  
G 4  22181207.294   116563036.6812      -1014.561          46.000  
G29  21130439.571   111041209.0912       2842.771          46.000  
G 2  21983019.553   115521546.9173       1107.711          46.000  
G 9  21130642.116   111042262.945       -4044.079          46.000  
E19  22051914.729   115883571.390         245.449          43.000  
E11  27446621.082   144232975.816       -2571.292          43.000  
E 7  25982058.894                1       2599.408          43.000  
E10  27144913.274   142647491.784       -1032.024          43.000  
E27  24901434.127   130857912.725        2079.417          43.000  
E21  26263855.951   138017485.301       -3423.739          43.000  
G27  22753177.234   119568741.700       -3586.532          46.000  
E20  22662945.202   119094568.965       -2214.450          43.000  
> 2019 11  1  2  5 49.9950000  0 18                     
E 1  25330737.683   133113934.905       -3179.477          43.000  
E 9  22358628.813   117495373.491       -1275.523          43.000  
G12  19261686.627   101220847.2132      -1910.065          46.000  
E 8  22649945.505   119026269.072        1295.266          43.000  
G14  20271645.568   106528218.3502       -765.297          46.000  
G25  18987912.604    99782146.8232        286.282          46.000  
G 4  22181401.777   116564046.2982      -1002.982          46.000  
G29  21129900.499   111038374.6022       2826.422          46.000  
G 2  21982807.341   115520440.4962       1106.899          46.000  
G 9  21131412.875   111046313.603       -4055.752          46.000  
E19  22051868.102   115883324.824         248.033          43.000  
E11  27447109.915   144235541.958       -2561.539          43.000  
E 7  25981562.627   136534060.840        2581.604          43.000  
E10  27145107.617   142648514.141       -1012.741          43.000  
E27  24901037.100   130855827.496        2091.082          43.000  
E21  26264509.165   138020916.352       -3436.700          43.000  
G27  22753860.986   119572335.576       -3599.458          46.000  
E20  22663367.270   119096788.264       -2223.011          43.000  
> 2019 11  1  2  5 50.9950000  0 18                     
E 1  25331343.258   133117105.770       -3162.164          43.000  
E 9  22358867.863   117496646.636       -1270.439          43.000  
G12  19262048.719   101222754.2122      -1904.010          46.000  
E 8  22649697.659   119024979.753        1283.184          43.000  
G14  20271791.731   106528986.5172       -772.220          46.000  
G25  18987858.351    99781860.7952        285.140          46.000  
G 4  22181591.531   116565041.4282       -987.096          46.000  
G29  21129364.935   111035557.1372       2808.177          46.000  
G 2  21982597.729   115519331.0962       1112.387          46.000  
G 9  21132185.099   111050372.979       -4062.434          46.000  
E19  22051820.707   115883076.978         247.007          43.000  
E11  27447596.811   144238102.633       -2561.374          43.000  
E 7  25981073.305   136531489.180        2561.042          43.000  
E10  27145298.697   142649519.213        -999.028          43.000  
E27  24900638.956   130853733.828        2094.789          43.000  
E21  26265163.757   138024357.170       -3443.979          43.000  
G27  22754546.675   119575939.242       -3606.980          46.000  
E20  22663790.926   119099014.374       -2228.886          43.000  
> 2019 11  1  2  5 51.9950000  0 18                     
E 1  25331944.244   133120258.752       -3143.343          43.000  
E 9  22359114.191   117497914.068       -1263.402          43.000  
G12  19262411.876   101224654.7822      -1896.692          46.000  
E 8  22649458.469   119023702.097        1273.028          43.000  
G14  20271939.639   106529764.4412       -784.001          46.000  
G25  18987804.291    99781577.6982        281.269          46.000  
G 4  22181776.590   116566019.6662       -969.029          46.000  
G29  21128832.389   111032757.8132       2791.317          46.000  
G 2  21982384.626   115518213.3472       1123.978          46.000  
G 9  21132958.441   111054436.087       -4062.427          46.000  
E19  22051774.098   115882832.058         243.148          43.000  
E11  27448084.929   144240667.672       -2569.395          43.000  
E 7  25980594.576   136528938.638        2540.826          43.000  
E10  27145488.154   142650514.594        -992.701          43.000  
E27  24900240.986   130851640.592        2090.987          43.000  
E21  26265819.589   138027801.752       -3443.328          43.000  
G27  22755233.289   119579546.880       -3606.695          46.000  
E20  22664215.420   119101244.841       -2230.770          43.000  
> 2019 11  1  2  5 52.9950000  0 17                     
E 9  22359353.311   117499172.437       -1253.122          43.000  
G12  19262773.165   101226546.6432      -1886.963          46.000  
E 8  22649216.417   119022431.960        1267.979          43.000  
G14  20272090.287   106530554.7552       -796.850          46.000  
G25  18987751.259    99781298.1742        277.698          46.000  
G 4  22181959.032   116566978.4162       -948.982          46.000  
G29  21128302.443   111029971.9732       2781.183          46.000  
G 2  21982169.518   115517080.3262       1142.364          46.000  
G 9  21133730.578   111058494.449       -4053.297          46.000  
E19  22051728.029   115882590.920         239.148          43.000  
E11  27448575.140   144243243.398       -2582.767          43.000  
E 7  25980111.153   136526405.764        2525.982          43.000  
E10  27145676.878   142651506.524        -992.313          43.000  
E27  24899843.854   130849553.725        2082.060          43.000  
E21  26266474.216   138031240.580       -3432.927          43.000  
G27  22755918.960   119583149.176       -3596.584          46.000  
E20  22664639.688   119103473.621       -2225.814          43.000  
> 2019 11  1  2  5 53.9950000  0 14                     
E 1  25333128.241   133126497.2571      -3110.455          43.000  
E 8  22648977.314   119021165.351        1265.869          43.000  
G14  20272243.273   106531359.5612       -812.753          46.000  
G25  18987699.118    99781023.7312        271.148          46.000  
G29  21127773.597                3       2780.312          45.000  
G 9  21134500.761   111062541.724       -4040.552          46.000  
E19  22051683.095   115882355.204         232.338          43.000  
E11  27449068.440   144245835.748       -2602.499          43.000  
E 7  25979632.580   136523885.626        2515.577          43.000  
E10  27145866.475   142652503.226       -1002.207          43.000  
E27  24899449.392   130847479.455        2065.820          43.000  
E21  26267126.471   138034666.397       -3417.774          43.000  
G27  22756601.875   119586739.016       -3582.031          46.000  
E20  22665062.471   119105696.340       -2218.918          43.000  
> 2019 11  1  2  5 54.9950000  0 16                     
G12  19263486.006   101230301.6443      -1877.863          46.000  
G 2  21981725.968   115514748.7083       1175.532          46.000  
E 8  22648733.570                1       1266.034          43.000  
G14  20272399.609   106532180.8442       -828.542          46.000  
G25  18987648.460    99780757.1802        263.019          46.000  
G 4  22182316.221   116568857.7053       -927.065          46.000  
G29  21127246.566   111024429.5632       2775.068          46.000  
E 9  22359823.158   117501673.6221      -1239.191          43.000  
G 9  21135268.483   111066575.433       -4025.631          46.000  
E19  22051640.028   115882127.835         223.517          43.000  
E11  27449566.033   144248450.199       -2625.474          43.000  
E10  27146058.916   142653514.256       -1019.940          43.000  
E27  24899058.071   130845424.125        2045.429          43.000  
E21  26267774.973   138038076.094       -3400.145          43.000  
G27  22757281.927   119590313.348       -3565.226          46.000  
E20  22665483.772   119107911.669       -2210.349          43.000  
> 2019 11  1  2  5 55.9950000  0 17                     
E 1  25334308.748   133132700.955       -3105.148          43.000  
G12  19263845.655   101232178.0022      -1875.769          46.000  
G 2  21981504.141   115513565.8412       1189.134          46.000  
E 8  22648492.443                        1273.831          43.000  
G25  18987598.989    99780496.8412        257.991          46.000  
G 4  22182489.519   116569782.9822       -924.769          46.000  
G29  21126717.545   111021650.5642       2783.746          46.000  
E 9  22360060.795   117502910.511       -1234.958          43.000  
G 9  21136032.960   111070591.959       -4007.536          46.000  
E19  22051598.269   115881907.119         218.068          43.000  
E11  27450067.465   144251085.434       -2644.782          43.000  
E 7  25978670.934   136518846.7161       2517.228          43.000  
E10  27146254.602   142654543.712       -1039.558          43.000  
E27  24898670.466   130843387.819        2027.153          43.000  
E21  26268419.846   138041465.804       -3379.486          43.000  
G27  22757958.507   119593868.249       -3544.888          46.000  
E20  22665903.066   119110116.201       -2198.554          43.000  
> 2019 11  1  2  5 56.9950000  0 18                     
E 1  25334903.277   133135810.313       -3114.161          43.000  
G12  19264202.652   101234054.9052      -1878.180          46.000  
G 2  21981275.683   115512373.3122       1195.157          46.000  
E 8  22648249.571   119017362.643        1282.996          43.000  
G14  20272720.065   106533862.8293       -845.019          46.000  
G25  18987550.338    99780241.8252        253.050          46.000  
G 4  22182667.633   116570710.9522       -931.746          46.000  
G29  21126186.220   111018860.8602       2796.739          46.000  
E 9  22360295.152   117504145.399       -1235.128          43.000  
G 9  21136794.121   111074592.146       -3992.856          46.000  
E19  22051557.419   115881692.108         212.646          43.000  
E11  27450572.422   144253738.586       -2660.597          43.000  
E 7  25978193.374   136516324.122        2529.168          43.000  
E10  27146454.896   142655594.519       -1061.535          43.000  
E27  24898286.160   130841369.282        2010.641          43.000  
E21  26269061.246   138044836.486       -3362.165          43.000  
G27  22758631.597   119597404.618       -3528.048          46.000  
E20  22666320.789   119112309.981       -2188.881          43.000  
> 2019 11  1  2  5 57.9950000  0 18                     
E 1  25335499.219   133138931.140       -3128.219          43.000  
G12  19264561.149   101235935.4762      -1883.191          46.000  
G 2  21981048.585   115511177.7722       1194.505          46.000  
E 8  22648001.481   119016074.035        1294.265          43.000  
G14  20272878.426   106534708.2952       -844.760          46.000  
G25  18987502.297    99779990.0322        251.158          46.000  
G 4  22182847.912   116571648.8752       -944.833          46.000  
G29  21125653.622   111016055.8982       2813.616          46.000  
E 9  22360534.080   117505381.796       -1237.948          43.000  
G 9  21137552.734   111078579.041       -3981.860          46.000  
E19  22051516.899   115881480.526         211.010          43.000  
E11  27451079.630   144256403.572       -2668.197          43.000  
E 7  25977706.251   136513786.152        2547.367          43.000  
E10  27146659.098   142656665.889       -1080.430          43.000  
E27  24897904.541   130839364.062        2000.727          43.000  
E21  26269699.593   138048191.748       -3349.204          43.000  
G27  22759301.790   119600925.870       -3515.310          46.000  
E20  22666736.419   119114494.326       -2180.343          43.000  
> 2019 11  1  2  5 58.9950000  0 18                     
E 1  25336097.099   133142068.787       -3146.823          43.000  
G12  19264919.542   101237822.5952      -1890.710          45.000  
G 2  21980824.071   115509986.7022       1186.737          45.000  
E 8  22647758.504   119014774.554        1305.065          43.000  
G14  20273038.165   106535550.9682       -839.076          45.000  
G25  18987454.606    99779739.2582        251.386          45.000  
G 4  22183027.352   116572602.8522       -963.014          45.000  
G29  21125115.737   111013233.9182       2830.751          45.000  
E 9  22360767.861   117506623.356       -1244.776          43.000  
G 9  21138309.794   111082558.133       -3977.015          45.000  
E19  22051476.938   115881270.007         211.172          43.000  
E11  27451587.746   144259072.841       -2668.269          43.000  
E 7  25977227.330   136511229.158        2567.431          42.000  
E10  27146866.477   142657754.201       -1094.472          43.000  
E27  24897524.493   130837365.983        1997.463          42.000  
E21  26270336.770   138051537.963       -3343.857          43.000  
G27  22759970.133   119604438.173       -3509.953          45.000  
E20  22667150.896   119116672.485       -2175.876          43.000  
> 2019 11  1  2  5 59.9950000  0 18                     
E 1  25336698.677   133145225.493       -3166.005          43.000  
G12  19265280.116   101239717.6982      -1899.115          45.000  
G 2  21980596.852   115508806.4952       1173.147          45.000  
E 8  22647510.973   119013465.079        1313.857          43.000  
G14  20273198.323   106536385.1582       -828.155          45.000  
G25  18987406.530    99779486.6802        254.490          45.000  
G 4  22183214.104   116573576.0862       -982.898          45.000  
G29  21124573.751   111010395.3732       2846.180          45.000  
E 9  22361006.894   117507872.455       -1253.128          43.000  
G 9  21139066.767   111086535.747       -3979.047          45.000  
E19  22051436.140   115881057.507         214.607          43.000  
E11  27452094.709   144261737.673       -2659.652          43.000  
E 7  25976735.181   136508651.977        2587.145          43.000  
E10  27147075.478   142658852.710       -1100.717          43.000  
E27  24897143.782   130835367.244        2001.848          43.000  
E21  26270973.092   138054882.412       -3346.037          43.000  
G27  22760638.215   119607948.600       -3511.611          45.000  
E20  22667564.780   119118848.225       -2175.819          43.000  
> 2019 11  1  2  6  0.9950000  0 11                     
E 1  25337303.153   133148400.913       -3183.788          43.000  
G12  19265642.627   101241621.4162      -1907.757          45.000  
G 2  21980375.478   115507642.2942       1155.274          45.000  
G14  20273354.031   106537207.0522       -814.814          45.000  
G25  18987357.617    99779230.2712        258.890          45.000  
G 4  22183402.724   116574569.2162      -1002.361          45.000  
E 9  22361245.909   117509130.779       -1263.016          43.000  
E19  22051395.044   115880840.791         219.564          43.000  
E11  27452599.597   144264390.491       -2644.512          43.000  
E10  27147284.741   142659953.551       -1099.220          43.000  
E27  24896761.831   130833360.550        2012.795          43.000  
> 2019 11  1  2  6  1.9950000  0 18                     
E 1  25337911.049   133151591.407       -3195.900          45.000  
G12  19266005.975   101243532.7082      -1913.831          47.000  
G 2  21980157.542   115506496.4312       1137.112          47.000  
G29  21123488.260   111004680.0143       2861.740          47.000  
G14  20273507.820   106538014.5142       -799.606          47.000  
G25  18987307.815    99778968.2802        265.596          48.000  
G 4  22183595.078   116575579.5202      -1016.832          48.000  
E 8  22647004.026                1       1320.852          45.000  
E 9  22361487.996   117510398.254       -1271.236          45.000  
E20  22668393.020   119123219.1161      -2188.068          44.000  
E19  22051352.658   115880618.011         226.525          45.000  
E11  27453100.540   144267025.338       -2624.015          45.000  
G 9  21140584.657   111094521.2653      -4001.704          48.000  
E10  27147493.044   142661048.198       -1088.450          45.000  
G27  22761978.932   119615005.9713      -3536.530          47.000  
E 7  25975741.548                1       2612.222          44.000  
E27  24896377.176   130831339.559        2030.121          45.000  
E21  26272247.010   138061599.8131      -3371.865          45.000  
> 2019 11  1  2  6  2.9950000  0 18                     
E 1  25338519.206   133154790.732       -3201.840          44.000  
G12  19266371.103   101245449.1762      -1918.402          47.000  
G 2  21979943.027   115505368.1652       1119.972          47.000  
G29  21122944.145   111001819.2832       2858.786          47.000  
G14  20273659.131   106538807.5732       -786.831          47.000  
G25  18987256.738    99778699.6842        271.538          47.000  
G 4  22183789.595   116576601.3992      -1025.758          47.000  
E 8  22646756.164   119009500.412        1317.115          44.000  
E 9  22361730.449   117511673.175       -1278.322          44.000  
E20  22668811.529   119125411.997       -2198.340          44.000  
E19  22051309.119   115880388.025         233.135          44.000  
E11  27453597.906   144269638.840       -2602.809          44.000  
G 9  21141346.621   111098530.7772      -4018.123          47.000  
E10  27147698.695   142662128.950       -1072.163          44.000  
G27  22762653.244   119618551.8382      -3555.599          47.000  
E 7  25975244.357   136500839.505        2613.930          44.000  
E27  24895989.101   130829299.927        2049.423          44.000  
E21  26272890.819   138064980.811       -3391.031          44.000  
> 2019 11  1  2  6  3.9950000  0 18                     
E 1  25339128.795   133157992.388       -3200.339          44.000  
G12  19266736.197   101247368.7292      -1920.251          47.000  
G 2  21979731.443   115504255.1692       1106.768          47.000  
G29  21122399.576   110998964.8152       2849.080          47.000  
G14  20273808.260   106539589.7302       -778.309          47.000  
G25  18987204.701    99778425.6442        276.198          47.000  
G 4  22183984.811   116577628.6502      -1027.453          47.000  
E 8  22646503.711   119008187.034        1309.210          44.000  
E 9  22361974.386   117512953.825       -1282.495          44.000  
E20  22669227.804   119127616.329       -2210.500          44.000  
E19  22051264.360   115880152.045         238.479          44.000  
E11  27454091.485   144272232.205       -2584.382          44.000  
G 9  21142112.493   111102558.0162      -4036.152          47.000  
E10  27147900.891   142663191.455       -1052.577          44.000  
G27  22763331.220   119622117.4222      -3575.654          47.000  
E 7  25974747.043   136498228.341        2607.183          44.000  
E27  24895597.291   130827241.422        2067.494          44.000  
E21  26273540.892   138068381.971       -3411.213          44.000  
> 2019 11  1  2  6  4.9950000  0 18                     
E 1  25339737.249   133161190.000       -3193.229          44.000  
G12  19267101.622   101249289.3032      -1919.971          47.000  
G 2  21979521.779   115503153.1952       1098.826          47.000  
G29  21121860.085   110996123.7912       2832.917          47.000  
G14  20273956.256   106540366.7612       -776.200          47.000  
G25  18987151.583    99778148.7042        277.778          47.000  
G 4  22184180.131   116578654.7632      -1022.903          47.000  
E 8  22646260.071   119006884.198        1296.755          44.000  
E 9  22362218.532   117514238.104       -1284.794          44.000  
E20  22669653.606   119129833.315       -2222.875          44.000  
E19  22051218.797   115879912.692         240.552          44.000  
E11  27454582.081   144274810.207       -2572.112          44.000  
G 9  21142884.020   111106603.2372      -4053.199          47.000  
E10  27148099.544   142664234.768       -1033.694          44.000  
G27  22764015.739   119625702.9052      -3594.304          47.000  
E 7  25974258.315   136495628.685        2591.823          44.000  
E27  24895203.003   130825167.203        2080.757          44.000  
E21  26274191.697   138071803.346       -3430.521          44.000  
> 2019 11  1  2  6  5.9950000  0 18                     
E 1  25340343.382   133164375.648       -3177.780          44.000  
G12  19267466.436   101251206.5762      -1914.722          47.000  
G 2  21979312.795   115502054.2022       1099.971          47.000  
G29  21121322.252   110993299.1712       2815.684          47.000  
G14  20274103.937   106541143.2032       -777.991          47.000  
G25  18987098.883    99777869.7482        279.351          47.000  
G 4  22184373.637   116579671.3572      -1009.772          47.000  
E 8  22646012.540   119005592.793        1285.471          44.000  
E 9  22362462.800   117515521.218       -1281.123          44.000  
E20  22670078.031   119132060.070       -2230.430          44.000  
E19  22051172.641   115879671.031         242.078          44.000  
E11  27455070.617   144277378.013       -2565.062          44.000  
G 9  21143656.192   111110661.7722      -4063.273          47.000  
E10  27148294.481   142665258.895       -1015.617          44.000  
G27  22764699.666   119629303.2162      -3605.760          47.000  
E 7  25973763.898   136493045.389        2573.818          44.000  
E27  24894805.976   130823080.796        2090.419          44.000  
E21  26274847.267   138075239.658       -3441.758          44.000  
> 2019 11  1  2  6  6.9950000  0 12                     
E 1  25340946.322   133167545.024       -3160.366          44.000  
G12  19267830.256   101253118.4502      -1908.661          47.000  
G 2  21979102.851   115500951.3992       1106.986          47.000  
G29  21120789.304   110990493.0332       2797.045          47.000  
G25  18987045.293    99777596.2423        276.643          47.000  
G 4  22184564.123   116580673.3392       -993.417          47.000  
E 8  22645769.319   119004313.692        1273.277          44.000  
E 9  22362706.231   117516800.317       -1275.983          44.000  
E11  27455558.996   144279944.088       -2568.015          44.000  
E10  27148486.468   142666268.603       -1004.606          44.000  
E 7  25973278.276   136490482.437        2552.392          44.000  
E21  26275501.301   138078684.983       -3447.181          44.000  
> 2019 11  1  2  6  7.9950000  0 18                     
E 1  25341545.912   133170695.785       -3141.265          44.000  
G12  19268192.732   101255023.1052      -1900.561          47.000  
G 2  21978891.128   115499838.0382       1120.628          47.000  
G29  21120258.486   110987703.9472       2782.059          47.000  
G14  20274402.912   106542706.0303       -799.924          47.000  
G25  18986992.524    99777321.3802        272.892          47.000  
G 4  22184751.416   116581657.3752       -974.536          47.000  
E 8  22645529.413   119003045.229        1264.073          44.000  
E 9  22362948.457   117518072.607       -1268.216          44.000  
E20  22670927.280   119136537.4561      -2236.184          44.000  
G 9  21145203.991   111118796.1743      -4065.891          47.000  
E11  27456048.911   144282516.542       -2578.020          44.000  
G27  22766073.102   119636521.3271      -3608.522          47.000  
E10  27148676.954   142667270.367       -1000.096          44.000  
E19  22051079.073   115879212.6691        235.148          44.000  
E 7  25972792.357   136487939.946        2533.076          44.000  
E27  24894008.693   130818909.0831       2086.011          44.000  
E21  26276157.918   138082131.352       -3444.080          44.000  
> 2019 11  1  2  6  8.9950000  0 18                     
E 1  25342141.959   133173827.692       -3123.162          44.000  
G12  19268553.340   101256919.0852      -1891.443          47.000  
G 2  21978676.281   115498708.2872       1139.387          47.000  
G29  21119730.146   110984927.0332       2773.052          47.000  
G14  20274556.962   106543512.3742       -813.388          47.000  
G25  18986940.924    99777050.6362        268.636          47.000  
G 4  22184935.185   116582622.2462       -955.585          47.000  
E 8  22645288.338   119001783.234        1260.433          44.000  
E 9  22363188.607   117519335.559       -1257.766          44.000  
E20  22671348.040   119138771.016       -2230.322          44.000  
G 9  21145976.861   111122857.6452      -4055.619          47.000  
E11  27456540.815   144285101.723       -2593.332          44.000  
G27  22766756.872   119640124.557       -3596.889          47.000  
E10  27148867.022   142668271.179       -1002.790          44.000  
E19  22051035.814   115878979.506         230.748          44.000  
E 7  25972312.266   136485414.005        2519.708          44.000  
E27  24893611.945   130816828.260        2074.940          44.000  
E21  26276812.458   138085569.758       -3431.625          44.000  
> 2019 11  1  2  6  9.9950000  0 18                     
E 1  25342735.144   133176944.030       -3111.117          44.000  
G12  19268912.780   101258806.8552      -1885.040          47.000  
G 2  21978457.682   115497559.4902       1157.724          47.000  
G29  21119202.696   110982156.0092       2769.595          47.000  
G14  20274714.241   106544333.0772       -828.801          47.000  
G25  18986891.784    99776784.8752        262.195          47.000  
G 4  22185115.533   116583570.3832       -942.090          47.000  
E 8  22645048.450   119000523.156        1259.793          44.000  
E 9  22363427.134   117520588.734       -1249.360          44.000  
E20  22671775.902   119140997.019       -2221.787          44.000  
G 9  21146745.805   111126906.1072      -4041.232          47.000  
E11  27457035.791   144287704.475       -2613.417          44.000  
G27  22767442.194   119643713.219       -3580.414          47.000  
E10  27149058.765   142669278.735       -1014.147          44.000  
E19  22050992.189   115878751.729         224.100          44.000  
E 7  25971833.363   136482898.609        2511.714          44.000  
E27  24893217.989   130814761.152        2058.198          44.000  
E21  26277463.090   138088993.059       -3414.791          44.000  
> 2019 11  1  2  6 10.9950000  0 18                     
E 1  25343326.654   133180052.388       -3106.674          44.000  
G12  19269271.085   101260690.0502      -1881.812          47.000  
G 2  21978235.628   115496393.8742       1172.954          47.000  
G29  21118675.455   110979385.5572       2772.413          47.000  
G14  20274872.410   106545168.8142       -842.451          47.000  
G25  18986842.068    99776526.0482        255.399          47.000  
G 4  22185293.909   116584508.7752       -935.779          47.000  
E 8  22644808.196   118999261.959        1263.202          44.000  
E 9  22363663.951   117521835.115       -1243.771          44.000  
E20  22672198.215   119143213.934       -2211.646          44.000  
G 9  21147513.720   111130939.1282      -4024.554          47.000  
E11  27457535.391   144290328.755       -2635.052          44.000  
G27  22768121.531   119647284.391       -3561.558          47.000  
E10  27149253.684   142670301.561       -1032.262          44.000  
E19  22050954.095   115878531.365         216.678          44.000  
E 7  25971355.837   136480387.921        2511.079          44.000  
E27  24892830.803   130812712.779        2038.588          44.000  
E21  26278111.383   138092398.255       -3395.505          44.000  
> 2019 11  1  2  6 11.9950000  0 12                     
G29  21118147.080   110976608.5962       2782.035          45.000  
G14  20275033.370   106546016.3232       -851.945          45.000  
G25  18986792.981    99776273.3992        249.946          46.000  
E 8  22644567.662   118997995.162        1270.753          43.000  
E 9  22363899.965   117523077.091       -1240.817          43.000  
E20  22672617.840   119145419.994       -2200.641          43.000  
E11  27458038.498   144292973.434       -2653.738          43.000  
G27  22768796.837   119650836.213       -3542.232          46.000  
E10  27149452.058   142671344.151       -1053.287          43.000  
E19  22050911.220   115878317.583         211.061          43.000  
E 7  25970877.440   136477873.666        2518.641          43.000  
E27  24892444.438   130810683.473        2020.503          43.000  
> 2019 11  1  2  6 12.9950000  0 18                     
G 2  21977780.631   115494016.6513       1189.498          46.000  
G12  19269987.260   101264466.1393      -1884.076          46.000  
G29  21117616.279   110973818.8492       2797.408          46.000  
G14  20275195.780   106546870.2952       -855.489          46.000  
G25  18986746.319    99776024.9622        246.952          46.000  
G 4  22185651.080   116586382.8013       -944.489          46.000  
E 8  22644324.598   118996718.954        1281.530          43.000  
E 9  22364136.241   117524317.581       -1241.110          43.000  
E20  22673036.383   119147614.918       -2189.961          43.000  
E11  27458544.746   144295633.962       -2666.457          43.000  
G27  22769469.892   119654369.647       -3525.395          46.000  
G 9  21149043.441   111138972.6823      -3992.611          46.000  
E10  27149654.446   142672407.664       -1073.835          43.000  
E19  22050870.002   115878108.346         207.610          43.000  
E 7  25970396.913   136475347.894        2533.489          43.000  
E27  24892061.249   130808670.375        2006.377          43.000  
E 1  25344511.768   133186318.6771      -3119.076          43.000  
E21  26279395.632   138099166.0251      -3358.604          43.000  
> 2019 11  1  2  6 13.9950000  0 18                     
G 2  21977558.175   115492828.1272       1186.634          46.000  
G12  19270345.094   101266352.7802      -1889.581          46.000  
G29  21117082.232   110971012.8932       2814.861          46.000  
G14  20275359.567   106547725.2722       -853.349          46.000  
G25  18986700.512    99775778.9592        245.890          46.000  
G 4  22185830.677   116587334.5382       -959.424          46.000  
E 8  22644079.562   118995431.824        1292.888          43.000  
E 9  22364373.058   117525560.505       -1245.083          43.000  
E20  22673451.821   119149801.008       -2182.509          43.000  
E11  27459053.053   144298304.051       -2672.146          43.000  
G27  22770139.928   119657889.342       -3514.686          46.000  
G 9  21149798.669   111142960.2192      -3983.027          46.000  
E10  27149860.917   142673490.793       -1091.581          43.000  
E19  22050831.716   115877901.668         206.187          43.000  
E 7  25969912.774   136472805.218        2552.424          43.000  
E27  24891680.625   130806668.776        1998.021          43.000  
E 1  25345102.109   133189445.534       -3135.010          43.000  
E21  26280032.931   138102518.497       -3347.380          43.000  
> 2019 11  1  2  6 14.9950000  0 18                     
G 2  21977334.952   115491645.3462       1177.851          46.000  
G12  19270706.383   101268245.7822      -1896.643          46.000  
G29  21116544.836   110968189.0372       2832.721          46.000  
G14  20275520.458   106548574.9052       -845.138          46.000  
G25  18986653.362    99775532.4252        247.786          46.000  
G 4  22186014.952   116588302.8162       -977.448          46.000  
E 8  22643832.781   118994133.172        1304.139          43.000  
E 9  22364610.870   117526808.676       -1251.468          43.000  
E20  22673866.682   119151981.152       -2178.456          43.000  
E11  27459561.204   144300975.097       -2668.681          43.000  
G27  22770807.678   119661401.275       -3510.346          46.000  
G 9  21150555.799   111146940.9472      -3979.475          46.000  
E10  27150069.464   142674588.354       -1102.758          43.000  
E19  22050792.872   115877694.355         208.768          43.000  
E 7  25969425.023   136470242.107        2573.688          43.000  
E27  24891300.629   130804671.339        1997.931          43.000  
E 1  25345699.744   133192589.406       -3153.075          43.000  
E21  26280666.531   138105863.200       -3343.345          43.000  
> 2019 11  1  2  6 15.9950000  0 18                     
G 2  21977111.363   115490474.7012       1163.041          46.000  
G12  19271068.911   101270146.6352      -1904.889          46.000  
G29  21116004.472   110965348.9642       2846.967          46.000  
G14  20275680.337   106549414.2472       -832.741          46.000  
G25  18986605.705    99775283.0282        251.530          46.000  
G 4  22186203.990   116589290.3972       -997.131          46.000  
E 8  22643583.696   118992824.793        1312.283          43.000  
E 9  22364849.432   117528064.572       -1260.081          43.000  
E20  22674281.526   119154159.706       -2179.244          43.000  
E11  27460068.080   144303638.872       -2657.627          43.000  
G27  22771476.126   119664913.188       -3514.407          46.000  
G 9  21151315.058   111150921.7542      -3983.030          46.000  
E10  27150280.001   142675693.409       -1106.089          43.000  
E19  22050752.475   115877483.913         212.916          43.000  
E 7  25968933.381   136467658.748        2592.637          43.000  
E27  24890919.830   130802670.594        2004.891          43.000  
E 1  25346306.942   133195752.100       -3171.916          43.000  
E21  26281307.512   138109208.022       -3347.461          43.000  
> 2019 11  1  2  6 16.9950000  0 16                     
G 2  21976890.809   115489321.2822       1143.173          46.000  
G29  21115461.683   110962497.4832       2854.393          46.000  
G14  20275837.756   106550240.6882       -820.364          46.000  
G25  18986557.298    99775029.4952        255.115          46.000  
E 8  22643333.460   118991510.587        1314.818          43.000  
E 9  22365090.070   117529330.102       -1271.232          43.000  
E20  22674696.702   119156341.881       -2186.315          43.000  
E11  27460572.671   144306288.876       -2642.118          43.000  
G27  22772145.918   119668433.377       -3527.572          46.000  
G 9  21152073.496   111154910.1272      -3995.054          46.000  
E10  27150490.276   142676798.512       -1103.254          43.000  
E19  22050711.484   115877268.889         216.887          43.000  
E 7  25968438.667   136465059.085        2605.169          43.000  
E27  24890537.374   130800660.124        2016.311          43.000  
E 1  25346910.964   133198932.985       -3189.787          43.000  
E21  26281942.805   138112561.461       -3361.210          43.000  
> 2019 11  1  2  6 17.9950000  0 15                     
G14  20275992.487   106551054.7192       -807.170          46.000  
G25  18986508.647    99774772.3072        259.938          46.000  
G12  19271795.730   101273969.1323      -1922.186          46.000  
E 8  22643083.277   118990196.475        1313.228          43.000  
E 9  22365332.890   117530606.725       -1281.159          43.000  
E20  22675113.814   119158533.401       -2196.619          43.000  
E11  27461073.318   144308921.875       -2623.006          43.000  
G27  22772819.077   119671969.893       -3545.545          46.000  
G 4  22186589.989   116591316.4211      -1031.818          46.000  
G 9  21152835.896   111158913.4232      -4011.453          46.000  
E10  27150699.504   142677897.286       -1092.636          43.000  
E19  22050669.988   115877049.649         222.118          43.000  
E 7  25967942.278   136462450.665        2610.967          43.000  
E27  24890151.986   130798636.123        2032.544          43.000  
E21  26282586.439   138115931.644       -3379.469          43.000  
> 2019 11  1  2  6 18.9950000  0 16                     
G29  21114374.709   110956787.9401       2849.948          46.000  
G 2  21976463.104   115487092.9693       1106.249          46.000  
G14  20276144.880   106551856.1102       -796.085          46.000  
G25  18986458.547    99774509.7172        265.010          46.000  
E 8  22642833.808   118988885.552        1307.763          43.000  
E 9  22365577.420   117531891.320       -1287.740          43.000  
E20  22675532.829   119160735.665       -2208.281          43.000  
E11  27461570.649   144311534.473       -2602.767          43.000  
G27  22773495.500   119675525.384       -3565.797          46.000  
G 9  21153600.286   111162933.8102      -4029.537          46.000  
E10  27150905.400   142678981.521       -1075.316          43.000  
E19  22050627.147   115876824.417         227.919          43.000  
E 7  25967445.540   136459839.600        2609.717          43.000  
E27  24889763.422   130796594.044        2051.506          43.000  
E 1  25348122.340                1      -3205.938          43.000  
E21  26283232.114   138119321.256       -3400.034          43.000  
> 2019 11  1  2  6 19.9950000  0 18                     
G29  21113832.077   110953943.467        2838.132          46.000  
G 2  21976253.597   115485992.9982       1094.613          46.000  
G14  20276295.719   106552648.5792       -789.476          46.000  
G25  18986407.645    99774242.7902        268.795          46.000  
G12  19272530.734   101277832.1151      -1927.716          46.000  
E 8  22642585.492   118987582.362        1298.248          43.000  
E 9  22365823.346   117533181.528       -1291.783          43.000  
E20  22675954.025   119162950.395       -2220.872          43.000  
E11  27462064.298   144314128.421       -2585.795          43.000  
G27  22774176.338   119679101.418       -3585.750          46.000  
G 4  22186983.037   116593382.489       -1038.940          46.000  
G 9  21154369.003   111166972.7412      -4047.744          46.000  
E10  27151108.136   142680047.342       -1055.707          43.000  
E19  22050583.330   115876594.325         232.144          43.000  
E 7  25966949.849   136457234.312        2600.076          43.000  
E27  24889371.402   130794534.168        2068.292          43.000  
E 1  25348732.871   133208497.752       -3203.373          43.000  
E21  26283880.791   138122731.807       -3420.473          43.000  
> 2019 11  1  2  6 20.9950000  0 18                     
G29  21113294.226   110951112.579        2822.838          46.000  
G 2  21976046.044   115484900.8432       1090.739          46.000  
G14  20276445.617   106553436.2702       -787.089          46.000  
G25  18986356.097    99773972.2262        271.795          46.000  
G12  19272895.251   101279758.393       -1924.561          46.000  
E 8  22642339.479   118986289.151        1287.771          43.000  
E 9  22366068.870   117534473.003       -1290.719          43.000  
E20  22676377.891   119165176.200       -2230.640          43.000  
E11  27462554.858   144316707.385       -2573.425          43.000  
G27  22774860.072   119682695.242       -3601.222          46.000  
G 4  22187182.546   116594417.814       -1030.475          46.000  
G 9  21155140.250   111171027.6312      -4061.599          46.000  
E10  27151307.086   142681092.691       -1035.432          43.000  
E19  22050538.518   115876360.210         235.274          43.000  
E 7  25966456.584   136454641.206        2585.116          43.000  
E27  24888976.364   130792458.405        2082.357          43.000  
E 1  25349342.669   133211695.806       -3192.110          43.000  
E21  26284533.133   138126160.386       -3436.066          43.000  
> 2019 11  1  2  6 21.9950000  0 18                     
G29  21112761.053   110948298.799        2804.903          46.000  
G 2  21975838.788   115483809.4732       1093.638          46.000  
G14  20276595.723   106554225.1522       -791.279          46.000  
G25  18986304.375    99773700.3122        271.810          46.000  
G12  19273261.566   101281680.510       -1919.098          46.000  
E 8  22642095.716   118985007.651        1275.658          43.000  
E 9  22366314.220   117535762.235       -1286.728          43.000  
E20  22676803.240   119167411.007       -2237.971          43.000  
E11  27463043.883   144319278.357       -2569.474          43.000  
G27  22775546.477   119686302.267       -3611.296          46.000  
G 4  22187376.487   116595441.720       -1016.345          46.000  
G 9  21155914.289   111175094.4072      -4070.750          46.000  
E10  27151502.703   142682119.790       -1019.325          43.000  
E19  22050493.409   115876124.528         235.816          43.000  
E 7  25965966.582   136452065.755        2565.699          43.000  
E27  24888579.494   130790372.239        2089.439          43.000  
E 1  25349953.357   133214880.230       -3175.948          43.000  
E21  26285188.039   138129602.241       -3446.130          43.000  
> 2019 11  1  2  6 22.9950000  0 18                     
G29  21112227.547   110945502.543        2788.000          46.000  
G 2  21975630.467   115482711.3732       1103.667          46.000  
G14  20276747.261   106555020.6502       -800.413          46.000  
G25  18986252.774    99773429.1602        269.935          46.000  
G12  19273627.061   101283595.761       -1911.285          46.000  
E 8  22641854.362   118983737.296        1265.409          43.000  
E 9  22366558.296   117537045.697       -1279.559          43.000  
E20  22677229.496   119169650.898       -2240.747          43.000  
E11  27463533.345   144321849.197       -2573.242          43.000  
G27  22776233.823   119689915.419       -3613.636          46.000  
G 4  22187569.679   116596448.920        -997.919          46.000  
G 9  21156689.149   111179166.7082      -4072.743          46.000  
E10  27151695.388   142683133.376       -1009.085          43.000  
E19  22050448.701   115875889.637         233.761          43.000  
E 7  25965480.209   136449510.194        2545.679          43.000  
E27  24888182.083   130788282.288        2089.491          43.000  
E 1  25350556.611   133218046.580       -3156.437          43.000  
E21  26285844.429   138133050.072       -3447.984          43.000  
> 2019 11  1  2  6 23.9950000  0 18                     
G29  21111698.474   110942721.585        2774.750          45.000  
G 2  21975419.983   115481600.1822       1119.493          45.000  
G14  20276900.683   106555827.3362       -813.507          45.000  
G25  18986202.012    99773160.8892        266.205          45.000  
G12  19273988.978   101285502.632       -1902.606          45.000  
E 8  22641614.090   118982475.910        1258.011          43.000  
E 9  22366801.116   117538320.862       -1270.379          42.000  
E20  22677655.735   119171891.273       -2239.130          43.000  
E11  27464024.045   144324427.878       -2584.857          42.000  
G27  22776921.205   119693526.716       -3607.614          45.000  
G 4  22187756.571   116597436.930        -978.448          45.000  
G 9  21157463.572   111183237.3892      -4067.383          45.000  
E10  27151886.817   142684140.418       -1006.257          43.000  
E19  22050405.041   115875657.826         229.712          42.000  
E 7  25964997.641   136446973.698        2528.147          42.000  
E27  24887785.230   130786195.890        2082.286          42.000  
E 1  25351154.211   133221193.354       -3137.141          43.000  
E21  26286500.069   138136495.727       -3441.917          42.000  
> 2019 11  1  2  6 24.9950000  0 18                     
G29  21111171.268   110939951.843        2766.163          45.000  
G 2  21975203.844   115480472.2772       1137.010          45.000  
G14  20277057.229   106556648.5952       -828.838          45.000  
G25  18986151.825    99772897.7512        260.261          45.000  
G12  19274351.350   101287401.513       -1895.166          45.000  
E 8  22641375.337   118981220.474        1253.845          43.000  
E 9  22367042.121   117539587.133       -1261.658          43.000  
E20  22678081.678   119174127.993       -2233.409          43.000  
E11  27464518.008   144327021.724       -2603.262          42.000  
G27  22777606.597   119697129.045       -3595.586          45.000  
G 4  22187940.985   116598406.925        -962.073          45.000  
G 9  21158236.652   111187300.1792      -4056.842          45.000  
E10  27152078.735   142685149.555       -1012.727          43.000  
E19  22050361.590   115875431.527         223.164          43.000  
E 7  25964517.900   136444452.987        2514.605          43.000  
E27  24887390.611   130784120.360        2068.031          42.000  
E 1  25351749.071   133224322.676       -3121.792          43.000  
E21  26287153.998   138139931.891       -3429.260          43.000  
> 2019 11  1  2  6 25.9950000  0 18                     
G29  21110645.091   110937186.917        2764.522          45.000  
G 2  21974985.664   115479326.0732       1154.720          45.000  
G14  20277216.201   106557485.0862       -844.136          45.000  
G25  18986103.034    99772640.6372        253.680          45.000  
G12  19274710.929   101289293.505       -1889.606          45.000  
E 8  22641136.687   118979966.483        1254.406          43.000  
E 9  22367281.154   117540844.754       -1254.076          43.000  
E20  22678505.596   119176356.971       -2224.430          43.000  
E11  27465015.130   144329635.028       -2624.310          43.000  
G27  22778289.005   119700716.107       -3578.332          45.000  
G 4  22188124.264   116599362.417        -950.610          45.000  
G 9  21159006.991   111191349.4102      -4041.614          45.000  
E10  27152272.380   142686168.555       -1026.539          43.000  
E19  22050319.849   115875211.691         216.074          43.000  
E 7  25964040.322   136441941.675        2508.633          43.000  
E27  24886998.574   130782060.675        2050.054          43.000  
E 1  25352343.164   133227438.834       -3111.862          43.000  
E21  26287804.769   138143352.212       -3411.198          43.000  
> 2019 11  1  2  6 26.9950000  0 18                     
G29  21110118.671   110934420.445        2769.874          45.000  
G 2  21974764.500   115478163.7572       1169.782          45.000  
G14  20277378.243   106558335.8362       -856.482          45.000  
G25  18986055.500    99772390.3022        247.552          45.000  
G12  19275070.438   101291181.612       -1886.633          45.000  
E 8  22640897.532   118978710.010        1259.495          42.000  
E 9  22367519.734   117542096.177       -1248.924          42.000  
E20  22678928.275   119178576.142       -2213.214          42.000  
E11  27465516.597   144332269.869       -2644.865          42.000  
G27  22778968.115   119704284.798       -3558.480          45.000  
G 4  22188304.176   116600310.082        -945.673          45.000  
G 9  21159774.365   111195382.4272      -4024.094          45.000  
E10  27152469.864   142687204.419       -1045.399          42.000  
E19  22050279.225   115874999.092         209.717          42.000  
E 7  25963562.588   136439432.670        2510.816          42.000  
E27  24886610.272   130780020.099        2031.358          42.000  
E 1  25352935.407   133230549.014       -3109.213          42.000  
E21  26288451.684   138146753.590       -3390.996          42.000  
> 2019 11  1  2  6 27.9950000  0 18                     
G29  21109590.435   110931644.500        2782.365          41.000  
G 2  21974540.736   115476988.2462       1179.985          41.000  
G14  20277541.874   106559195.9222       -863.446          41.000  
G25  18986008.785    99772144.6302        244.115          41.000  
G12  19275429.284   101293067.618       -1886.096          40.000  
E 8  22640656.684   118977445.718        1269.090          39.000  
E 9  22367757.057   117543342.988       -1245.748          39.000  
E20  22679347.918   119180783.166       -2201.233          39.000  
E11  27466021.536   144334923.085       -2661.209          39.000  
G27  22779643.160   119707833.095       -3538.799          41.000  
G 4  22188483.983   116601256.086        -948.053          41.000  
G 9  21160538.632   111199397.2672      -4006.572          41.000  
E10  27152670.507   142688259.716       -1065.639          39.000  
E19  22050239.648   115874791.542         205.570          38.000  
E 7  25963083.317   136436916.657        2522.052          39.000  
E27  24886225.250   130777997.063        2015.166          39.000  
E 1  25353527.318   133233659.476       -3113.196          39.000  
E21  26289095.091   138150134.040       -3370.681          39.000  
> 2019 11  1  2  6 28.9950000  0 18                     
G29  21109059.704   110928854.900        2797.623          41.000  
G 2  21974315.977   115475806.8022       1182.459          41.000  
G14  20277706.465   106560061.2442       -865.359          41.000  
G25  18985962.595    99771903.1072        240.109          41.000  
G12  19275788.550   101294955.955       -1890.216          41.000  
E 8  22640414.545   118976171.773        1279.677          38.000  
E 9  22367994.310   117544589.854       -1247.833          38.000  
E20  22679765.693   119182979.862       -2191.743          38.000  
E11  27466529.093   144337590.849       -2672.551          38.000  
G27  22780315.255   119711364.421       -3524.209          41.000  
G 4  22188665.326   116602209.123        -958.575          41.000  
G 9  21161299.880   111203397.0982      -3993.166          41.000  
E10  27152875.494   142689336.260       -1086.339          38.000  
E19  22050200.996   115874588.333         202.223          38.000  
E 7  25962601.901   136434387.719        2537.161          38.000  
E27  24885843.178   130775989.443        2001.988          38.000  
E 1  25354120.800   133236778.679       -3125.596          38.000  
E21  26289735.130   138153497.136       -3355.609          38.000  
> 2019 11  1  2  6 29.9950000  0 17                     
G29  21108525.710   110926048.317        2815.353          40.000  
G 2  21974091.376   115474626.4222       1177.369          40.000  
G14  20277870.950   106560925.6482       -862.188          40.000  
G12  19276148.617   101296849.331       -1897.107          40.000  
E 8  22640169.858   118974886.573        1291.006          38.000  
E 9  22368232.244   117545840.055       -1253.203          38.000  
E20  22680181.916   119185168.398       -2185.322          38.000  
E11  27467037.837   144340265.710       -2675.601          38.000  
G27  22780985.326   119714883.510       -3515.124          40.000  
G 4  22188849.321   116603175.585        -975.269          40.000  
G 9  21162059.034   111207386.2012      -3985.773          40.000  
E10  27153083.658   142690431.147       -1102.468          38.000  
E19  22050162.466   115874386.753         201.499          38.000  
E 7  25962117.326   136431840.512        2557.004          38.000  
E27  24885462.693   130773991.302        1995.731          38.000  
E 1  25354717.057   133239912.328       -3142.438          38.000  
E21  26290372.447   138156847.844       -3346.995          38.000  
> 2019 11  1  2  6 30.9950000  0 16                     
G29  21107988.575   110923225.055        2831.125          40.000  
G 2  21973868.728   115473454.8102       1164.823          40.000  
G25  18985869.149                3        240.963          40.000  
G12  19276510.256   101298750.609       -1905.792          40.000  
E 8  22639923.496   118973591.235        1299.527          38.000  
E 9  22368471.224   117547097.335       -1261.179          38.000  
E20  22680597.859   119187353.166       -2184.162          38.000  
E11  27467546.807   144342940.087       -2671.500          38.000  
G27  22781654.158   119718398.022       -3514.931          40.000  
G 4  22189036.945   116604160.702        -995.337          40.000  
G 9  21162817.561   111211371.3982      -3985.330          40.000  
E10  27153295.032   142691539.602       -1112.643          38.000  
E19  22050123.918   115874184.761         202.890          38.000  
E 7  25961628.877   136429273.603        2576.770          38.000  
E 1  25355316.559   133243064.859       -3162.121          38.000  
E21  26291009.415   138160193.991       -3346.771          38.000  
> 2019 11  1  2  6 31.9950000  0 14                     
G29  21107448.421   110920387.151        2843.535          40.000  
G14  20278194.757   106562632.0863       -840.879          40.000  
G25  18985824.616    99771171.8912        245.083          40.000  
G12  19276873.726   101300660.559       -1914.246          40.000  
E 8  22639674.987   118972287.553        1306.668          37.000  
E 9  22368712.212   117548363.483       -1271.029          37.000  
E20  22681013.733   119189538.260       -2186.792          37.000  
E11  27468053.823   144345605.469       -2658.776          37.000  
G 4  22189228.409   116605165.931       -1015.253          40.000  
E27  24884698.758                1       2004.532          36.000  
E10  27153506.581   142692653.844       -1114.554          37.000  
E19  22050084.585   115873979.503         207.443          37.000  
E 7  25961136.676   136426687.661        2594.623          37.000  
E 1  25355920.040   133246236.758       -3181.236          37.000  
> 2019 11  1  2  6 32.9950000  0 18                     
G29  21106906.801   110917539.944        2850.170          40.000  
G 9  21164339.778   111219356.0463      -4004.316          40.000  
G14  20278354.095   106563466.6082       -827.615          40.000  
G25  18985776.453    99770924.8142        249.638          40.000  
G12  19277238.680   101302579.609       -1922.961          40.000  
E 8  22639425.868   118970979.736        1308.599          37.000  
E 9  22368954.630   117549639.842       -1281.197          37.000  
E20  22681430.322   119191728.720       -2194.136          37.000  
E11  27468557.960   144348255.847       -2640.619          37.000  
G27  22782993.706   119725439.5121      -3535.790          40.000  
G 4  22189423.206   116606190.625       -1033.038          40.000  
E27  24884312.183   130767973.091        2018.690          37.000  
G 2  21973435.090   115471180.6373       1129.398          40.000  
E10  27153717.991   142693766.163       -1108.503          37.000  
E19  22050045.043   115873769.704         212.849          37.000  
E 7  25960641.892   136424087.417        2605.795          37.000  
E 1  25356526.854   133249426.378       -3196.708          37.000  
E21  26292281.623   138166882.5091      -3368.270          37.000  
> 2019 11  1  2  6 33.9950000  0 18                     
G29  21106364.396   110914689.294        2849.991          40.000  
G 9  21165102.352   111223368.2982      -4020.748          40.000  
G14  20278508.738   106564287.0652       -813.614          40.000  
G25  18985728.727    99770672.1802        255.553          40.000  
G12  19277605.309   101304505.699       -1928.851          40.000  
E 8  22639176.906   118969671.581        1306.708          37.000  
E 9  22369199.300   117550925.190       -1289.019          37.000  
E20  22681848.935   119193927.765       -2204.371          37.000  
E11  27469058.467   144350886.591       -2620.485          37.000  
G27  22783669.396   119728983.663       -3553.532          40.000  
G 4  22189621.057   116607230.139       -1045.465          40.000  
E27  24883928.121   130765945.587        2036.751          37.000  
G 2  21973220.016   115470060.7452       1110.909          40.000  
E10  27153927.812   142694868.185       -1094.764          37.000  
E19  22050004.070   115873553.765         218.913          37.000  
E 7  25960144.997   136421478.742        2610.404          37.000  
E 1  25357136.564   133252628.382       -3206.163          37.000  
E21  26292925.885   138170259.322       -3386.629          37.000  
> 2019 11  1  2  6 34.9950000  0 18                     
G29  21105822.479   110911842.625        2842.604          40.000  
G 9  21165868.801   111227398.3972      -4038.701          40.000  
G14  20278664.708   106565095.8592       -803.765          40.000  
G25  18985679.884    99770414.4472        260.449          40.000  
G12  19277972.828   101306436.768       -1932.373          40.000  
E 8  22638929.095   118968368.049        1300.301          37.000  
E 9  22369445.173   117552218.012       -1295.285          37.000  
E20  22682269.555   119196138.339       -2216.432          37.000  
E11  27469555.345   144353497.130       -2600.819          37.000  
G27  22784347.599   119732547.686       -3573.949          40.000  
G 4  22189820.635   116608278.541       -1049.811          40.000  
E27  24883544.112   130763899.858        2055.152          37.000  
G 2  21973008.171   115468958.2532       1095.251          40.000  
E10  27154134.650   142695954.320       -1076.479          37.000  
E19  22049962.172   115873332.170         224.414          37.000  
E 7  25959648.608   136418869.908        2606.680          37.000  
E 1  25357747.200   133255836.411       -3208.215          37.000  
E21  26293574.754   138173656.394       -3407.381          37.000  
> 2019 11  1  2  6 35.9950000  0 18                     
G29  21105282.727   110909005.761        2830.595          40.000  
G 9  21166638.652   111231446.0252      -4055.854          40.000  
G14  20278816.107   106565896.2202       -797.592          40.000  
G25  18985630.168    99770151.9212        264.351          40.000  
G12  19278340.626   101308369.021       -1931.549          40.000  
E 8  22638682.942   118967072.451        1290.542          37.000  
E 9  22369691.710   117553514.592       -1297.227          37.000  
E20  22682692.863   119198360.556       -2227.764          37.000  
E11  27470048.505   144356089.221       -2584.361          37.000  
G27  22785029.134   119736131.149       -3592.507          40.000  
G 4  22190020.283   116609327.702       -1046.832          40.000  
E27  24883150.993   130761835.990        2072.425          37.000  
G 2  21972801.473   115467867.9332       1086.240          40.000  
E10  27154337.683   142697020.473       -1055.611          37.000  
E19  22049918.930   115873105.261         229.355          37.000  
E 7  25959154.069   136416268.259        2595.915          37.000  
E 1  25358356.876   133259042.223       -3201.916          37.000  
E21  26294227.985   138177073.281       -3425.794          37.000  
> 2019 11  1  2  6 36.9950000  0 18                     
G29  21104745.714   110906183.745        2813.581          40.000  
G 9  21167409.760   111235508.6442      -4068.535          40.000  
G14  20278967.679   106566693.5222       -797.626          40.000  
G25  18985579.109    99769886.3072        266.855          40.000  
G12  19278707.954   101310299.148       -1928.149          40.000  
E 8  22638438.413   118965787.421        1279.400          37.000  
E 9  22369938.543   117554811.347       -1295.701          37.000  
E20  22683117.409   119200593.453       -2237.716          37.000  
E11  27470539.223   144358668.157       -2574.792          37.000  
G27  22785714.352   119739731.344       -3607.455          40.000  
G 4  22190218.657   116610370.040       -1036.639          40.000  
E27  24882756.164   130759757.606        2083.924          37.000  
G 2  21972595.752   115466783.4092       1083.792          40.000  
E10  27154537.034   142698066.447       -1036.701          37.000  
E19  22049875.026   115872875.020         231.345          37.000  
E 7  25958661.676   136413680.614        2578.800          37.000  
E 1  25358965.295   133262238.596       -3189.637          37.000  
E21  26294877.430   138180507.106       -3440.820          37.000  
> 2019 11  1  2  6 37.9950000  0 13                     
G29  21104211.999   110903379.400        2795.551          40.000  
G 9  21168184.986   111239581.6292      -4075.586          40.000  
G12  19279074.391   101312224.411       -1921.875          40.000  
E 8  22638195.907   118964514.303        1267.432          37.000  
E 9  22370184.923   117556104.889       -1290.439          37.000  
E20  22683543.858   119202834.501       -2243.727          37.000  
E11  27471028.946   144361241.512       -2573.146          37.000  
G27  22786401.350   119743343.009       -3615.023          40.000  
G 4  22190414.675   116611399.309       -1020.630          40.000  
G 2  21972387.920   115465697.5412       1089.717          40.000  
E10  27154732.616   142699095.481       -1021.809          37.000  
E 7  25958172.652   136411111.734        2559.016          37.000  
E 1  25359570.730   133265419.940       -3172.216          37.000  
> 2019 11  1  2  6 38.9950000  0 18                     
G29  21103681.687   110900591.478        2780.543          40.000  
G 9  21168961.433   111243657.4582      -4074.921          40.000  
G25  18985483.970    99769390.6553        264.649          39.000  
G14  20279278.869                3       -813.140          40.000  
G12  19279439.135   101314141.503       -1912.372          40.000  
E 8  22637955.565   118963251.124        1259.078          37.000  
E 9  22370429.924   117557391.110       -1281.456          37.000  
E20  22683970.986   119205078.667       -2243.749          37.000  
E11  27471519.053   144363816.434       -2578.020          37.000  
G27  22787090.284   119746957.860       -3613.689          40.000  
G 4  22190607.133   116612410.158       -1000.732          40.000  
E27  24881958.916                1       2087.524          37.000  
E19  22049781.964                1        229.843          37.000  
G 2  21972179.006   115464602.2382       1102.165          40.000  
E10  27154926.383   142700112.180       -1012.636          37.000  
E21  26296186.336                1      -3446.440          37.000  
E 7  25957687.640   136408562.141        2540.451          37.000  
E 1  25360172.414   133268581.747       -3151.358          37.000  
> 2019 11  1  2  6 39.9950000  0 18                     
G29  21103153.975   110897817.514        2767.973          40.000  
G 9  21169736.188   111247729.4032      -4068.563          40.000  
G25  18985426.245    99769128.3652        259.373          40.000  
G14  20279432.082   106569149.5172       -827.591          40.000  
G12  19279802.082   101316049.833       -1904.779          40.000  
E 8  22637716.462   118961995.800        1251.704          37.000  
E 9  22370672.971   117558668.312       -1273.124          37.000  
E20  22684397.575   119207321.768       -2241.998          37.000  
E11  27472010.992   144366401.194       -2592.561          37.000  
G27  22787776.968   119750568.348       -3606.699          40.000  
G 4  22190795.666   116613401.466        -982.745          40.000  
E27  24881564.995   130753502.932        2078.087          37.000  
E19  22049741.654   115872169.375         223.276          37.000  
G 2  21971968.120   115463492.1592       1117.929          40.000  
E10  27155119.156   142701124.500       -1013.868          37.000  
E21  26296843.790   138190857.176       -3439.199          37.000  
E 7  25957206.014   136406030.600        2522.802          37.000  
E 1  25360770.468   133271723.916       -3133.654          37.000  
> 2019 11  1  2  6 40.9950000  0 18                     
G29  21102628.043   110895054.174        2760.784          39.000  
G 9  21170509.110   111251792.7252      -4056.470          39.000  
G25  18985380.176    99768872.6342        252.796          39.000  
G14  20279585.853   106569985.5102       -843.982          39.000  
G12  19280163.860   101317951.409       -1897.845          39.000  
E 8  22637478.476   118960746.267        1248.645          36.000  
E 9  22370914.325   117559937.649       -1265.037          36.000  
E20  22684823.691   119209561.045       -2235.540          36.000  
E11  27472506.229   144369003.776       -2612.255          36.000  
G27  22788461.889   119754168.961       -3592.977          39.000  
G 4  22190980.882   116614376.625        -967.621          39.000  
E27  24881171.371   130751432.876        2062.013          36.000  
E19  22049696.458   115871949.753         216.278          36.000  
G 2  21971753.779   115462365.6942       1135.983          39.000  
E10  27155312.574   142702142.391       -1022.695          36.000  
E21  26297495.975   138194290.310       -3425.297          36.000  
E 7  25956727.163   136403514.312        2511.280          37.000  
E 1  25361364.927   133274850.748       -3119.887          36.000  
> 2019 11  1  2  6 41.9950000  0 18                     
G29  21102102.669   110892293.499        2761.520          39.000  
G 9  21171279.433   111255841.1902      -4040.257          39.000  
G25  18985332.991    99768622.9172        246.623          39.000  
G14  20279751.176   106570836.3412       -857.778          39.000  
G12  19280524.678   101319846.539       -1892.566          39.000  
E 8  22637240.822   118959496.715        1250.876          36.000  
E 9  22371154.248   117561198.598       -1257.258          36.000  
E20  22685248.377   119211791.482       -2225.116          36.000  
E11  27473005.410   144371626.501       -2633.398          36.000  
G27  22789143.808   119757752.812       -3574.156          39.000  
G 4  22191164.127   116615338.765        -957.910          39.000  
E27  24880781.829   130749379.570        2044.111          36.000  
E19  22049661.278   115871736.605         209.657          36.000  
G 2  21971536.262   115461221.0262       1153.082          39.000  
E10  27155508.226   142703172.112       -1037.640          36.000  
E21  26298150.777   138197706.072       -3405.651          36.000  
E 7  25956249.498   136401005.148        2508.196          36.000  
E 1  25361957.815   133277966.022       -3111.637          36.000  
> 2019 11  1  2  6 42.9950000  0 18                     
G29  21101576.545   110889529.067        2768.819          39.000  
G 9  21172046.771   111259872.6992      -4022.484          39.000  
G25  18985287.184    99768379.5982        240.644          39.000  
G14  20279913.847   106571700.3832       -868.778          39.000  
G12  19280884.816   101321738.402       -1891.003          39.000  
E 8  22637002.382   118958243.248        1256.807          37.000  
E 9  22371393.089   117562453.920       -1253.293          36.000  
E20  22685670.516   119214011.431       -2214.365          36.000  
E11  27473508.727   144374270.328       -2653.261          36.000  
G27  22789822.151   119761317.574       -3554.707          39.000  
G 4  22191346.080   116616294.993        -955.560          39.000  
E27  24880391.206   130747345.436        2024.669          37.000  
E19  22049622.940   115871530.302         203.354          36.000  
G 2  21971315.727   115460061.0142       1166.509          39.000  
E10  27155707.822   142704219.966       -1057.929          36.000  
E21  26298794.620   138201102.169       -3385.763          37.000  
E 7  25955771.868   136398495.760        2512.605          36.000  
E 1  25362550.058   133281077.268       -3111.136          36.000  
> 2019 11  1  2  6 43.9950000  0 14                     
G 9  21172810.969   111263887.2942      -4006.942          39.000  
G12  19281244.343   101323630.058       -1892.615          39.000  
E 8  22636762.354   118956981.903        1266.083          36.000  
E 9  22371631.720   117563706.570       -1252.670          36.000  
E20  22686090.909   119216220.110       -2203.207          36.000  
E11  27474014.574   144376932.300       -2669.529          36.000  
G27  22790496.532   119764863.183       -3536.729          39.000  
G 4  22191528.365   116617252.765        -961.066          39.000  
E19  22049584.759   115871329.512         198.405          36.000  
G 2  21971092.870   115458890.4082       1173.889          39.000  
E10  27155911.082   142705288.738       -1079.704          36.000  
E21  26299439.161   138204478.676       -3367.748          37.000  
E 7  25955292.388   136395978.123        2523.946          36.000  
E 1  25363142.266   133284191.978       -3119.114          37.000  
> 2019 11  1  2  6 44.9950000  0 16                     
G25  18985196.007    99767877.8333        234.441          43.000  
G 9  21173572.060   111267887.4292      -3994.414          43.000  
G29  21100516.706   110883963.4043       2798.886          43.000  
G14  20280245.733   106573410.1403       -875.104          43.000  
G12  19281604.829   101325524.419       -1896.533          43.000  
E 8  22636520.407   118955709.859        1277.944          41.000  
E 9  22371870.335   117564959.822       -1254.401          40.000  
E20  22686509.382   119218418.500       -2193.760          41.000  
E11  27474523.631   144379606.394       -2677.645          41.000  
G27  22791168.156   119768392.518       -3522.533          43.000  
G 4  22191712.448   116618219.203        -972.681          43.000  
G 2  21970869.088   115457715.4782       1174.843          43.000  
E10  27156118.460   142706377.746       -1098.021          41.000  
E21  26300077.193   138207838.538       -3353.125          40.000  
E 7  25954810.710   136393445.275        2542.362          40.000  
E 1  25363737.493   133287316.805       -3131.845          40.000  
> 2019 11  1  2  6 45.9950000  0 17                     
G25  18985152.189    99767643.2842        234.559          43.000  
G 9  21174331.668   111271878.1712      -3988.685          43.000  
G29  21099982.066   110881155.8112       2815.900          43.000  
G14  20280411.161   106574283.0172       -870.055          43.000  
G12  19281966.450   101327424.288       -1903.918          43.000  
E 8  22636276.208   118954426.249        1288.685          41.000  
E 9  22372109.595   117566217.166       -1260.869          40.000  
E20  22686926.547   119220609.397       -2188.989          40.000  
E11  27475033.422   144382284.906       -2678.592          41.000  
G27  22791837.616   119771911.214       -3516.335          43.000  
G 4  22191899.235   116619200.372        -990.387          43.000  
E19  22049506.442   115870948.6681        197.494          40.000  
G 2  21970646.389   115456543.4552       1167.727          43.000  
E10  27156328.718   142707483.535       -1112.867          41.000  
E21  26300713.463   138211187.665       -3346.780          40.000  
E 7  25954325.367   136390893.003        2561.990          40.000  
E 1  25364334.867   133290457.223       -3149.979          40.000  
> 2019 11  1  2  6 46.9950000  0 17                     
G25  18985106.086    99767408.3712        236.334          43.000  
G 9  21175090.735   111275867.5042      -3990.569          43.000  
G29  21099445.105   110878332.4772       2830.565          43.000  
G14  20280579.102   106575148.9172       -860.789          43.000  
G12  19282329.694   101329333.065       -1913.263          43.000  
E 8  22636030.405   118953133.492        1296.938          41.000  
E 9  22372350.460   117567482.863       -1270.084          40.000  
E20  22687342.944   119222798.252       -2189.081          40.000  
E11  27475542.759   144384960.939       -2671.900          40.000  
G27  22792506.937   119775428.037       -3518.375          43.000  
G 4  22192089.652   116620201.585       -1011.377          43.000  
E19  22049470.076   115870750.873         199.286          40.000  
G 2  21970425.661   115455382.6332       1153.655          43.000  
E10  27156541.733   142708601.331       -1120.991          40.000  
E21  26301351.304   138214534.976       -3348.491          40.000  
E 7  25953835.923   136388321.485        2580.999          40.000  
E 1  25364936.498   133293617.566       -3170.349          40.000  
> 2019 11  1  2  6 47.9950000  0 18                     
G25  18985062.094    99767170.3012        241.054          43.000  
G 9  21175850.866   111279861.7832      -3998.202          43.000  
G29  21098907.325   110875495.9352       2842.143          43.000  
G14  20280740.726   106576003.1122       -846.987          43.000  
G12  19282694.700   101331250.877       -1921.631          43.000  
E 8  22635782.873   118951833.607        1303.004          40.000  
E 9  22372592.739   117568758.073       -1279.453          40.000  
E20  22687759.970   119224989.008       -2192.586          41.000  
E11  27476049.810   144387626.095       -2656.815          40.000  
G27  22793177.339   119778950.166       -3526.686          43.000  
G 4  22192284.012   116621223.097       -1030.469          43.000  
E27  24878485.119   130737331.9811       2007.292          41.000  
E19  22049433.605   115870549.440         204.424          40.000  
G 2  21970207.568   115454237.6632       1136.655          43.000  
E10  27156755.131   142709722.736       -1119.755          40.000  
E21  26301989.388   138217887.903       -3357.497          41.000  
E 7  25953342.990   136385732.113        2597.565          40.000  
E 1  25365541.724   133296797.196       -3187.949          40.000  
> 2019 11  1  2  6 48.9950000  0 18                     
G25  18985014.943    99766926.4922        246.944          43.000  
G 9  21176612.987   111283866.2262      -4011.418          43.000  
G29  21098364.047   110872650.4622       2847.587          43.000  
G14  20280901.704   106576842.5132       -831.876          43.000  
G12  19283060.893   101333176.112       -1928.503          43.000  
E 8  22635534.871   118950529.435        1304.476          41.000  
E 9  22372837.530   117570042.062       -1288.270          41.000  
E20  22688177.396   119227184.930       -2199.923          41.000  
E11  27476553.824   144390273.353       -2637.282          40.000  
G27  22793849.626   119782483.616       -3541.523          43.000  
G 4  22192481.880   116622261.754       -1045.862          43.000  
E27  24878104.460   130735316.808        2023.546          41.000  
E19  22049395.232   115870341.660         211.041          40.000  
G 2  21969993.175   115453110.4402       1117.723          43.000  
E10  27156967.274   142710838.422       -1110.401          41.000  
E21  26302629.654   138221252.521       -3372.773          41.000  
E 7  25952847.927   136383128.696        2607.947          40.000  
E 1  25366149.724   133299992.019       -3201.112          41.000  
> 2019 11  1  2  6 49.9950000  0 14                     
G25  18984968.246    99766677.5322        251.409          44.000  
G 9  21177378.057   111287886.7632      -4029.716          44.000  
G29  21097823.614                1       2844.336          43.000  
G14  20281058.617   106577668.6912       -820.478          44.000  
E 8  22635286.851   118949226.736        1299.914          41.000  
E 9  22373083.387   117571335.096       -1296.965          41.000  
E20  22688597.493   119229390.832       -2211.850          41.000  
E11  27477053.965   144392900.788       -2617.548          41.000  
G27  22794525.491   119786034.833       -3561.338          44.000  
E27  24877716.297   130733284.744        2040.793          41.000  
E19  22049352.479   115870128.153         216.170          41.000  
E10  27157177.392   142711942.287       -1096.294          41.000  
E21  26303273.061   138224635.363       -3393.364          41.000  
E 7  25952348.397                1       2610.554          41.000  
> 2019 11  1  2  6 50.9950000  0 18                     
G25  18984920.084    99766423.3602        257.001          44.000  
G 9  21178146.460   111291925.2452      -4047.236          44.000  
G29  21097280.406   110866956.261        2836.113          44.000  
G14  20281213.697   106578483.8472       -810.892          44.000  
G 2  21969577.441   115450908.6011       1086.428          44.000  
E 8  22635040.384   118947929.565        1293.293          41.000  
E 9  22373330.429   117572634.450       -1301.299          41.000  
E20  22689019.649   119231608.370       -2223.384          41.000  
E11  27477550.249   144395508.100       -2597.891          41.000  
G27  22795205.194   119789605.986       -3580.930          44.000  
G12  19283798.566                3      -1936.157          44.000  
E27  24877327.454   130731234.043        2059.949          41.000  
E19  22049311.925   115869908.888         222.002          41.000  
E 1  25367367.313                1      -3209.093          41.000  
E10  27157383.863   142713028.621       -1076.422          41.000  
E21  26303921.023   138228038.526       -3413.148          41.000  
E 7  25951851.956   136377912.263        2604.004          41.000  
G 4  22192881.036   116624376.2133      -1059.137          44.000  
> 2019 11  1  2  6 51.9950000  0 18                     
G25  18984870.386    99766164.8452        259.471          44.000  
G 9  21178918.109   111295980.7772      -4063.807          44.000  
G29  21096743.201   110864126.943        2821.476          44.000  
G14  20281367.189   106579292.0482       -807.185          44.000  
G 2  21969367.724   115449826.883        1078.106          44.000  
E 8  22634794.982   118946641.202        1282.455          41.000  
E 9  22373578.275   117573936.509       -1302.632          41.000  
E20  22689444.020   119233837.488       -2235.185          41.000  
E11  27478043.009   144398098.229       -2583.843          41.000  
G27  22795888.562   119793196.117       -3599.437          44.000  
G12  19284163.293   101338980.9852      -1935.852          44.000  
E27  24876934.440   130729165.988        2074.923          41.000  
E19  22049267.880   115869684.859         225.169          41.000  
E 1  25367974.162   133309630.197       -3200.820          41.000  
E10  27157586.739   142714094.539       -1056.308          41.000  
E21  26304572.509   138231460.978       -3431.755          41.000  
E 7  25951358.062   136375314.318        2590.292          41.000  
G 4  22193084.558   116625433.3402      -1054.596          44.000  
> 2019 11  1  2  6 52.9950000  0 18                     
G25  18984821.036    99765905.2572        259.870          44.000  
G 9  21179692.916   111300051.5432      -4076.400          44.000  
G29  21096209.015   110861314.849        2802.979          44.000  
G14  20281521.239   106580100.3252       -809.890          44.000  
G 2  21969165.511   115448750.173        1077.059          44.000  
E 8  22634552.109   118945365.297        1269.875          41.000  
E 9  22373826.242   117575239.041       -1300.966          41.000  
E20  22689869.998   119236078.055       -2244.905          41.000  
E11  27478533.517   144400678.586       -2577.617          41.000  
G27  22796574.966   119796803.003       -3613.079          44.000  
G12  19284532.801   101340915.5452      -1932.623          44.000  
E27  24876539.804   130727086.335        2083.824          41.000  
E19  22049225.232   115869459.578         225.363          41.000  
E 1  25368584.605   133312825.197       -3187.701          41.000  
E10  27157786.230   142715142.262       -1039.302          41.000  
E21  26305226.788   138234900.343       -3445.468          41.000  
E 7  25950869.945   136372733.317        2571.480          41.000  
G 4  22193283.962   116626482.9362      -1043.451          44.000  
