     3.03           OBSERVATION DATA    M: Mixed            RINEX VERSION / TYPE
RTKCONV 2.4.3 b33   MKJ                 20191127 105637 UTC PGM / RUN BY / DATE            
Low-cost receiver                                           MARKER NAME               
NON GEODETIC                                                MARKER TYPE         
M. Kirkko-Jaakkola  Finnish Geospatial Research Institute   OBSERVER / AGENCY   
                    U-Blox M8T          10/19               REC # / TYPE / VERS
                    Septentrio PolaNt Choke Ring B3/E6      ANT # / TYPE    
  2894066.8146  1321675.9422  5509486.8092                  APPROX POSITION XYZ 
        0.0000        0.0000        0.0000                  ANTENNA: DELTA H/E/N
G    4 C1C L1C D1C S1C                                      SYS / # / OBS TYPES 
R    4 C1C L1C D1C S1C                                      SYS / # / OBS TYPES 
E    4 C1C L1C D1C S1C                                      SYS / # / OBS TYPES 
  2019    11    26    15     6    1.9860000     GPS         TIME OF FIRST OBS   
  2019    11    26    15    25   24.0160000     GPS         TIME OF LAST OBS    
G                                                           SYS / PHASE SHIFT   
R                                                           SYS / PHASE SHIFT   
E                                                           SYS / PHASE SHIFT   
  0                                                         GLONASS SLOT / FRQ #
 C1C    0.000 C1P    0.000 C2C    0.000 C2P    0.000        GLONASS COD/PHS/BIS 
                                                            END OF HEADER       
> 2019 11 26 15  6  1.9860000  0 21                     
G30  16294261.753    85626927.885        -695.807          53.000  
G13  17081731.011    89765085.195        1874.746          49.000  
G 7  17742518.223    93237544.779       -2537.094          49.000  
G 5  17993593.605    94556976.428       -2568.947          49.000  
G28  17986307.798    94518676.589        2378.261          46.000  
G 8  19143093.639   100597632.617         403.256          43.000  
G15  19260738.819   101215865.211        3119.392          42.000  
E30  21533339.663   113158431.234       -3103.964          28.000  
E19  19526172.936   102610714.839        -148.247          43.000  
E27  19556067.209   102767806.225        -852.611          48.000  
E21  20796420.929   109285926.847        2022.123          45.000  
E 4  22766760.595   119640098.566        2434.868          39.000  
G21  20966782.678   110181211.867        -855.559          26.000  
G 9  21612931.906   113576712.857       -4111.021          37.000  
E20  15949692.884    83816207.764       -2618.263          38.000  
R14  16550923.279    88225675.224       -3286.603          49.000  
R15  15163040.631    81026636.554         685.121          52.000  
R 5  15550261.615    83125022.222       -2169.149          53.000  
R23  18265987.290    97710686.605        1322.735          45.000  
R16  18351360.511    98029605.028        3803.064          40.000  
R 6  16583739.878    88493934.953        2567.371          47.000  
> 2019 11 26 15  6  2.9860000  0 21                     
G30  16294394.209    85627624.493        -696.820          53.000  
G13  17081374.215    89763211.255        1873.808          49.000  
G 7  17743001.079    93240082.713       -2537.979          49.000  
G 5  17994082.673    94559546.168       -2569.846          49.000  
G28  17985855.306    94516299.164        2377.296          46.000  
G 8  19143017.277   100597230.196         402.298          43.000  
G15  19260145.127   101212746.554        3118.690          42.000  
E30  21533929.882   113161535.467       -3103.949          28.000  
E19  19526200.987   102610863.902        -149.010          43.000  
E27  19556229.767   102768659.533        -853.310          48.000  
E21  20796036.327   109283905.428        2021.373          45.000  
E 4  22766297.135   119637664.359        2434.243          39.000  
G21  20966947.679   110182068.655        -856.745          26.000  
G 9  21613714.251   113580824.123       -4111.340          37.000  
E20  15950191.323    83818826.881       -2619.361          38.000  
R14  16551539.769    88228962.618       -3287.524          49.000  
R15  15162912.529    81025952.379         683.977          52.000  
R 5  15550667.403    83127192.453       -2170.469          53.000  
R23  18265739.881    97709364.935        1321.563          45.000  
R16  18350648.306    98025802.689        3802.048          40.000  
R 6  16583258.627    88491368.516        2566.254          47.000  
> 2019 11 26 15  6  3.9860000  0 21                     
G30  16294526.717    85628321.319        -697.441          53.000  
G13  17081017.559    89761337.464        1873.205          49.000  
G 7  17743484.057    93242620.681       -2538.402          49.000  
G 5  17994571.619    94562116.144       -2570.641          49.000  
G28  17985403.013    94513921.847        2376.910          46.000  
G 8  19142940.801   100596828.151         401.165          43.000  
G15  19259551.811   101209627.850        3118.190          42.000  
E30  21534520.834   113164639.646       -3104.443          28.000  
E19  19526229.256   102611013.098        -149.869          43.000  
E27  19556391.556   102769512.968        -853.955          48.000  
E21  20795651.122   109281884.014        2021.009          45.000  
E 4  22765833.806   119635229.993        2434.006          39.000  
G21  20967112.688   110182925.532        -857.318          26.000  
G 9  21614496.702   113584935.112       -4111.278          38.000  
E20  15950689.702    83821445.923       -2619.566          38.000  
R14  16552156.154    88232250.168       -3288.214          49.000  
R15  15162784.549    81025268.611         683.079          52.000  
R 5  15551073.644    83129363.176       -2171.421          53.000  
R23  18265492.759    97708043.818        1320.423          45.000  
R16  18349936.468    98022000.283        3802.116          40.000  
R 6  16582777.664    88488802.374        2565.509          47.000  
> 2019 11 26 15  6  4.9860000  0 21                     
G30  16294659.644    85629019.342        -698.488          53.000  
G13  17080661.112    89759464.794        1872.220          49.000  
G 7  17743967.236    93245159.664       -2539.303          49.000  
G 5  17995060.740    94564687.318       -2571.640          49.000  
G28  17984950.555    94511545.614        2375.876          46.000  
G 8  19142864.343   100596427.432         400.229          43.000  
G15  19258958.556   101206510.075        3117.362          42.000  
E30  21535113.810   113167744.607       -3105.357          28.000  
E19  19526258.023   102611163.369        -150.535          43.000  
E27  19556554.236   102770367.485        -854.845          48.000  
E21  20795266.641   109279863.588        2020.125          45.000  
E 4  22765370.782   119632796.464        2433.280          39.000  
G21  20967276.799   110183783.672        -858.466          25.000  
G 9  21615278.995   113589046.772       -4111.752          37.000  
E20  15951188.525    83824065.948       -2619.965          38.000  
R14  16552773.054    88235538.871       -3289.203          49.000  
R15  15162656.665    81024586.260         681.792          52.000  
R 5  15551480.225    83131535.369       -2172.721          53.000  
R23  18265245.978    97706724.219        1318.984          45.000  
R16  18349224.822    98018198.874        3801.070          40.000  
R 6  16582296.954    88486237.518        2564.331          47.000  
> 2019 11 26 15  6  5.9860000  0 21                     
G30  16294792.519    85629717.531        -698.728          53.000  
G13  17080304.735    89757592.212        1872.085          49.000  
G 7  17744450.503    93247698.635       -2539.438          49.000  
G 5  17995550.149    94567258.658       -2571.845          49.000  
G28  17984498.307    94509169.438        2375.544          46.000  
G 8  19142788.269   100596027.026         399.898          43.000  
G15  19258365.415   101203392.205        3117.539          43.000  
E30  21535705.494   113170849.311       -3104.760          28.000  
E19  19526286.921   102611313.707        -150.668          43.000  
E27  19556716.802   102771222.065        -854.966          48.000  
E21  20794882.213   109277843.093        2020.151          45.000  
E 4  22764907.627   119630362.735        2433.417          39.000  
G21  20967440.953   110184641.922        -858.693          25.000  
G 9  21616061.131   113593158.080       -4111.461          37.000  
E20  15951687.217    83826685.925       -2620.567          38.000  
R14  16553389.763    88238827.684       -3289.307          49.000  
R15  15162529.218    81023904.304         681.302          52.000  
R 5  15551886.562    83133707.968       -2173.254          53.000  
R23  18264999.337    97705405.112        1318.421          45.000  
R16  18348512.801    98014397.338        3801.001          40.000  
R 6  16581816.445    88483672.884        2564.117          47.000  
> 2019 11 26 15  6  6.9860000  0 21                     
G30  16294925.882    85630416.825        -699.573          53.000  
G13  17079948.724    89755720.663        1871.254          49.000  
G 7  17744933.778    93250238.526       -2540.110          50.000  
G 5  17996039.750    94569831.129       -2572.764          49.000  
G28  17984046.320    94506794.243        2374.810          46.000  
G 8  19142712.090   100595627.856         398.891          43.000  
G15  19257772.570   101200275.183        3116.815          43.000  
E30  21536294.299   113173954.771       -3105.778          28.000  
E19  19526315.818   102611465.055        -151.613          43.000  
E27  19556879.656   102772077.652        -855.860          48.000  
E21  20794497.793   109275823.496        2019.277          45.000  
E 4  22764444.681   119627929.754        2432.845          39.000  
G21  20967604.496   110185501.271        -859.791          25.000  
G 9  21616843.416   113597270.008       -4112.017          37.000  
E20  15952185.822    83829306.735       -2621.125          38.000  
R14  16554006.741    88242117.568       -3290.161          49.000  
R15  15162401.857    81023223.704         680.163          52.000  
R 5  15552293.440    83135881.935       -2174.435          53.000  
R23  18264752.879    97704087.464        1317.191          45.000  
R16  18347801.198    98010596.656        3800.593          40.000  
R 6  16581336.084    88481109.468        2562.994          47.000  
> 2019 11 26 15  6  7.9860000  0 21                     
G30  16295058.853    85631116.555        -700.186          53.000  
G13  17079592.530    89753849.468        1870.857          49.000  
G 7  17745417.070    93252778.662       -2540.499          49.000  
G 5  17996529.272    94572404.025       -2573.496          49.000  
G28  17983594.106    94504419.365        2374.381          46.000  
G 8  19142636.365   100595229.261         398.058          43.000  
G15  19257179.602   101197158.321        3116.458          43.000  
E30  21536886.141   113177060.293       -3105.805          28.000  
E19  19526344.707   102611616.719        -151.924          43.000  
E27  19557042.694   102772933.551        -856.236          48.000  
E21  20794113.217   109273804.099        2019.063          45.000  
E 4  22763981.587   119625496.826        2432.563          39.000  
G21  20967770.657   110186361.003        -859.702          25.000  
G 9  21617625.831   113601381.823       -4112.132          36.000  
E20  15952684.357    83831927.724       -2621.288          38.000  
R14  16554623.868    88245407.817       -3290.692          48.000  
R15  15162274.741    81022543.742         679.397          52.000  
R 5  15552700.248    83138056.588       -2175.315          53.000  
R23  18264506.674    97702770.564        1316.280          45.000  
R16  18347089.509    98006796.124        3799.992          40.000  
R 6  16580855.697    88478546.551        2562.268          47.000  
> 2019 11 26 15  6  8.9860000  0 21                     
G30  16295192.164    85631817.459        -701.369          53.000  
G13  17079236.616    89751979.396        1869.627          49.000  
G 7  17745900.607    93255319.806       -2541.520          49.000  
G 5  17997019.353    94574978.120       -2574.584          49.000  
G28  17983142.460    94502045.562        2373.502          46.000  
G 8  19142560.884   100594832.002         396.737          43.000  
G15  19256586.478   101194042.380        3115.599          43.000  
E30  21537479.222   113180166.618       -3106.859          28.000  
E19  19526373.840   102611769.473        -153.098          43.000  
E27  19557205.574   102773790.540        -857.376          48.000  
E21  20793729.085   109271785.671        2018.218          45.000  
E 4  22763518.790   119623064.702        2431.966          38.000  
G21  20967938.197   110187221.951        -861.548          25.000  
G 9  21618408.177   113605494.314       -4112.971          36.000  
E20  15953183.416    83834549.700       -2622.649          38.000  
R14  16555241.318    88248699.194       -3291.742          48.000  
R15  15162147.730    81021865.185         677.949          52.000  
R 5  15553107.414    83140232.718       -2176.728          53.000  
R23  18264260.739    97701455.195        1314.588          45.000  
R16  18346378.282    98002996.521        3799.262          40.000  
R 6  16580375.790    88475984.922        2561.011          47.000  
> 2019 11 26 15  6  9.9860000  0 21                     
G30  16295325.754    85632518.486        -701.025          53.000  
G13  17078880.745    89750109.349        1870.070          49.000  
G 7  17746383.969    93257860.883       -2540.920          49.000  
G 5  17997509.294    94577552.319       -2574.321          49.000  
G28  17982690.796    94499671.766        2373.784          46.000  
G 8  19142485.342   100594434.993         397.130          43.000  
G15  19255993.564   101190926.294        3116.192          43.000  
E30  21538069.336   113183272.661       -3105.754          29.000  
E19  19526402.895   102611922.230        -152.705          43.000  
E27  19557368.673   102774647.533        -857.038          48.000  
E21  20793345.032   109269767.139        2018.546          46.000  
E 4  22763055.766   119620632.345        2432.592          39.000  
G21  20968100.580   110188083.042        -862.034          25.000  
G 9  21619190.767   113609606.395       -4111.512          35.000  
E20  15953682.667    83837171.494       -2621.677          39.000  
R14  16555858.523    88251990.615       -3291.351          48.000  
R15  15162020.823    81021186.937         678.175          52.000  
R 5  15553514.964    83142409.239       -2176.630          53.000  
R23  18264014.979    97700140.245        1314.751          45.000  
R16  18345666.941    97999196.813        3799.677          40.000  
R 6  16579895.673    88473423.490        2561.438          47.000  
> 2019 11 26 15  6 10.9860000  0 21                     
G30  16295459.554    85633220.426        -701.994          53.000  
G13  17078525.031    89748240.162        1869.186          49.000  
G 7  17746867.655    93260402.709       -2541.834          49.000  
G 5  17997999.706    94580127.468       -2575.183          49.000  
G28  17982239.106    94497298.783        2372.988          46.000  
G 8  19142409.817   100594039.065         395.808          43.000  
G15  19255400.963   101187810.864        3115.537          43.000  
E30  21538659.293   113186379.271       -3106.518          28.000  
E19  19526432.307   102612075.806        -153.555          43.000  
E27  19557531.980   102775505.344        -857.925          48.000  
E21  20792961.084   109267749.312        2017.850          46.000  
E 4  22762592.995   119618200.539        2431.991          38.000  
G21  20968261.192   110188944.979        -862.756          25.000  
G 9  21619973.060   113613718.882       -4112.129          35.000  
E20  15954181.708    83839794.009       -2622.181          39.000  
R14  16556475.947    88255282.904       -3292.230          48.000  
R15  15161894.344    81020509.844         676.920          52.000  
R 5  15553922.243    83144586.968       -2177.890          53.000  
R23  18263769.638    97698826.571        1313.453          45.000  
R16  18344955.827    97995397.770        3799.414          40.000  
R 6  16579416.045    88470863.091        2560.297          47.000  
> 2019 11 26 15  6 11.9860000  0 20                     
G30  16295592.899    85633922.925        -703.116          53.000  
G13  17078169.561    89746371.462        1868.037          49.000  
G 7  17747351.584    93262944.900       -2542.670          49.000  
G 5  17998489.970    94582703.173       -2576.396          49.000  
G28  17981787.459    94494926.234        2372.089          46.000  
G 8  19142334.432   100593643.812         394.628          43.000  
G15  19254808.380   101184695.724        3114.545          43.000  
E30  21539250.602   113189486.056       -3106.721          29.000  
E19  19526461.527   102612229.832        -154.481          43.000  
E27  19557695.175   102776363.594        -858.749          48.000  
E21  20792576.996   109265731.804        2017.044          46.000  
E 4  22762130.381   119615768.932        2431.390          38.000  
G 9  21620755.728   113617831.402       -4112.459          34.000  
E20  15954680.627    83842416.844       -2623.591          39.000  
R14  16557093.257    88258575.692       -3293.316          48.000  
R15  15161767.577    81019833.533         675.643          52.000  
R 5  15554330.011    83146765.528       -2179.350          53.000  
R23  18263524.645    97697513.781        1312.011          46.000  
R16  18344244.277    97991599.029        3798.138          40.000  
R 6  16578936.295    88468303.332        2559.161          47.000  
> 2019 11 26 15  6 12.9860000  0 20                     
G30  16295726.943    85634626.338        -703.841          53.000  
G13  17077813.995    89744503.587        1867.511          49.000  
G 7  17747835.383    93265487.826       -2543.306          49.000  
G 5  17998980.565    94585279.796       -2577.036          49.000  
G28  17981336.083    94492554.503        2371.298          46.000  
G 8  19142259.483   100593249.633         393.729          43.000  
G15  19254215.910   101181581.234        3114.206          43.000  
E30  21539843.185   113192593.370       -3107.649          29.000  
E19  19526490.800   102612384.677        -155.156          43.000  
E27  19557858.875   102777222.659        -859.393          48.000  
E21  20792193.510   109263715.013        2016.474          46.000  
E 4  22761667.749   119613337.864        2431.159          38.000  
G 9  21621538.414   113621944.345       -4113.124          33.000  
E20  15955179.983    83845040.327       -2623.632          39.000  
R14  16557711.187    88261869.356       -3294.128          48.000  
R15  15161641.307    81019158.359         674.595          52.000  
R 5  15554737.614    83148945.281       -2180.379          53.000  
R23  18263279.601    97696202.244        1310.969          46.000  
R16  18343533.957    97987800.906        3797.751          40.000  
R 6  16578456.659    88465744.591        2558.282          47.000  
> 2019 11 26 15  6 13.9860000  0 20                     
G30  16295860.839    85635330.539        -704.548          53.000  
G13  17077459.032    89742636.433        1866.813          49.000  
G 7  17748319.478    93268031.344       -2543.700          49.000  
G 5  17999471.239    94587857.210       -2577.674          49.000  
G28  17980884.986    94490183.421        2370.834          46.000  
G 8  19142184.561   100592856.363         392.694          43.000  
G15  19253623.440   101178467.264        3113.793          43.000  
E30  21540433.517   113195701.067       -3107.684          28.000  
E19  19526520.675   102612540.201        -155.886          43.000  
E27  19558022.410   102778082.397        -859.958          48.000  
E21  20791809.980   109261698.769        2016.085          46.000  
E 4  22761204.996   119610907.215        2430.624          38.000  
G 9  21622321.240   113626057.526       -4113.007          33.000  
E20  15955679.452    83847664.385       -2624.116          39.000  
R14  16558329.143    88265163.744       -3294.702          48.000  
R15  15161515.203    81018484.171         673.747          53.000  
R 5  15555145.399    83151126.059       -2181.123          53.000  
R23  18263034.879    97694891.823        1310.101          46.000  
R16  18342823.061    97984003.315        3797.021          40.000  
R 6  16577977.415    88463186.723        2557.611          46.000  
> 2019 11 26 15  6 14.9860000  0 20                     
G30  16295995.214    85636035.354        -705.165          53.000  
G13  17077103.719    89740769.831        1866.263          49.000  
G 7  17748803.573    93270575.330       -2544.330          49.000  
G 5  17999962.018    94590435.262       -2578.423          49.000  
G28  17980433.689    94487812.876        2370.177          46.000  
G 8  19142109.778   100592463.849         392.099          43.000  
G15  19253031.066   101175353.676        3113.199          43.000  
E30  21541023.125   113198809.034       -3107.948          28.000  
E19  19526550.244   102612696.232        -156.380          43.000  
E27  19558185.831   102778942.663        -860.594          48.000  
E21  20791426.668   109259682.933        2015.578          46.000  
E 4  22760742.111   119608476.843        2430.091          38.000  
G 9  21623104.257   113630170.785       -4112.428          33.000  
E20  15956178.955    83850288.842       -2624.923          39.000  
R14  16558947.247    88268458.690       -3295.428          48.000  
R15  15161389.561    81017810.836         672.848          53.000  
R 5  15555553.202    83153307.703       -2182.086          53.000  
R23  18262790.584    97693582.377        1308.820          46.000  
R16  18342112.270    97980206.066        3797.059          41.000  
R 6  16577498.310    88460629.566        2556.726          46.000  
> 2019 11 26 15  6 15.9860000  0 20                     
G30  16296129.319    85636740.594        -705.409          53.000  
G13  17076748.616    89738903.584        1866.076          49.000  
G 7  17749287.808    93273119.539       -2544.267          49.000  
G 5  18000452.762    94593013.753       -2578.693          49.000  
G28  17979982.505    94485442.626        2370.181          46.000  
G 8  19142035.501   100592071.912         391.626          43.000  
G15  19252438.649   101172240.231        3113.297          43.000  
E30  21541614.862   113201916.995       -3107.441          28.000  
E19  19526580.224   102612852.588        -156.456          43.000  
E27  19558349.959   102779803.242        -860.629          48.000  
E21  20791043.121   109257667.305        2015.657          46.000  
E 4  22760279.375   119606046.504        2430.194          39.000  
G 9  21623887.301   113634284.016       -4112.973          33.000  
E20  15956678.407    83852913.431       -2624.488          39.000  
R14  16559565.211    88271753.971       -3295.453          48.000  
R15  15161263.728    81017138.142         672.385          52.000  
R 5  15555961.319    83155490.042       -2182.654          53.000  
R23  18262545.880    97692273.653        1308.434          46.000  
R16  18341401.488    97976409.009        3797.482          40.000  
R 6  16577019.031    88458072.917        2556.482          46.000  
> 2019 11 26 15  6 16.9860000  0 20                     
G30  16296263.738    85637446.342        -705.903          53.000  
G13  17076393.617    89737037.767        1865.704          49.000  
G 7  17749771.990    93275664.078       -2544.522          49.000  
G 5  18000943.087    94595592.745       -2579.253          49.000  
G28  17979531.547    94483072.770        2369.732          46.000  
G 8  19141961.146   100591680.628         391.033          43.000  
G15  19251846.092   101169127.021        3113.313          43.000  
E30  21542209.103   113205025.177       -3108.241          28.000  
E19  19526609.915   102613009.348        -156.749          43.000  
E27  19558513.651   102780664.220        -861.132          48.000  
E21  20790659.531   109255651.966        2015.161          46.000  
E 4  22759816.726   119603616.318        2430.041          39.000  
G 9  21624670.179   113638397.239       -4112.797          32.000  
E20  15957177.815    83855538.333       -2625.078          39.000  
R14  16560183.254    88275049.688       -3295.795          48.000  
R15  15161137.859    81016466.178         671.741          52.000  
R 5  15556369.322    83157673.174       -2183.436          53.000  
R23  18262301.385    97690965.761        1307.578          46.000  
R16  18340690.514    97972612.240        3796.989          40.000  
R 6  16576540.232    88455516.867        2555.902          46.000  
> 2019 11 26 15  6 17.9860000  0 20                     
G30  16296398.079    85638152.491        -706.497          53.000  
G13  17076038.680    89735172.278        1865.283          49.000  
G 7  17750256.059    93278208.838       -2544.938          49.000  
G 5  18001433.891    94598172.137       -2579.701          49.000  
G28  17979080.922    94480703.204        2369.213          46.000  
G 8  19141886.625   100591289.868         390.589          43.000  
G15  19251253.683   101166013.960        3112.839          43.000  
E30  21542800.439   113208133.309       -3108.133          28.000  
E19  19526640.087   102613166.396        -157.151          43.000  
E27  19558677.683   102781525.484        -861.451          48.000  
E21  20790276.193   109253636.797        2014.970          46.000  
E 4  22759354.252   119601186.140        2430.094          38.000  
G 9  21625452.978   113642510.327       -4112.893          32.000  
E20  15957677.510    83858163.368       -2625.582          39.000  
R14  16560801.795    88278345.778       -3296.344          48.000  
R15  15161011.956    81015794.811         670.915          52.000  
R 5  15556777.666    83159856.985       -2184.181          53.000  
R23  18262056.977    97689658.582        1306.815          46.000  
R16  18339979.985    97968815.617        3796.550          41.000  
R 6  16576061.311    88452961.318        2555.292          46.000  
> 2019 11 26 15  6 18.9860000  0 20                     
G30  16296532.245    85638859.104        -706.899          53.000  
G13  17075683.812    89733307.182        1864.902          50.000  
G 7  17750740.146    93280753.874       -2545.131          49.000  
G 5  18001924.609    94600752.014       -2580.083          49.000  
G28  17978630.348    94478333.981        2368.946          46.000  
G 8  19141812.418   100590899.714         389.932          43.000  
G15  19250661.266   101162901.101        3112.736          43.000  
E30  21543390.806   113211241.566       -3108.253          28.000  
E19  19526670.066   102613323.815        -157.589          43.000  
E27  19558841.584   102782387.113        -861.715          48.000  
E21  20789892.733   109251621.875        2014.802          46.000  
E 4  22758891.743   119598756.091        2429.865          38.000  
G 9  21626235.551   113646623.393       -4113.333          33.000  
E20  15958177.171    83860788.604       -2625.020          39.000  
R14  16561420.309    88281642.297       -3296.716          48.000  
R15  15160886.009    81015124.119         670.257          52.000  
R 5  15557186.176    83162041.527       -2184.908          53.000  
R23  18261812.770    97688352.203        1306.026          46.000  
R16  18339269.342    97965019.189        3796.618          41.000  
R 6  16575582.381    88450406.346        2554.755          46.000  
> 2019 11 26 15  6 19.9860000  0 21                     
G30  16296666.908    85639566.075        -707.183          53.000  
G13  17075328.744    89731442.376        1864.504          49.000  
G 7  17751224.634    93283299.102       -2545.373          49.000  
G 5  18002415.283    94603332.261       -2580.406          49.000  
G28  17978179.661    94475965.013        2368.757          46.000  
G 8  19141738.298   100590510.060         389.369          43.000  
G15  19250068.726   101159788.340        3112.703          43.000  
E30  21543982.071   113214349.788       -3108.291          28.000  
E19  19526699.714   102613481.500        -158.014          43.000  
E27  19559005.555   102783249.003        -862.131          48.000  
E21  20789509.143   109249607.098        2014.611          46.000  
E 4  22758429.434   119596326.034        2429.882          39.000  
G21  20969727.978   110196663.9201       -867.668          26.000  
G 9  21627018.306   113650736.269       -4112.915          34.000  
E20  15958676.719    83863414.027       -2625.566          39.000  
R14  16562039.172    88284939.122       -3296.972          48.000  
R15  15160760.289    81014454.026         669.702          52.000  
R 5  15557595.078    83164226.679       -2185.503          53.000  
R23  18261568.851    97687046.506        1305.451          46.000  
R16  18338558.830    97961222.872        3796.076          41.000  
R 6  16575103.748    88447851.834        2554.187          46.000  
> 2019 11 26 15  6 20.9860000  0 21                     
G30  16296801.720    85640273.690        -707.985          53.000  
G13  17074973.999    89729578.133        1863.740          50.000  
G 7  17751709.191    93285844.785       -2546.095          49.000  
G 5  18002906.350    94605913.166       -2581.410          49.000  
G28  17977728.887    94473596.577        2368.072          46.000  
G 8  19141664.335   100590121.183         388.362          43.000  
G15  19249476.422   101156675.952        3112.206          43.000  
E30  21544572.927   113217458.281       -3108.494          28.000  
E19  19526730.374   102613639.701        -158.572          43.000  
E27  19559169.945   102784111.418        -862.755          48.000  
E21  20789125.901   109247592.749        2014.006          46.000  
E 4  22757966.707   119593896.244        2429.433          39.000  
G21  20969892.473   110197531.336        -867.678          26.000  
G 9  21627801.088   113654849.324       -4113.404          35.000  
E20  15959176.083    83866039.827       -2626.487          39.000  
R14  16562657.940    88288236.504       -3297.857          48.000  
R15  15160634.691    81013784.792         668.657          52.000  
R 5  15558003.884    83166412.726       -2186.677          53.000  
R23  18261325.054    97685741.786        1304.082          46.000  
R16  18337848.519    97957426.904        3795.813          41.000  
R 6  16574625.062    88445298.043        2553.223          46.000  
> 2019 11 26 15  6 21.9860000  0 21                     
G30  16296936.514    85640981.913        -708.632          53.000  
G13  17074619.375    89727714.424        1863.339          49.000  
G 7  17752193.697    93288390.882       -2546.351          49.000  
G 5  18003397.242    94608494.682       -2582.002          49.000  
G28  17977278.227    94471228.635        2367.648          46.000  
G 8  19141590.433   100589733.050         387.718          43.000  
G15  19248884.345   101153563.922        3111.618          43.000  
E30  21545165.720   113220566.978       -3108.698          28.000  
E19  19526760.258   102613798.421        -158.969          43.000  
E27  19559334.003   102784974.349        -863.323          48.000  
E21  20788742.764   109245578.786        2013.587          46.000  
E 4  22757504.572   119591466.716        2429.322          39.000  
G21  20970060.152   110198399.408        -868.463          26.000  
G 9  21628583.809   113658962.434       -4113.723          34.000  
E20  15959675.770    83868665.949       -2625.909          38.000  
R14  16563276.951    88291534.407       -3298.321          48.000  
R15  15160509.512    81013116.360         667.902          52.000  
R 5  15558412.987    83168599.645       -2187.499          53.000  
R23  18261081.423    97684437.988        1303.447          46.000  
R16  18337138.243    97953631.296        3795.260          41.000  
R 6  16574146.847    88442744.945        2552.789          46.000  
> 2019 11 26 15  6 22.9860000  0 22                     
G30  16297071.334    85641690.692        -709.015          51.000  
G13  17074265.049    89725851.205        1862.958          48.000  
G 7  17752678.150    93290937.369       -2546.612          48.000  
G 5  18003888.605    94611076.759       -2582.317          47.000  
G28  17976827.479    94468861.139        2367.292          44.000  
G 8  19141516.811   100589345.628         387.009          41.000  
G15  19248292.050   101150452.172        3111.603          42.000  
E30  21545759.306   113223675.852       -3108.862          26.000  
E19  19526790.403   102613957.591        -159.504          42.000  
E27  19559498.201   102785837.732        -863.757          46.000  
E21  20788359.705   109243565.166        2013.390          44.000  
E 4  22757042.508   119589037.362        2429.008          37.000  
G27  19812430.794                3      -1719.672          34.000  
G21  20970226.444   110199267.980        -868.700          27.000  
G 9  21629366.477   113663075.578       -4112.952          31.000  
E20  15960175.684    83871292.461       -2626.877          37.000  
R14  16563895.919    88294832.820       -3298.779          42.000  
R15  15160384.577    81012448.708         667.231          46.000  
R 5  15558822.378    83170787.407       -2188.146          47.000  
R23  18260837.809    97683135.121        1302.341          40.000  
R16  18336428.150    97949836.012        3794.905          35.000  
R 6  16573668.554    88440192.502        2552.130          40.000  
> 2019 11 26 15  6 23.9860000  0 20                     
G30  16297206.338    85642400.404        -710.387          54.000  
G13  17073910.539    89723988.838        1861.778          50.000  
G 7  17753162.856    93293484.600       -2547.808          50.000  
G 5  18004380.317    94613659.768       -2583.475          50.000  
G28  17976376.827    94466494.448        2366.241          47.000  
G 8  19141443.136   100588959.269         385.752          44.000  
G15  19247700.278   101147341.097        3110.641          44.000  
E30  21546343.444   113226785.317       -3109.551          27.000  
E19  19526820.793   102614117.580        -160.409          44.000  
E27  19559662.757   102786701.910        -864.581          49.000  
E21  20787976.647   109241552.234        2012.618          47.000  
E 4  22756580.671   119586608.556        2428.548          40.000  
G21  20970393.783   110200137.481        -869.753          27.000  
E20  15960675.746    83873919.622       -2627.706          39.000  
R14  16564514.826    88298132.102       -3299.829          43.000  
R15  15160259.738    81011782.218         665.729          47.000  
R 5  15559231.647    83172976.377       -2189.788          48.000  
R23  18260594.405    97681833.490        1300.819          40.000  
R16  18335717.551    97946041.410        3794.204          35.000  
R 6  16573190.418    88437641.056        2550.714          42.000  
> 2019 11 26 15  6 24.9860000  0 21                     
G30  16297341.629    85643110.760        -710.555          54.000  
G13  17073556.107    89722127.041        1861.574          50.000  
G 7  17753647.797    93296032.295       -2547.922          50.000  
G 5  18004871.759    94616243.434       -2583.869          50.000  
G28  17975926.673    94464128.300        2365.844          47.000  
G 8  19141369.959   100588573.706         385.317          44.000  
G15  19247108.558   101144230.401        3110.778          45.000  
E30  21546938.260   113229895.022       -3109.645          28.000  
E19  19526851.208   102614278.120        -160.699          44.000  
E27  19559827.068   102787566.647        -865.025          49.000  
E21  20787593.589   109239539.745        2012.389          47.000  
E 4  22756118.458   119584180.054        2428.528          40.000  
G21  20970560.424   110201007.603        -870.414          27.000  
G 9  21630932.137   113671314.8951      -4115.226          33.000  
E20  15961175.581    83876547.169       -2627.571          39.000  
R14  16565133.846    88301431.996       -3300.329          43.000  
R15  15160135.248    81011116.622         665.215          48.000  
R 5  15559641.107    83175166.249       -2190.371          48.000  
R23  18260351.402    97680532.857        1300.401          40.000  
R16  18335007.371    97942247.211        3794.271          35.000  
R 6  16572712.570    88435090.344        2550.427          42.000  
> 2019 11 26 15  6 25.9860000  0 21                     
G30  16297476.825    85643821.481        -711.105          54.000  
G13  17073201.877    89720265.544        1861.134          50.000  
G 7  17754132.634    93298580.172       -2548.303          50.000  
G 5  18005363.462    94618827.482       -2584.444          49.000  
G28  17975476.631    94461762.413        2365.476          46.000  
G 8  19141296.799   100588188.666         384.537          43.000  
G15  19246516.935   101141119.823        3110.275          44.000  
E30  21547529.256   113233004.700       -3109.762          28.000  
E19  19526881.764   102614438.920        -161.121          44.000  
E27  19559991.920   102788431.640        -865.265          48.000  
E21  20787210.687   109237527.407        2012.088          46.000  
E 4  22755656.350   119581751.567        2427.970          39.000  
G21  20970725.982   110201878.079        -870.633          27.000  
G 9  21631713.593   113675428.345       -4112.354          32.000  
E20  15961675.678    83879174.882       -2628.034          39.000  
R14  16565753.059    88304732.200       -3300.586          43.000  
R15  15160010.881    81010451.622         664.493          48.000  
R 5  15560050.873    83177356.751       -2191.066          48.000  
R23  18260108.128    97679232.933        1299.454          40.000  
R16  18334297.487    97938453.143        3793.596          35.000  
R 6  16572234.749    88432540.097        2549.689          42.000  
> 2019 11 26 15  6 26.9860000  0 21                     
G30  16297612.073    85644532.547        -711.521          54.000  
G13  17072847.794    89718404.321        1860.871          50.000  
G 7  17754617.235    93301128.216       -2548.500          50.000  
G 5  18005855.131    94621411.864       -2584.866          49.000  
G28  17975026.730    94459396.757        2365.148          46.000  
G 8  19141223.333   100587804.121         383.640          43.000  
G15  19245925.154   101138009.321        3110.153          44.000  
E30  21548122.109   113236114.387       -3109.727          28.000  
E19  19526912.389   102614599.952        -161.247          44.000  
E27  19560156.345   102789296.874        -865.621          48.000  
E21  20786827.445   109235515.191        2011.848          46.000  
E 4  22755194.137   119579323.028        2428.238          39.000  
G21  20970892.588   110202748.865        -870.929          27.000  
G 9  21632495.746   113679541.793       -4114.861          32.000  
E20  15962175.670    83881802.692       -2628.494          39.000  
R14  16566372.184    88308032.657       -3300.757          44.000  
R15  15159886.688    81009787.136         663.912          48.000  
R 5  15560461.276    83179547.865       -2191.554          48.000  
R23  18259865.160    97677933.691        1298.479          40.000  
R16  18333587.167    97934659.096        3793.915          35.000  
R 6  16571756.813    88429990.270        2549.243          42.000  
> 2019 11 26 15  6 27.9860000  0 21                     
G30  16297747.513    85645243.954        -711.260          54.000  
G13  17072493.755    89716543.376        1861.132          50.000  
G 7  17755101.889    93303676.428       -2548.004          50.000  
G 5  18006346.878    94623996.604       -2584.661          49.000  
G28  17974576.567    94457031.333        2365.660          46.000  
G 8  19141150.365   100587420.030         384.077          43.000  
G15  19245333.496   101134898.895        3110.761          44.000  
E30  21548712.878   113239224.012       -3109.312          29.000  
E19  19526943.241   102614761.250        -161.094          44.000  
E27  19560321.153   102790162.355        -865.246          48.000  
E21  20786444.780   109233503.103        2012.351          46.000  
E 4  22754731.881   119576894.501        2428.580          39.000  
G21  20971061.114   110203620.040        -871.142          27.000  
G 9  21633278.415   113683654.988       -4113.145          32.000  
E20  15962675.741    83884430.566       -2627.334          39.000  
R14  16566991.457    88311333.377       -3300.641          44.000  
R15  15159762.241    81009123.191         663.896          48.000  
R 5  15560871.513    83181739.576       -2191.768          48.000  
R23  18259622.445    97676635.119        1298.617          40.000  
R16  18332877.266    97930865.130        3794.732          35.000  
R 6  16571279.175    88427440.904        2549.292          42.000  
> 2019 11 26 15  6 28.9860000  0 21                     
G30  16297883.022    85645955.678        -712.024          53.000  
G13  17072139.682    89714682.671        1860.406          49.000  
G 7  17755587.136    93306224.763       -2548.468          49.000  
G 5  18006838.791    94626581.662       -2585.311          49.000  
G28  17974126.369    94454666.102        2364.983          46.000  
G 8  19141077.336   100587036.400         383.477          42.000  
G15  19244741.672   101131788.521        3110.346          44.000  
E30  21549304.545   113242333.580       -3109.812          28.000  
E19  19526973.979   102614922.750        -161.783          43.000  
E27  19560485.761   102791028.041        -866.002          48.000  
E21  20786061.817   109231491.110        2011.725          46.000  
E 4  22754269.686   119574465.907        2428.330          39.000  
G21  20971229.840   110204491.502        -872.242          27.000  
G 9  21634063.474   113687767.993       -4113.660          31.000  
E20  15963175.646    83887058.577       -2628.245          38.000  
R14  16567610.800    88314634.330       -3301.221          44.000  
R15  15159638.144    81008459.792         663.017          48.000  
R 5  15561281.785    83183931.856       -2192.691          48.000  
R23  18259380.114    97675337.180        1297.458          40.000  
R16  18332167.182    97927071.262        3793.613          35.000  
R 6  16570801.510    88424891.936        2548.688          42.000  
> 2019 11 26 15  6 29.9860000  0 21                     
G30  16298018.584    85646667.984        -712.682          53.000  
G13  17071785.826    89712822.471        1859.891          49.000  
G 7  17756072.261    93308773.502       -2548.932          49.000  
G 5  18007330.652    94629167.312       -2586.040          49.000  
G28  17973676.362    94452301.346        2364.376          46.000  
G 8  19141004.342   100586653.511         382.429          42.000  
G15  19244150.136   101128678.473        3110.001          44.000  
E30  21549897.285   113245443.325       -3109.999          28.000  
E19  19527004.526   102615084.715        -162.378          43.000  
E27  19560650.614   102791894.192        -866.622          48.000  
E21  20785679.134   109229479.469        2011.343          45.000  
E 4  22753807.395   119572037.516        2428.243          38.000  
G21  20971397.353   110205363.472        -872.554          27.000  
G 9  21634847.320   113691881.020       -4112.776          31.000  
E20  15963675.604    83889686.900       -2628.811          38.000  
R14  16568230.291    88317935.828       -3301.855          44.000  
R15  15159514.082    81007797.218         662.121          48.000  
R 5  15561692.354    83186124.989       -2193.708          48.000  
R23  18259137.730    97674040.157        1296.325          40.000  
R16  18331457.080    97923277.729        3793.229          35.000  
R 6  16570323.889    88422343.639        2547.955          43.000  
> 2019 11 26 15  6 30.9860000  0 21                     
G30  16298154.295    85647380.860        -712.879          53.000  
G13  17071431.761    89710962.762        1859.839          49.000  
G 7  17756557.350    93311322.637       -2548.990          49.000  
G 5  18007822.564    94631753.531       -2586.137          48.000  
G28  17973226.452    94449937.040        2364.538          46.000  
G 8  19140931.225   100586271.323         382.152          42.000  
G15  19243558.207   101125568.746        3109.870          44.000  
E30  21550486.500   113248553.278       -3109.617          28.000  
E19  19527035.203   102615247.146        -162.268          43.000  
E27  19560815.597   102792760.810        -866.544          48.000  
E21  20785296.119   109227468.189        2011.349          45.000  
E 4  22753345.653   119569609.355        2428.414          38.000  
G21  20971564.055   110206235.990        -871.652          27.000  
G 9  21635628.837   113695994.181       -4112.277          31.000  
E20  15964175.841    83892315.550       -2628.355          38.000  
R14  16568849.696    88321237.880       -3302.087          44.000  
R15  15159390.142    81007135.441         661.665          48.000  
R 5  15562102.958    83188318.960       -2194.177          48.000  
R23  18258895.670    97672744.021        1295.986          40.000  
R16  18330747.092    97919484.507        3793.777          36.000  
R 6  16569846.276    88419795.998        2547.626          43.000  
> 2019 11 26 15  6 31.9860000  0 21                     
G30  16298289.970    85648093.933        -713.075          53.000  
G13  17071077.766    89709103.205        1859.529          49.000  
G 7  17757042.309    93313871.782       -2549.071          49.000  
G 5  18008314.338    94634339.962       -2586.257          48.000  
G28  17972776.533    94447572.836        2364.222          46.000  
G 8  19140858.423   100585889.503         381.443          42.000  
G15  19242966.557   101122458.931        3110.109          44.000  
E30  21551077.696   113251663.084       -3109.792          28.000  
E19  19527066.256   102615409.698        -162.461          43.000  
E27  19560980.335   102793627.521        -866.555          48.000  
E21  20784913.375   109225456.892        2011.458          45.000  
E 4  22752883.676   119567181.016        2428.409          39.000  
G21  20971728.593   110207108.768        -872.872          27.000  
G 9  21636411.636   113700106.979       -4112.375          31.000  
E20  15964675.868    83894944.171       -2628.379          38.000  
R14  16569469.650    88324540.067       -3302.002          44.000  
R15  15159266.297    81006474.069         661.371          48.000  
R 5  15562513.823    83190513.410       -2194.573          48.000  
R23  18258653.792    97671448.389        1295.608          40.000  
R16  18330036.920    97915691.222        3793.552          36.000  
R 6  16569368.864    88417248.652        2547.009          43.000  
> 2019 11 26 15  6 32.9860000  0 21                     
G30  16298425.550    85648806.527        -712.998          53.000  
G13  17070723.780    89707243.086        1859.728          49.000  
G 7  17757527.103    93316420.259       -2548.844          49.000  
G 5  18008806.303    94636925.925       -2586.443          48.000  
G28  17972326.501    94445208.038        2364.355          46.000  
G 8  19140785.498   100585507.303         381.569          42.000  
G15  19242374.716   101119348.388        3110.374          44.000  
E30  21551672.103   113254771.970       -3108.865          28.000  
E19  19527097.125   102615571.649        -162.400          43.000  
E27  19561144.952   102794493.661        -866.557          48.000  
E21  20784530.421   109223444.891        2011.776          45.000  
E 4  22752421.612   119564751.825        2429.003          38.000  
G21  20971893.498   110207981.002        -872.901          27.000  
G 9  21637191.225   113704218.854       -4112.285          32.000  
E20  15965176.052    83897572.060       -2628.054          38.000  
R14  16570089.010    88327841.666       -3301.947          44.000  
R15  15159142.584    81005812.406         661.168          48.000  
R 5  15562924.401    83192707.643       -2194.749          48.000  
R23  18258411.871    97670152.603        1294.974          40.000  
R16  18329326.697    97911897.169        3793.482          36.000  
R 6  16568891.426    88414700.877        2547.284          43.000  
> 2019 11 26 15  6 33.9860000  0 21                     
G30  16298561.356    85649520.290        -714.196          53.000  
G13  17070370.125    89705384.059        1858.619          49.000  
G 7  17758012.201    93318969.724       -2549.894          49.000  
G 5  18009298.469    94639513.046       -2587.526          48.000  
G28  17971876.686    94442844.287        2363.452          46.000  
G 8  19140713.220   100585126.410         380.264          42.000  
G15  19241782.795   101116238.732        3109.375          44.000  
E30  21552262.662   113257881.692       -3110.332          28.000  
E19  19527128.239   102615734.663        -163.441          43.000  
E27  19561310.188   102795360.852        -867.633          48.000  
E21  20784147.528   109221433.836        2010.800          45.000  
E 4  22751959.408   119562323.438        2428.346          38.000  
G21  20972060.497   110208854.412        -874.410          27.000  
G 9  21637977.942   113708331.331       -4112.718          33.000  
E20  15965676.437    83900200.872       -2628.525          38.000  
R14  16570708.536    88331144.357       -3303.131          44.000  
R15  15159019.054    81005152.117         659.711          48.000  
R 5  15563335.275    83194903.304       -2196.269          48.000  
R23  18258170.098    97668858.306        1293.666          40.000  
R16  18328616.865    97908104.025        3792.497          36.000  
R 6  16568414.093    88412154.382        2546.021          43.000  
> 2019 11 26 15  6 34.9860000  0 21                     
G30  16298697.398    85650234.525        -714.868          53.000  
G13  17070016.610    89703525.449        1857.883          49.000  
G 7  17758497.326    93321519.488       -2550.443          49.000  
G 5  18009790.731    94642100.666       -2588.313          48.000  
G28  17971427.021    94440480.918        2362.651          46.000  
G 8  19140640.601   100584746.141         379.400          42.000  
G15  19241191.224   101113129.323        3108.746          44.000  
E30  21552852.602   113260991.480       -3109.688          28.000  
E19  19527159.397   102615898.051        -163.881          43.000  
E27  19561474.962   102796228.400        -868.114          48.000  
E21  20783764.862   109219423.050        2010.232          45.000  
E 4  22751497.204   119559895.172        2427.841          38.000  
G21  20972225.829   110209728.254        -874.645          27.000  
G 9  21638759.092   113712443.780       -4112.927          33.000  
E20  15966176.281    83902829.965       -2629.602          38.000  
R14  16571328.359    88334447.448       -3303.631          44.000  
R15  15158895.533    81004492.498         658.890          48.000  
R 5  15563745.835    83197099.695       -2197.198          48.000  
R23  18257928.535    97667564.827        1292.732          40.000  
R16  18327906.868    97904311.118        3792.352          36.000  
R 6  16567936.838    88409608.489        2545.007          43.000  
> 2019 11 26 15  6 35.9860000  0 21                     
G30  16298833.510    85650949.629        -715.116          53.000  
G13  17069662.938    89701667.623        1857.867          49.000  
G 7  17758982.564    93324069.926       -2550.372          49.000  
G 5  18010283.359    94644689.146       -2588.581          48.000  
G28  17970977.547    94438118.282        2362.653          46.000  
G 8  19140568.357   100584366.876         379.039          42.000  
G15  19240599.653   101110020.491        3109.141          44.000  
E30  21553444.234   113264101.767       -3110.252          28.000  
E19  19527190.484   102616062.211        -164.207          43.000  
E27  19561640.442   102797096.724        -868.351          48.000  
E21  20783382.685   109217412.896        2010.296          45.000  
E 4  22751035.402   119557467.414        2427.930          38.000  
G21  20972394.782   110210602.940        -874.782          27.000  
G 9  21639542.118   113716556.485       -4111.566          32.000  
E20  15966676.588    83905459.638       -2629.243          38.000  
R14  16571948.392    88337751.388       -3303.943          44.000  
R15  15158772.247    81003833.993         658.414          48.000  
R 5  15564157.084    83199297.208       -2197.630          48.000  
R23  18257687.033    97666272.553        1292.168          40.000  
R16  18327197.116    97900518.834        3792.565          36.000  
R 6  16567459.863    88407063.549        2545.050          43.000  
> 2019 11 26 15  6 36.9860000  0 21                     
G30  16298969.752    85651664.766        -715.586          52.000  
G13  17069309.248    89699809.768        1857.468          49.000  
G 7  17759467.959    93326620.230       -2550.692          48.000  
G 5  18010775.918    94647277.693       -2589.025          48.000  
G28  17970527.828    94435755.574        2362.475          45.000  
G 8  19140495.938   100583987.816         378.526          41.000  
G15  19240008.030   101106911.463        3108.750          43.000  
E30  21554036.896   113267211.731       -3110.347          27.000  
E19  19527221.380   102616226.301        -164.478          42.000  
E27  19561805.678   102797964.977        -868.571          47.000  
E21  20782999.923   109215402.576        2010.035          45.000  
E 4  22750573.075   119555039.321        2427.927          38.000  
G21  20972560.716   110211477.643        -874.755          26.000  
G 9  21640324.455   113720668.873       -4112.492          32.000  
E20  15967177.156    83908089.132       -2629.377          38.000  
R14  16572568.006    88341055.300       -3304.242          44.000  
R15  15158649.188    81003175.772         657.633          48.000  
R 5  15564568.359    83201495.040       -2198.401          48.000  
R23  18257445.548    97664980.656        1291.293          40.000  
R16  18326487.066    97896726.346        3792.078          36.000  
R 6  16566982.905    88404518.761        2544.318          43.000  
> 2019 11 26 15  6 37.9860000  0 21                     
G30  16299106.195    85652380.925        -716.566          53.000  
G13  17068956.029    89697952.854        1856.461          49.000  
G 7  17759953.416    93329171.355       -2551.604          48.000  
G 5  18011268.424    94649867.247       -2590.051          48.000  
G28  17970078.250    94433393.785        2361.448          45.000  
G 8  19140424.026   100583609.906         377.526          41.000  
G15  19239416.371   101103803.162        3107.982          43.000  
E30  21554629.924   113270322.301       -3110.860          27.000  
E19  19527252.965   102616391.309        -165.465          43.000  
E27  19561971.080   102798834.132        -869.365          47.000  
E21  20782617.441   109213393.050        2009.082          44.000  
E 4  22750110.985   119552611.884        2427.198          38.000  
G21  20972724.477   110212353.378        -876.066          26.000  
G 9  21641105.954   113724781.673       -4112.854          32.000  
E20  15967677.366    83910719.407       -2630.759          38.000  
R14  16573187.837    88344360.180       -3305.383          45.000  
R15  15158526.077    81002518.793         656.370          48.000  
R 5  15564979.487    83203694.164       -2199.848          48.000  
R23  18257204.377    97663690.112        1289.921          40.000  
R16  18325777.183    97892934.635        3791.309          36.000  
R 6  16566506.235    88401975.061        2543.280          43.000  
> 2019 11 26 15  6 38.9860000  0 21                     
G30  16299242.447    85653097.255        -716.621          53.000  
G13  17068602.654    89696096.039        1856.682          49.000  
G 7  17760438.881    93331722.473       -2551.130          48.000  
G 5  18011761.628    94652456.983       -2590.055          48.000  
G28  17969628.880    94431032.062        2361.448          45.000  
G 8  19140352.035   100583232.301         377.412          41.000  
G15  19238824.608   101100694.785        3108.109          43.000  
E30  21555222.263   113273432.706       -3110.516          27.000  
E19  19527284.078   102616556.372        -165.214          43.000  
E27  19562136.369   102799703.364        -869.316          47.000  
E21  20782234.941   109211383.475        2009.419          45.000  
E 4  22749648.694   119550184.249        2427.914          38.000  
G21  20972891.031   110213229.331        -876.566          26.000  
G 9  21641888.719   113728894.138       -4112.099          32.000  
E20  15968178.083    83913349.579       -2630.201          38.000  
R14  16573807.835    88347665.148       -3305.139          45.000  
R15  15158403.253    81001862.170         656.278          48.000  
R 5  15565391.198    83205893.723       -2199.890          48.000  
R23  18256963.215    97662400.072        1289.716          40.000  
R16  18325067.570    97889142.852        3791.430          36.000  
R 6  16566029.547    88399431.613        2543.280          43.000  
> 2019 11 26 15  6 39.9860000  0 21                     
G30  16299378.864    85653814.569        -717.775          53.000  
G13  17068249.496    89694240.143        1855.401          49.000  
G 7  17760924.372    93334274.407       -2552.426          48.000  
G 5  18012254.658    94655047.690       -2591.267          48.000  
G28  17969179.459    94428671.195        2360.516          45.000  
G 8  19140280.367   100582855.813         376.189          41.000  
G15  19238233.002   101097587.120        3107.304          43.000  
E30  21555815.369   113276543.629       -3110.611          28.000  
E19  19527315.541   102616722.322        -166.286          42.000  
E27  19562301.832   102800573.470        -870.496          47.000  
E21  20781852.668   109209374.667        2008.430          44.000  
E 4  22749186.813   119547757.243        2426.790          38.000  
G21  20973058.431   110214106.113        -877.101          26.000  
G 9  21642671.492   113733007.098       -4113.762          31.000  
E20  15968678.965    83915980.511       -2631.064          38.000  
R14  16574427.937    88350971.043       -3306.189          45.000  
R15  15158280.639    81001206.756         654.824          48.000  
R 5  15565802.866    83208094.534       -2201.366          48.000  
R23  18256722.201    97661111.348        1287.970          40.000  
R16  18324357.948    97885351.769        3790.793          36.000  
R 6  16565553.078    88396889.252        2541.626          43.000  
> 2019 11 26 15  6 40.9860000  0 21                     
G30  16299515.447    85654532.159        -718.044          53.000  
G13  17067896.304    89692384.459        1855.139          49.000  
G 7  17761410.020    93336826.416       -2552.386          48.000  
G 5  18012748.072    94657638.692       -2591.516          48.000  
G28  17968730.177    94426310.509        2360.138          45.000  
G 8  19140208.681   100582479.779         375.684          41.000  
G15  19237641.466   101094479.480        3107.403          43.000  
E30  21556404.698   113279654.509       -3110.453          27.000  
E19  19527347.335   102616888.454        -166.755          42.000  
E27  19562467.356   102801443.754        -870.869          47.000  
E21  20781470.482   109207365.915        2008.339          44.000  
E 4  22748724.827   119545330.156        2426.718          38.000  
G21  20973223.780   110214983.279        -878.153          27.000  
G 9  21643454.117   113737119.784       -4113.091          31.000  
E20  15969179.647    83918611.521       -2631.702          38.000  
R14  16575048.214    88354277.154       -3306.445          45.000  
R15  15158158.174    81000551.882         654.229          48.000  
R 5  15566215.215    83210295.882       -2201.969          48.000  
R23  18256481.100    97659823.234        1287.340          40.000  
R16  18323648.387    97881560.729        3790.338          36.000  
R 6  16565076.565    88394347.240        2541.449          43.000  
> 2019 11 26 15  6 41.9860000  0 21                     
G30  16299652.265    85655250.671        -719.076          53.000  
G13  17067543.294    89690529.614        1854.252          49.000  
G 7  17761895.738    93339379.179       -2553.222          48.000  
G 5  18013241.625    94660230.630       -2592.581          48.000  
G28  17968281.087    94423950.629        2359.312          45.000  
G 8  19140137.258   100582104.799         374.369          41.000  
G15  19237050.113   101091372.506        3106.627          43.000  
E30  21556998.677   113282765.951       -3111.608          28.000  
E19  19527379.095   102617055.390        -167.338          42.000  
E27  19562633.491   102802314.841        -871.632          47.000  
E21  20781088.374   109205357.876        2007.619          44.000  
E 4  22748263.434   119542903.610        2426.160          38.000  
G21  20973390.378   110215861.224        -877.968          27.000  
G 9  21644237.178   113741232.943       -4114.838          31.000  
E20  15969680.355    83921243.163       -2631.988          38.000  
R14  16575668.150    88357584.109       -3307.733          45.000  
R15  15158036.284    80999898.139         653.052          48.000  
R 5  15566627.337    83212498.414       -2203.316          48.000  
R23  18256240.375    97658536.381        1285.977          40.000  
R16  18322938.774    97877770.305        3789.906          36.000  
R 6  16564600.348    88391806.243        2540.466          43.000  
> 2019 11 26 15  6 42.9860000  0 21                     
G30  16299789.049    85655970.031        -719.488          53.000  
G13  17067190.495    89688675.546        1853.960          49.000  
G 7  17762381.779    93341932.604       -2553.339          48.000  
G 5  18013735.239    94662823.411       -2592.867          48.000  
G28  17967831.796    94421591.483        2358.886          45.000  
G 8  19140066.070   100581730.788         373.979          41.000  
G15  19236458.874   101088266.119        3106.502          43.000  
E30  21557592.037   113285877.832       -3111.725          28.000  
E19  19527411.413   102617223.093        -167.742          42.000  
E27  19562799.643   102803186.675        -871.940          47.000  
E21  20780706.415   109203350.459        2007.361          45.000  
E 4  22747801.894   119540477.560        2426.177          38.000  
G21  20973558.729   110216740.092        -878.647          27.000  
G 9  21645019.488   113745346.302       -4112.321          31.000  
E20  15970181.167    83923875.444       -2631.995          38.000  
R14  16576288.331    88360891.838       -3307.818          45.000  
R15  15157914.569    80999245.429         652.550          48.000  
R 5  15567039.476    83214702.062       -2203.905          48.000  
R23  18256000.059    97657250.709        1285.371          40.000  
R16  18322229.021    97873980.497        3789.816          35.000  
R 6  16564124.376    88389266.192        2540.021          43.000  
> 2019 11 26 15  6 43.9860000  0 21                     
G30  16299926.164    85656689.939        -719.977          53.000  
G13  17066837.747    89686821.954        1853.729          49.000  
G 7  17762867.803    93344486.395       -2553.756          48.000  
G 5  18014228.662    94665416.752       -2593.337          48.000  
G28  17967382.880    94419232.780        2358.656          45.000  
G 8  19139995.030   100581357.449         373.418          41.000  
G15  19235867.870   101085160.025        3106.203          43.000  
E30  21558183.024   113288989.897       -3111.817          28.000  
E19  19527443.015   102617391.225        -168.186          42.000  
E27  19562965.481   102804058.957        -872.343          47.000  
E21  20780324.447   109201343.372        2007.088          45.000  
E 4  22747340.178   119538051.693        2425.914          38.000  
G21  20973725.998   110217619.501        -879.558          27.000  
G 9  21645800.770   113749459.821       -4112.710          31.000  
E20  15970682.521    83926508.031       -2632.876          38.000  
R14  16576909.079    88364200.067       -3308.167          45.000  
R15  15157792.574    80998593.464         651.845          48.000  
R 5  15567451.650    83216906.533       -2204.690          48.000  
R23  18255759.639    97655965.917        1284.467          40.000  
R16  18321519.600    97870190.981        3790.083          36.000  
R 6  16563648.395    88386726.771        2539.563          43.000  
> 2019 11 26 15  6 44.9860000  0 21                     
G30  16300063.069    85657410.235        -720.382          53.000  
G13  17066484.869    89684968.695        1853.278          49.000  
G 7  17763353.887    93347040.393       -2553.982          48.000  
G 5  18014722.625    94668010.492       -2593.826          48.000  
G28  17966934.113    94416874.364        2358.224          45.000  
G 8  19139924.060   100580984.687         372.785          41.000  
G15  19235276.761   101082054.066        3105.918          43.000  
E30  21558774.385   113292101.988       -3112.081          28.000  
E19  19527475.289   102617559.649        -168.413          42.000  
E27  19563131.624   102804931.514        -872.586          47.000  
E21  20779942.305   109199336.470        2006.852          45.000  
E 4  22746878.559   119535625.859        2425.822          38.000  
G21  20973892.028   110218499.268        -879.933          27.000  
G 9  21646581.676   113753573.234       -4113.235          31.000  
E20  15971183.473    83929140.727       -2632.463          38.000  
R14  16577529.713    88367508.644       -3308.795          45.000  
R15  15157670.789    80997942.123         651.182          48.000  
R 5  15567864.034    83219111.672       -2205.361          48.000  
R23  18255519.419    97654681.820        1283.886          40.000  
R16  18320809.751    97866401.644        3789.403          36.000  
R 6  16563172.720    88384187.842        2538.855          43.000  
> 2019 11 26 15  6 45.9860000  0 21                     
G30  16300200.263    85658130.897        -720.913          53.000  
G13  17066132.235    89683115.710        1852.993          49.000  
G 7  17763839.867    93349594.563       -2554.159          48.000  
G 5  18015216.431    94670604.590       -2594.162          48.000  
G28  17966485.433    94414516.178        2358.271          45.000  
G 8  19139853.194   100580612.419         371.776          41.000  
G15  19234685.870   101078948.195        3105.920          43.000  
E30  21559366.969   113295214.020       -3112.139          28.000  
E19  19527507.685   102617728.318        -168.669          42.000  
E27  19563297.628   102805804.321        -872.849          47.000  
E21  20779560.782   109197329.683        2006.907          45.000  
E 4  22746417.079   119533199.996        2426.101          38.000  
G21  20974061.574   110219379.330        -880.045          27.000  
G 9  21647368.244   113757686.423       -4113.226          30.000  
E20  15971684.469    83931773.587       -2632.634          38.000  
R14  16578150.278    88370817.506       -3309.021          45.000  
R15  15157549.248    80997291.378         650.612          49.000  
R 5  15568276.557    83221317.410       -2205.954          48.000  
R23  18255279.234    97653398.417        1283.283          40.000  
R16  18320100.252    97862612.411        3789.121          36.000  
R 6  16562697.158    88381649.366        2538.452          43.000  
> 2019 11 26 15  6 46.9860000  0 20                     
G30  16300337.465    85658851.977        -721.229          53.000  
G13  17065779.758    89681263.107        1852.531          49.000  
G 7  17764325.960    93352148.992       -2554.543          48.000  
G 5  18015710.141    94673199.132       -2594.553          48.000  
G28  17966036.910    94412158.331        2357.833          45.000  
G 8  19139782.451   100580240.706         371.715          41.000  
G15  19234095.015   101075842.497        3105.848          43.000  
E30  21559962.248   113298326.101       -3111.930          28.000  
E19  19527539.829   102617897.323        -168.904          42.000  
E27  19563463.720   102806677.459        -873.147          47.000  
E21  20779179.146   109195323.126        2006.673          45.000  
E 4  22745955.259   119530774.234        2425.802          38.000  
G21  20974229.436   110220259.828        -880.257          27.000  
E20  15972185.194    83934406.642       -2633.473          38.000  
R14  16578770.956    88374126.751       -3309.406          45.000  
R15  15157427.847    80996641.287         649.950          49.000  
R 5  15568689.412    83223523.843       -2206.607          48.000  
R23  18255039.233    97652115.772        1282.828          40.000  
R16  18319390.743    97858823.370        3788.869          36.000  
R 6  16562221.753    88379111.418        2538.068          43.000  
> 2019 11 26 15  6 47.9860000  0 20                     
G30  16300474.825    85659573.455        -721.710          53.000  
G13  17065427.237    89679410.825        1851.957          48.000  
G 7  17764811.932    93354703.625       -2554.864          48.000  
G 5  18016204.087    94675794.072       -2595.222          48.000  
G28  17965588.509    94409800.769        2357.303          45.000  
G 8  19139711.603   100579869.568         370.760          41.000  
G15  19233504.168   101072736.933        3105.598          43.000  
E30  21560554.473   113301438.203       -3112.379          28.000  
E19  19527571.641   102618066.634        -169.671          42.000  
E27  19563629.793   102807550.885        -873.704          47.000  
E21  20778797.108   109193316.746        2006.035          45.000  
E 4  22745493.937   119528348.474        2425.611          38.000  
G21  20974396.610   110221140.751        -880.899          27.000  
E20  15972686.015    83937039.795       -2633.233          38.000  
R14  16579391.974    88377436.319       -3309.747          45.000  
R15  15157306.219    80995991.810         649.049          49.000  
R 5  15569102.231    83225730.945       -2207.577          48.000  
R23  18254799.449    97650833.879        1281.528          40.000  
R16  18318681.627    97855034.416        3788.849          36.000  
R 6  16561746.496    88376573.978        2537.024          43.000  
> 2019 11 26 15  6 48.9860000  0 20                     
G30  16300612.036    85660295.430        -722.200          53.000  
G13  17065074.813    89677558.956        1851.637          48.000  
G 7  17765298.112    93357258.559       -2555.073          48.000  
G 5  18016698.077    94678389.506       -2595.661          48.000  
G28  17965139.934    94407443.583        2356.847          45.000  
G 8  19139641.052   100579499.038         370.475          41.000  
G15  19232913.461   101069631.605        3105.358          43.000  
E30  21561141.804   113304550.448       -3112.321          28.000  
E19  19527603.854   102618236.325        -169.954          42.000  
E27  19563796.041   102808424.687        -873.856          47.000  
E21  20778415.106   109191310.634        2006.070          45.000  
E 4  22745032.849   119525922.854        2425.782          38.000  
G21  20974564.882   110222022.142        -881.441          27.000  
E20  15973187.281    83939673.249       -2633.565          38.000  
R14  16580012.609    88380746.299       -3310.156          45.000  
R15  15157184.931    80995343.016         648.492          48.000  
R 5  15569515.775    83227938.801       -2208.246          48.000  
R23  18254559.709    97649552.812        1280.819          40.000  
R16  18317972.267    97851245.730        3788.250          36.000  
R 6  16561271.169    88374037.114        2536.627          43.000  
> 2019 11 26 15  6 49.9860000  0 20                     
G30  16300749.500    85661017.820        -722.763          53.000  
G13  17064722.633    89675707.444        1851.050          48.000  
G 7  17765784.432    93359813.748       -2555.560          48.000  
G 5  18017192.049    94680985.368       -2596.439          48.000  
G28  17964691.236    94405086.706        2356.466          45.000  
G 8  19139570.798   100579129.092         369.338          41.000  
G15  19232322.570   101066526.450        3104.757          43.000  
E30  21561731.429   113307662.699       -3112.628          29.000  
E19  19527636.424   102618406.325        -170.438          42.000  
E27  19563962.412   102809298.813        -874.380          47.000  
E21  20778033.609   109189304.731        2005.468          45.000  
E 4  22744571.056   119523497.297        2425.171          38.000  
G21  20974731.697   110222903.950        -882.265          27.000  
E20  15973688.391    83942306.871       -2634.456          38.000  
R14  16580633.522    88384056.625       -3310.693          45.000  
R15  15157063.722    80994694.875         647.508          48.000  
R 5  15569928.805    83230147.342       -2209.064          48.000  
R23  18254320.100    97648272.477        1279.802          40.000  
R16  18317262.986    97847457.164        3788.080          36.000  
R 6  16560795.965    88371500.782        2535.779          43.000  
> 2019 11 26 15  6 50.9860000  0 20                     
G30  16300887.147    85661740.730        -723.225          53.000  
G13  17064370.269    89673856.376        1850.734          48.000  
G 7  17766270.805    93362369.254       -2555.723          48.000  
G 5  18017686.370    94683581.734       -2596.665          48.000  
G28  17964242.932    94402730.225        2356.195          45.000  
G 8  19139500.726   100578759.785         369.075          41.000  
G15  19231731.365   101063421.533        3104.810          43.000  
E30  21562327.206   113310775.071       -3112.549          29.000  
E19  19527668.891   102618576.739        -170.686          42.000  
E27  19564128.843   102810173.352        -874.910          47.000  
E21  20777652.191   109187299.109        2005.442          45.000  
E 4  22744109.462   119521071.883        2425.088          38.000  
G21  20974898.644   110223786.161        -882.287          27.000  
E20  15974189.447    83944940.741       -2634.135          38.000  
R14  16581254.506    88387367.421       -3311.090          45.000  
R15  15156942.522    80994047.443         647.114          48.000  
R 5  15570341.965    83232356.652       -2209.694          48.000  
R23  18254080.980    97646992.989        1278.753          40.000  
R16  18316553.966    97843668.869        3788.035          36.000  
R 6  16560320.892    88368965.033        2535.596          43.000  
> 2019 11 26 15  6 51.9860000  0 21                     
G30  16301024.873    85662464.198        -723.781          53.000  
G13  17064018.071    89672005.809        1850.291          48.000  
G 7  17766757.195    93364925.152       -2556.059          48.000  
G 5  18018180.665    94686178.678       -2597.275          48.000  
G28  17963794.426    94400374.214        2355.617          45.000  
G 8  19139430.576   100578391.201         368.460          41.000  
G15  19231140.440   101060316.932        3104.331          43.000  
E30  21562920.452   113313887.678       -3112.772          29.000  
E19  19527701.453   102618747.624        -171.223          42.000  
E27  19564295.362   102811048.336        -875.282          47.000  
E21  20777270.528   109185293.852        2004.991          45.000  
E 4  22743647.416   119518646.691        2425.051          38.000  
G21  20975064.935   110224668.984        -882.326          27.000  
G 9  21652067.562   113782382.1471      -4113.298          32.000  
E20  15974690.740    83947574.953       -2634.373          37.000  
R14  16581875.777    88390678.740       -3311.609          45.000  
R15  15156821.391    80993400.806         646.212          48.000  
R 5  15570755.221    83234566.793       -2210.546          48.000  
R23  18253842.148    97645714.392        1278.152          40.000  
R16  18315844.693    97839880.923        3787.550          36.000  
R 6  16559845.958    88366429.959        2534.772          43.000  
> 2019 11 26 15  6 52.9860000  0 21                     
G30  16301162.712    85663188.171        -723.911          53.000  
G13  17063665.970    89670155.670        1850.160          48.000  
G 7  17767243.951    93367481.368       -2556.162          49.000  
G 5  18018674.951    94688776.131       -2597.544          49.000  
G28  17963346.479    94398018.585        2355.654          45.000  
G 8  19139360.470   100578023.255         368.192          41.000  
G15  19230549.445   101057212.569        3104.364          43.000  
E30  21563512.608   113317000.393       -3113.105          29.000  
E19  19527733.832   102618918.901        -171.303          42.000  
E27  19564462.073   102811923.719        -875.357          47.000  
E21  20776889.241   109183288.869        2004.929          45.000  
E 4  22743186.311   119516221.599        2425.141          38.000  
G21  20975233.330   110225552.345        -883.493          27.000  
G 9  21652850.658   113786495.045       -4112.158          32.000  
E20  15975191.674    83950209.441       -2634.770          37.000  
R14  16582496.944    88393990.489       -3311.786          45.000  
R15  15156700.365    80992754.881         645.863          48.000  
R 5  15571168.677    83236777.692       -2211.056          48.000  
R23  18253603.176    97644436.641        1277.347          40.000  
R16  18315135.665    97836093.236        3787.828          37.000  
R 6  16559371.068    88363895.483        2534.326          43.000  
> 2019 11 26 15  6 53.9860000  0 21                     
G30  16301300.569    85663912.537        -724.647          53.000  
G13  17063313.876    89668305.847        1849.611          48.000  
G 7  17767730.629    93370037.795       -2556.611          49.000  
G 5  18019169.377    94691373.973       -2598.105          49.000  
G28  17962898.139    94395663.244        2355.050          45.000  
G 8  19139290.425   100577655.858         367.013          41.000  
G15  19229958.650   101054108.326        3104.316          43.000  
E30  21564105.523   113320113.065       -3112.691          29.000  
E19  19527766.812   102619090.464        -171.786          42.000  
E27  19564628.618   102812799.391        -875.833          47.000  
E21  20776507.675   109181284.063        2004.693          45.000  
E 4  22742724.718   119513796.556        2425.033          38.000  
G21  20975402.492   110226436.043        -884.287          27.000  
G 9  21653632.008   113790607.846       -4112.733          31.000  
E20  15975692.984    83952844.052       -2634.469          38.000  
R14  16583118.285    88397302.546       -3312.305          45.000  
R15  15156579.409    80992109.571         645.012          48.000  
R 5  15571582.274    83238989.247       -2211.886          48.000  
R23  18253364.317    97643159.601        1276.695          40.000  
R16  18314426.689    97832305.677        3787.525          36.000  
R 6  16558896.326    88361361.476        2533.698          43.000  
> 2019 11 26 15  6 54.9860000  0 21                     
G30  16301438.330    85664637.389        -725.110          53.000  
G13  17062961.984    89666456.442        1849.069          48.000  
G 7  17768217.158    93372594.521       -2556.817          49.000  
G 5  18019663.776    94693972.300       -2598.609          49.000  
G28  17962449.843    94393308.271        2354.745          45.000  
G 8  19139220.676   100577289.073         366.292          41.000  
G15  19229367.960   101051004.332        3103.802          43.000  
E30  21564697.853   113323225.891       -3112.919          29.000  
E19  19527799.802   102619262.407        -172.214          42.000  
E27  19564795.372   102813675.441        -876.311          47.000  
E21  20776126.344   109179279.530        2004.239          45.000  
E 4  22742263.203   119511371.637        2424.709          38.000  
G21  20975571.227   110227320.156        -884.592          27.000  
G 9  21654416.509   113794720.554       -4112.505          31.000  
E20  15976194.617    83955478.960       -2635.344          37.000  
R14  16583739.399    88400615.004       -3312.646          45.000  
R15  15156458.330    80991464.980         644.217          48.000  
R 5  15571996.202    83241201.577       -2212.739          48.000  
R23  18253125.345    97641883.384        1275.955          40.000  
R16  18313717.800    97828518.344        3787.245          37.000  
R 6  16558421.610    88358828.062        2533.215          43.000  
> 2019 11 26 15  6 55.9860000  0 21                     
G30  16301576.405    85665362.801        -725.635          53.000  
G13  17062610.057    89664607.537        1848.688          48.000  
G 7  17768703.801    93375151.637       -2557.324          49.000  
G 5  18020158.464    94696571.202       -2599.207          49.000  
G28  17962002.132    94390953.767        2354.155          45.000  
G 8  19139151.041   100576922.972         366.027          41.000  
G15  19228777.244   101047900.626        3103.644          42.000  
E30  21565291.213   113326338.890       -3113.095          29.000  
E19  19527832.486   102619434.826        -172.710          42.000  
E27  19564961.847   102814551.953        -876.792          47.000  
E21  20775744.655   109177275.343        2003.937          45.000  
E 4  22741801.706   119508946.913        2424.708          38.000  
G21  20975739.325   110228204.823        -884.769          27.000  
G 9  21655193.375   113798833.432       -4113.123          30.000  
E20  15976696.197    83958114.139       -2635.615          37.000  
R14  16584360.767    88403927.966       -3313.183          45.000  
R15  15156337.924    80990821.178         643.491          48.000  
R 5  15572409.990    83243414.723       -2213.506          48.000  
R23  18252887.054    97640608.087        1274.924          40.000  
R16  18313009.251    97824731.312        3786.763          37.000  
R 6  16557947.086    88356295.315        2532.465          43.000  
> 2019 11 26 15  6 56.9860000  0 21                     
G30  16301714.287    85666088.749        -726.296          52.000  
G13  17062258.339    89662759.078        1848.224          48.000  
G 7  17769190.470    93377709.096       -2557.675          49.000  
G 5  18020653.378    94699170.613       -2599.567          49.000  
G28  17961554.760    94388599.672        2353.900          45.000  
G 8  19139081.520   100576557.572         365.134          41.000  
G15  19228186.493   101044797.193        3103.232          42.000  
E30  21565885.087   113329452.071       -3113.382          29.000  
E19  19527865.415   102619607.657        -173.152          42.000  
E27  19565128.592   102815428.873        -877.211          47.000  
E21  20775363.455   109175271.451        2003.638          45.000  
E 4  22741340.331   119506522.366        2424.527          38.000  
G21  20975905.512   110229090.100        -885.764          26.000  
G 9  21655978.147   113802946.213       -4112.353          30.000  
E20  15977197.865    83960749.605       -2635.323          37.000  
R14  16584982.247    88407241.386       -3313.574          45.000  
R15  15156217.561    80990178.093         642.785          48.000  
R 5  15572824.023    83245628.643       -2214.300          48.000  
R23  18252648.788    97639333.629        1273.928          40.000  
R16  18312300.894    97820944.537        3786.675          37.000  
R 6  16557472.562    88353763.188        2531.561          43.000  
> 2019 11 26 15  6 57.9860000  0 21                     
G30  16301852.450    85666815.040        -726.717          52.000  
G13  17061906.708    89660910.909        1847.851          48.000  
G 7  17769677.052    93380266.710       -2557.765          49.000  
G 5  18021148.013    94701770.395       -2600.081          49.000  
G28  17961106.805    94386245.821        2353.664          45.000  
G 8  19139012.277   100576192.664         364.237          41.000  
G15  19227595.707   101041693.841        3103.149          42.000  
E30  21566477.566   113332565.155       -3113.085          29.000  
E19  19527898.509   102619780.744        -173.509          42.000  
E27  19565295.504   102816306.044        -877.512          47.000  
E21  20774982.203   109173267.699        2003.425          45.000  
E 4  22740878.825   119504097.785        2424.555          38.000  
G21  20976075.600   110229975.609        -885.837          26.000  
G 9  21656761.478   113807058.889       -4112.942          29.000  
E20  15977699.567    83963385.200       -2635.644          37.000  
R14  16585603.877    88410555.131       -3314.130          45.000  
R15  15156097.556    80989535.584         641.984          48.000  
R 5  15573238.352    83247843.175       -2215.110          48.000  
R23  18252410.750    97638059.864        1273.079          41.000  
R16  18311592.529    97817157.868        3786.074          37.000  
R 6  16556998.178    88351231.492        2531.281          43.000  
> 2019 11 26 15  6 58.9860000  0 21                     
G30  16301990.699    85667541.807        -727.041          52.000  
G13  17061555.078    89659063.152        1847.499          48.000  
G 7  17770164.018    93382824.643       -2558.125          49.000  
G 5  18021642.901    94704370.658       -2600.503          49.000  
G28  17960659.268    94383892.357        2353.349          45.000  
G 8  19138943.078   100575828.378         363.698          41.000  
G15  19227005.035   101038590.723        3103.094          42.000  
E30  21567069.905   113335678.377       -3112.910          29.000  
E19  19527931.516   102619954.203        -173.563          42.000  
E27  19565462.694   102817183.588        -877.736          47.000  
E21  20774601.107   109171264.215        2003.360          45.000  
E 4  22740417.485   119501673.345        2424.454          38.000  
G21  20976242.764   110230861.601        -886.345          26.000  
G 9  21657552.182   113811171.477       -4112.535          29.000  
E20  15978200.964    83966021.030       -2635.922          37.000  
R14  16586225.462    88413869.282       -3314.319          45.000  
R15  15155977.245    80988893.789         641.477          48.000  
R 5  15573652.777    83250058.449       -2215.674          48.000  
R23  18252172.930    97636786.895        1272.553          41.000  
R16  18310883.823    97813371.427        3786.153          37.000  
R 6  16556523.785    88348700.389        2530.811          43.000  
> 2019 11 26 15  6 59.9860000  0 21                     
G30  16302129.036    85668268.987        -727.542          52.000  
G13  17061203.735    89657215.729        1847.109          48.000  
G 7  17770651.001    93385382.792       -2558.457          49.000  
G 5  18022137.720    94706971.332       -2600.955          48.000  
G28  17960211.678    94381539.182        2352.940          45.000  
G 8  19138874.211   100575464.620         363.286          41.000  
G15  19226414.284   101035487.755        3102.701          42.000  
E30  21567660.568   113338791.638       -3113.273          29.000  
E19  19527964.078   102620127.968        -173.989          42.000  
E27  19565630.016   102818061.430        -878.130          47.000  
E21  20774219.506   109169260.923        2003.088          45.000  
E 4  22739956.197   119499248.942        2424.250          37.000  
G21  20976409.100   110231747.974        -886.287          25.000  
G 9  21658335.034   113815283.994       -4112.550          28.000  
E20  15978702.658    83968657.017       -2635.808          37.000  
R14  16586847.370    88417183.759       -3314.880          45.000  
R15  15155857.310    80988252.587         640.685          48.000  
R 5  15574067.159    83252274.410       -2216.338          48.000  
R23  18251935.205    97635514.685        1271.717          41.000  
R16  18310175.144    97809585.168        3786.108          37.000  
R 6  16556049.654    88346169.774        2530.267          43.000  
> 2019 11 26 15  7  0.9860000  0 21                     
G30  16302267.372    85668996.635        -727.783          52.000  
G13  17060852.209    89655368.701        1846.933          48.000  
G 7  17771137.889    93387941.225       -2558.509          49.000  
G 5  18022632.800    94709572.490       -2601.305          48.000  
G28  17959763.923    94379186.364        2352.769          45.000  
G 8  19138805.056   100575101.482         362.928          41.000  
G15  19225824.065   101032384.997        3102.827          42.000  
E30  21568253.937   113341904.940       -3112.843          29.000  
E19  19527997.278   102620302.114        -174.295          42.000  
E27  19565796.979   102818939.643        -878.368          47.000  
E21  20773838.594   109167257.883        2003.034          45.000  
E 4  22739494.560   119496824.646        2424.281          38.000  
G21  20976577.965   110232634.863        -887.333          25.000  
G 9  21659116.106   113819396.494       -4112.352          27.000  
E20  15979204.003    83971293.313       -2636.656          37.000  
R14  16587469.383    88420498.606       -3314.868          45.000  
R15  15155737.890    80987612.042         640.327          48.000  
R 5  15574482.011    83254491.121       -2216.923          48.000  
R23  18251697.420    97634243.274        1271.090          41.000  
R16  18309466.621    97805799.119        3785.958          37.000  
R 6  16555575.514    88343639.743        2529.797          43.000  
> 2019 11 26 15  7  1.9860000  0 21                     
G30  16302406.040    85669724.690        -728.309          52.000  
G13  17060500.910    89653522.023        1846.471          48.000  
G 7  17771624.933    93390499.888       -2558.892          49.000  
G 5  18023127.575    94712174.054       -2601.777          48.000  
G28  17959316.473    94376833.853        2352.184          45.000  
G 8  19138736.127   100574738.891         362.325          41.000  
G15  19225233.672   101029282.388        3102.533          42.000  
E30  21568848.771   113345018.335       -3113.212          29.000  
E19  19528030.424   102620476.554        -174.608          42.000  
E27  19565964.222   102819818.165        -878.859          47.000  
E21  20773457.324   109165255.043        2002.530          45.000  
E 4  22739033.308   119494400.391        2424.319          38.000  
G21  20976744.109   110233522.138        -888.284          25.000  
G 9  21659895.249   113823508.871       -4112.586          27.000  
E20  15979705.679    83973929.694       -2636.649          37.000  
R14  16588091.047    88423813.825       -3315.509          45.000  
R15  15155618.582    80986972.164         639.415          48.000  
R 5  15574896.663    83256708.529       -2217.809          48.000  
R23  18251459.888    97632972.619        1270.271          41.000  
R16  18308758.081    97802013.267        3785.449          37.000  
R 6  16555101.627    88341110.209        2529.340          43.000  
> 2019 11 26 15  7  2.9860000  0 21                     
G30  16302544.586    85670452.631        -728.091          52.000  
G13  17060149.506    89651675.156        1846.712          48.000  
G 7  17772111.680    93393058.252       -2558.409          49.000  
G 5  18023622.367    94714775.499       -2601.385          48.000  
G28  17958868.902    94374481.097        2352.768          45.000  
G 8  19138666.920   100574376.353         362.304          41.000  
G15  19224643.104   101026179.417        3102.995          42.000  
E30  21569437.786   113348131.189       -3112.617          29.000  
E19  19528063.684   102620650.771        -174.131          42.000  
E27  19566131.230   102820696.444        -878.222          47.000  
E21  20773076.281   109163251.858        2003.055          45.000  
E 4  22738571.871   119491975.668        2425.005          38.000  
G21  20976911.326   110234409.147        -886.612          25.000  
G 9  21660676.871   113827620.517       -4110.829          27.000  
E20  15980206.858    83976565.744       -2636.105          37.000  
R14  16588713.191    88427128.852       -3315.125          45.000  
R15  15155498.979    80986332.385         639.689          48.000  
R 5  15575311.481    83258926.057       -2217.705          48.000  
R23  18251222.643    97631702.162        1270.190          41.000  
R16  18308049.315    97798226.947        3786.667          36.000  
R 6  16554627.409    88338580.643        2529.535          43.000  
> 2019 11 26 15  7  3.9860000  0 21                     
G30  16302683.185    85671181.102        -728.835          52.000  
G13  17059798.155    89649828.754        1846.089          48.000  
G 7  17772598.716    93395616.964       -2558.912          49.000  
G 5  18024117.255    94717377.495       -2602.393          48.000  
G28  17958421.068    94372128.787        2351.936          45.000  
G 8  19138598.009   100574014.479         361.515          42.000  
G15  19224052.772   101023076.711        3102.389          42.000  
E30  21570031.250   113351244.238       -3113.218          29.000  
E19  19528097.241   102620825.432        -174.798          42.000  
E27  19566298.865   102821575.163        -878.891          47.000  
E21  20772695.256   109161248.982        2002.763          45.000  
E 4  22738110.130   119489551.119        2424.342          38.000  
G21  20977079.659   110235296.844        -887.643          25.000  
G 9  21661459.653   113831732.328       -4112.715          29.000  
E20  15980708.744    83979202.099       -2636.757          37.000  
R14  16589335.353    88430444.363       -3315.936          45.000  
R15  15155379.209    80985693.373         638.600          48.000  
R 5  15575726.543    83261144.350       -2218.716          48.000  
R23  18250985.259    97630432.556        1269.207          41.000  
R16  18307340.853    97794440.931        3786.013          36.000  
R 6  16554153.557    88336051.695        2528.564          43.000  
> 2019 11 26 15  7  4.9860000  0 21                     
G30  16302821.783    85671909.604        -728.346          52.000  
G13  17059446.978    89647982.307        1846.626          48.000  
G 7  17773085.656    93398175.520       -2558.313          49.000  
G 5  18024612.466    94719979.519       -2601.975          48.000  
G28  17957973.548    94369776.395        2352.494          45.000  
G 8  19138529.351   100573652.774         361.770          42.000  
G15  19223462.300   101019973.776        3103.191          42.000  
E30  21570622.935   113354356.891       -3112.314          29.000  
E19  19528130.414   102621000.016        -174.381          42.000  
E27  19566465.960   102822453.802        -878.475          47.000  
E21  20772314.030   109159245.932        2003.224          45.000  
E 4  22737648.816   119487126.207        2425.264          38.000  
G21  20977251.875   110236184.488        -887.562          25.000  
G 9  21662238.255   113835843.596       -4111.357          30.000  
E20  15981210.342    83981838.203       -2636.037          37.000  
R14  16589957.392    88433759.808       -3315.332          45.000  
R15  15155259.544    80985054.588         638.750          48.000  
R 5  15576141.553    83263362.910       -2218.521          48.000  
R23  18250747.945    97629163.330        1269.011          41.000  
R16  18306632.008    97790654.706        3786.466          36.000  
R 6  16553679.539    88333522.869        2528.687          43.000  
> 2019 11 26 15  7  5.9860000  0 21                     
G30  16302960.591    85672638.227        -728.969          52.000  
G13  17059095.583    89646135.931        1845.977          48.000  
G 7  17773572.499    93400734.018       -2558.770          49.000  
G 5  18025107.450    94722581.675       -2602.620          48.000  
G28  17957525.898    94367424.001        2352.218          45.000  
G 8  19138460.711   100573291.355         361.089          42.000  
G15  19222872.082   101016870.716        3102.817          42.000  
E30  21571210.152   113357469.287       -3112.304          30.000  
E19  19528163.500   102621174.627        -174.924          42.000  
E27  19566633.447   102823332.459        -878.962          47.000  
E21  20771932.795   109157242.788        2002.946          45.000  
E 4  22737187.554   119484701.076        2425.195          38.000  
G21  20977422.294   110237072.209        -887.812          25.000  
G 9  21663022.852   113839954.483       -4111.353          30.000  
E20  15981712.044    83984474.220       -2636.078          37.000  
R14  16590579.256    88437075.308       -3315.765          45.000  
R15  15155139.844    80984416.135         637.882          48.000  
R 5  15576556.799    83265581.865       -2219.430          48.000  
R23  18250511.119    97627894.523        1268.047          41.000  
R16  18305923.354    97786868.340        3785.963          36.000  
R 6  16553205.705    88330994.268        2528.033          43.000  
> 2019 11 26 15  7  6.9860000  0 21                     
G30  16303099.372    85673367.450        -729.818          52.000  
G13  17058744.293    89644290.066        1845.258          48.000  
G 7  17774059.491    93403292.920       -2559.250          49.000  
G 5  18025602.748    94725184.421       -2603.427          48.000  
G28  17957078.134    94365072.120        2351.210          45.000  
G 8  19138392.288   100572930.660         360.094          42.000  
G15  19222281.741   101013767.997        3102.065          42.000  
E30  21571802.674   113360581.914       -3112.800          30.000  
E19  19528196.690   102621349.727        -175.574          42.000  
E27  19566800.655   102824211.614        -879.766          47.000  
E21  20771551.673   109155240.015        2002.367          45.000  
E 4  22736726.415   119482276.180        2424.899          38.000  
G21  20977594.536   110237960.608        -889.213          25.000  
G 9  21663809.586   113844065.394       -4111.693          30.000  
E20  15982213.764    83987110.608       -2637.293          37.000  
R14  16591201.723    88440391.342       -3316.479          45.000  
R15  15155020.380    80983778.478         636.928          48.000  
R 5  15576972.245    83267801.692       -2220.592          48.000  
R23  18250274.128    97626626.624        1267.275          41.000  
R16  18305214.195    97783082.320        3785.349          36.000  
R 6  16552731.949    88328466.353        2527.155          44.000  
> 2019 11 26 15  7  7.9860000  0 21                     
G30  16303238.442    85674097.813        -730.741          52.000  
G13  17058392.994    89642445.282        1844.538          48.000  
G 7  17774546.344    93405852.794       -2560.080          49.000  
G 5  18026097.994    94727788.317       -2604.150          48.000  
G28  17956630.649    94362721.257        2350.604          45.000  
G 8  19138323.665   100572571.260         358.922          41.000  
G15  19221691.601   101010666.139        3101.713          42.000  
E30  21572400.423   113363695.339       -3113.810          30.000  
E19  19528230.273   102621525.863        -176.369          42.000  
E27  19566968.308   102825091.790        -880.387          47.000  
E21  20771170.831   109153238.177        2001.684          45.000  
E 4  22736265.459   119479852.073        2424.182          38.000  
G21  20977767.634   110238850.082        -890.959          25.000  
G 9  21664588.224   113848176.936       -4112.098          30.000  
E20  15982715.790    83989747.852       -2637.575          37.000  
R14  16591824.268    88443708.538       -3318.060          46.000  
R15  15154901.274    80983142.253         635.124          49.000  
R 5  15577387.542    83270022.993       -2222.368          50.000  
R23  18250037.573    97625360.292        1265.278          41.000  
R16  18304505.804    97779297.268        3784.546          36.000  
R 6  16552258.559    88325939.747        2525.629          44.000  
> 2019 11 26 15  7  8.9860000  0 21                     
G30  16303377.887    85674830.351        -733.341          52.000  
G13  17058042.288    89640602.608        1841.916          48.000  
G 7  17775033.815    93408414.653       -2562.613          49.000  
G 5  18026593.589    94730394.402       -2606.998          48.000  
G28  17956183.610    94360372.465        2348.087          45.000  
G 8  19138255.487   100572214.160         356.022          41.000  
G15  19221101.661   101007566.221        3099.196          42.000  
E30  21572991.627   113366810.473       -3115.259          30.000  
E19  19528264.109   102621704.088        -179.012          42.000  
E27  19567135.647   102825974.046        -882.978          47.000  
E21  20770790.224   109151238.288        1999.278          45.000  
E 4  22735804.974   119477429.780        2421.769          38.000  
G21  20977941.325   110239741.586        -891.583          25.000  
G 9  21665370.848   113852290.176       -4114.148          30.000  
E20  15983218.155    83992387.061       -2639.714          37.000  
R14  16592447.416    88447027.795       -3319.989          46.000  
R15  15154782.726    80982508.385         632.924          50.000  
R 5  15577804.018    83272246.694       -2224.722          50.000  
R23  18249801.340    97624096.423        1263.177          42.000  
R16  18303797.630    97775514.124        3782.609          37.000  
R 6  16551785.458    88323415.371        2523.486          44.000  
> 2019 11 26 15  7  9.9860000  0 21                     
G30  16303517.410    85675563.988        -733.728          52.000  
G13  17057691.879    89638760.961        1841.697          48.000  
G 7  17775521.453    93410977.430       -2562.799          49.000  
G 5  18027089.777    94733001.574       -2607.140          48.000  
G28  17955736.823    94358024.669        2347.720          45.000  
G 8  19138187.702   100571858.338         355.453          41.000  
G15  19220511.949   101004467.120        3099.238          42.000  
E30  21573586.052   113369926.432       -3116.251          30.000  
E19  19528298.207   102621883.286        -179.114          42.000  
E27  19567303.823   102826857.289        -883.250          47.000  
E21  20770409.696   109149239.285        1999.061          44.000  
E 4  22735344.140   119475008.224        2421.674          38.000  
G21  20978111.621   110240634.335        -893.002          25.000  
G 9  21666153.386   113856404.000       -4113.896          31.000  
E20  15983720.390    83995027.158       -2640.339          37.000  
R14  16593070.467    88450348.103       -3320.331          46.000  
R15  15154664.745    80981875.859         632.408          50.000  
R 5  15578220.878    83274471.784       -2225.329          50.000  
R23  18249565.361    97622834.026        1262.250          42.000  
R16  18303089.317    97771731.874        3781.794          37.000  
R 6  16551312.731    88320892.209        2523.016          45.000  
> 2019 11 26 15  7 10.9860000  0 21                     
G30  16303656.820    85676297.969        -734.434          52.000  
G13  17057341.417    89636919.601        1841.000          48.000  
G 7  17776009.195    93413540.370       -2563.250          49.000  
G 5  18027585.922    94735609.109       -2607.914          48.000  
G28  17955289.879    94355677.115        2347.173          45.000  
G 8  19138119.969   100571502.993         354.796          41.000  
G15  19219922.096   101001368.132        3098.758          42.000  
E30  21574178.050   113373042.260       -3115.956          30.000  
E19  19528332.357   102622062.741        -179.622          42.000  
E27  19567471.886   102827740.770        -883.684          47.000  
E21  20770029.403   109147240.411        1998.636          44.000  
E 4  22734883.131   119472586.635        2421.604          38.000  
G21  20978279.780   110241527.350        -893.477          25.000  
G 9  21666936.264   113860517.634       -4113.353          31.000  
E20  15984222.912    83997667.287       -2640.293          37.000  
R14  16593693.553    88453668.672       -3321.045          46.000  
R15  15154546.677    80981243.904         631.406          50.000  
R 5  15578637.397    83276697.492       -2226.213          50.000  
R23  18249329.260    97621572.335        1260.983          42.000  
R16  18302381.379    97767949.661        3781.630          37.000  
R 6  16550840.118    88318369.481        2522.290          45.000  
> 2019 11 26 15  7 11.9860000  0 21                     
G30  16303796.901    85677032.183        -733.916          52.000  
G13  17056991.348    89635078.401        1841.412          48.000  
G 7  17776496.894    93416103.361       -2562.673          49.000  
G 5  18028082.215    94738216.884       -2607.534          48.000  
G28  17954843.285    94353329.686        2347.519          45.000  
G 8  19138052.358   100571148.026         355.081          41.000  
G15  19219332.165   100998269.097        3099.538          41.000  
E30  21574775.938   113376157.985       -3115.519          30.000  
E19  19528366.402   102622242.337        -179.432          42.000  
E27  19567639.906   102828624.384        -883.313          47.000  
E21  20769649.329   109145241.551        1999.156          44.000  
E 4  22734422.279   119470164.936        2422.103          38.000  
G21  20978449.318                3       -893.099          25.000  
G 9  21667717.275   113864631.024       -4112.994          31.000  
E20  15984725.557    84000307.446       -2639.426          37.000  
R14  16594316.578    88456989.405       -3320.428          46.000  
R15  15154428.617    80980612.393         631.719          50.000  
R 5  15579054.265    83278923.706       -2226.124          50.000  
R23  18249093.725    97620311.175        1261.231          42.000  
R16  18301673.197    97764167.420        3782.503          37.000  
R 6  16550367.348    88315847.086        2522.717          45.000  
> 2019 11 26 15  7 12.9860000  0 21                     
G30  16303936.451    85677766.575        -734.715          52.000  
G13  17056640.739    89633237.298        1840.937          48.000  
G 7  17776984.567    93418666.346       -2563.256          48.000  
G 5  18028578.220    94740824.834       -2608.053          48.000  
G28  17954396.646    94350982.315        2347.123          45.000  
G 8  19137984.861   100570793.389         354.145          41.000  
G15  19218742.409   100995170.006        3098.910          41.000  
E30  21575362.859   113379273.497       -3115.654          30.000  
E19  19528400.456   102622421.986        -179.832          42.000  
E27  19567808.004   102829508.060        -883.849          47.000  
E21  20769268.809   109143242.655        1998.684          44.000  
E 4  22733961.506   119467743.024        2422.202          38.000  
G21  20978619.606                3       -893.479          25.000  
G 9  21668499.934   113868744.040       -4113.020          31.000  
E20  15985228.193    84002947.555       -2640.488          37.000  
R14  16594939.612    88460310.252       -3321.100          46.000  
R15  15154310.662    80979981.274         630.685          50.000  
R 5  15579470.680    83281150.339       -2227.047          50.000  
R23  18248858.104    97619050.522        1260.230          42.000  
R16  18300965.085    97760385.124        3781.564          36.000  
R 6  16549895.015    88313324.988        2521.423          44.000  
> 2019 11 26 15  7 13.9860000  0 21                     
G30  16304076.192    85678501.359        -734.834          52.000  
G13  17056290.583    89631396.529        1840.734          48.000  
G 7  17777472.352    93421229.528       -2563.142          48.000  
G 5  18029074.853    94743433.184       -2608.347          48.000  
G28  17953950.217    94348635.243        2346.966          45.000  
G 8  19137917.407   100570439.264         354.196          41.000  
G15  19218152.801   100992071.006        3099.348          41.000  
E30  21575958.548   113382389.031       -3115.406          30.000  
E19  19528434.903   102622601.934        -179.909          42.000  
E27  19567976.547   102830392.021        -883.800          47.000  
E21  20768888.369   109141243.930        1998.720          44.000  
E 4  22733500.655   119465321.166        2422.005          38.000  
G21  20978789.841                3       -893.550          25.000  
G 9  21669286.372   113872856.948       -4112.830          30.000  
E20  15985730.541    84005587.807       -2640.220          37.000  
R14  16595562.672    88463631.443       -3321.320          46.000  
R15  15154192.839    80979350.759         630.394          50.000  
R 5  15579887.260    83283377.617       -2227.445          50.000  
R23  18248622.761    97617790.587        1259.867          42.000  
R16  18300256.955    97756602.958        3782.285          36.000  
R 6  16549422.384    88310803.346        2521.619          44.000  
> 2019 11 26 15  7 14.9860000  0 21                     
G30  16304216.195    85679236.550        -735.370          52.000  
G13  17055940.200    89629556.105        1840.155          48.000  
G 7  17777960.112    93423792.942       -2563.523          48.000  
G 5  18029571.102    94746041.939       -2608.892          48.000  
G28  17953503.623    94346288.445        2346.784          45.000  
G 8  19137850.180   100570085.708         353.099          42.000  
G15  19217562.975   100988972.199        3098.693          41.000  
E30  21576544.160   113385504.603       -3115.777          30.000  
E19  19528469.350   102622782.181        -180.236          42.000  
E27  19568145.011   102831276.290        -884.409          47.000  
E21  20768508.250   109139245.400        1998.316          44.000  
E 4  22733039.838   119462899.365        2421.777          38.000  
G21  20978957.398                3       -893.881          25.000  
G 9  21670067.156   113876969.714       -4112.446          29.000  
E20  15986232.881    84008228.207       -2640.282          37.000  
R14  16596186.090    88466952.949       -3321.649          45.000  
R15  15154075.303    80978720.849         629.635          50.000  
R 5  15580303.980    83285605.554       -2228.225          50.000  
R23  18248387.323    97616531.402        1258.763          42.000  
R16  18299549.104    97752820.982        3781.622          36.000  
R 6  16548949.579    88308282.230        2520.789          44.000  
> 2019 11 26 15  7 15.9860000  0 21                     
G30  16304356.102    85679972.165        -735.902          52.000  
G13  17055590.026    89627716.028        1839.750          48.000  
G 7  17778447.793    93426356.588       -2563.773          48.000  
G 5  18030067.579    94748651.128       -2609.518          48.000  
G28  17953057.194    94343941.996        2346.091          45.000  
G 8  19137782.944   100569732.686         352.670          42.000  
G15  19216973.245   100985873.548        3098.480          41.000  
E30  21577141.036   113388620.166       -3115.510          30.000  
E19  19528503.587   102622962.769        -180.963          42.000  
E27  19568313.135   102832160.872        -884.809          47.000  
E21  20768128.097   109137247.060        1998.248          44.000  
E 4  22732579.092   119460477.608        2421.606          38.000  
G21  20979129.876                3       -893.700          25.000  
G 9  21670849.946   113881082.414       -4112.965          28.000  
E20  15986734.985    84010868.810       -2640.805          37.000  
R14  16596809.682    88470274.805       -3322.149          45.000  
R15  15153957.487    80978091.587         628.880          50.000  
R 5  15580720.490    83287834.206       -2229.127          50.000  
R23  18248152.190    97615272.960        1257.867          42.000  
R16  18298841.236    97749039.128        3782.052          36.000  
R 6  16548477.062    88305761.611        2520.288          44.000  
> 2019 11 26 15  7 16.9860000  0 21                     
G30  16304496.201    85680708.361        -736.549          52.000  
G13  17055240.062    89625876.472        1839.248          48.000  
G 7  17778935.475    93428920.655       -2564.401          48.000  
G 5  18030564.369    94751260.892       -2610.106          48.000  
G28  17952610.547    94341596.005        2345.715          45.000  
G 8  19137716.153   100569380.417         351.864          42.000  
G15  19216383.436   100982775.220        3098.114          41.000  
E30  21577737.441   113391735.961       -3115.481          30.000  
E19  19528538.007   102623143.827        -181.444          42.000  
E27  19568481.503   102833045.929        -885.386          47.000  
E21  20767747.866   109135249.115        1997.594          44.000  
E 4  22732118.641   119458056.064        2421.509          38.000  
G21  20979299.519                3       -895.838          25.000  
G 9  21671632.056   113885195.206       -4113.184          27.000  
E20  15987237.647    84013509.735       -2640.996          37.000  
R14  16597432.856    88473597.178       -3322.668          45.000  
R15  15153840.021    80977463.155         627.919          50.000  
R 5  15581137.507    83290063.728       -2230.137          50.000  
R23  18247917.467    97614015.451        1257.002          42.000  
R16  18298133.150    97745257.631        3781.338          36.000  
R 6  16548004.702    88303241.691        2519.641          44.000  
> 2019 11 26 15  7 17.9860000  0 21                     
G30  16304636.274    85681444.988        -736.681          53.000  
G13  17054890.194    89624037.269        1839.203          50.000  
G 7  17779423.514    93431484.954       -2564.351          50.000  
G 5  18031061.255    94753871.084       -2610.139          49.000  
G28  17952163.908    94339250.335        2345.557          46.000  
G 8  19137649.171   100569028.716         351.430          43.000  
G15  19215793.898   100979677.052        3098.429          42.000  
E30  21578330.487   113394851.864       -3116.860          31.000  
E19  19528572.428   102623325.202        -181.523          43.000  
E27  19568650.090   102833931.305        -885.392          48.000  
E21  20767367.730   109133251.361        1997.819          46.000  
E 4  22731657.964   119455634.591        2421.885          38.000  
G21  20979467.503                3       -894.834          25.000  
G 9  21672417.107   113889307.893       -4112.416          27.000  
E20  15987740.466    84016150.885       -2640.970          38.000  
R14  16598056.300    88476919.912       -3322.614          45.000  
R15  15153722.459    80976835.351         627.720          50.000  
R 5  15581554.445    83292293.909       -2230.325          50.000  
R23  18247682.709    97612758.706        1256.578          42.000  
R16  18297425.142    97741476.276        3781.381          36.000  
R 6  16547532.753    88300722.281        2519.440          44.000  
> 2019 11 26 15  7 18.9860000  0 21                     
G30  16304776.617    85682181.973        -736.919          53.000  
G13  17054540.099    89622198.354        1839.059          50.000  
G 7  17779911.474    93434049.416       -2564.210          50.000  
G 5  18031558.150    94756481.647       -2610.448          49.000  
G28  17951717.593    94336904.903        2345.589          46.000  
G 8  19137582.432   100568677.517         351.098          43.000  
G15  19215204.421   100976578.994        3098.261          42.000  
E30  21578922.136   113397967.663       -3115.862          31.000  
E19  19528606.953   102623506.844        -181.450          43.000  
E27  19568818.572   102834816.931        -885.481          48.000  
E21  20766987.813   109131253.747        1997.854          46.000  
E 4  22731197.139   119453213.127        2422.053          39.000  
G21  20979638.123                3       -896.977          25.000  
G 9  21673201.381   113893420.392       -4111.789          27.000  
E20  15988242.727    84018792.135       -2641.373          38.000  
R14  16598679.735    88480242.958       -3322.857          45.000  
R15  15153605.037    80976208.108         627.262          50.000  
R 5  15581971.872    83294524.703       -2230.947          50.000  
R23  18247447.559    97611502.665        1255.733          42.000  
R16  18296717.152    97737695.040        3781.134          36.000  
R 6  16547061.064    88298203.314        2519.312          44.000  
> 2019 11 26 15  7 19.9860000  0 21                     
G30  16304916.882    85682919.421        -737.393          53.000  
G13  17054190.248    89620359.855        1838.571          50.000  
G 7  17780399.810    93436614.185       -2564.658          50.000  
G 5  18032055.115    94759092.685       -2611.028          50.000  
G28  17951271.199    94334559.842        2345.122          46.000  
G 8  19137515.703   100568326.929         350.805          43.000  
G15  19214614.569   100973481.147        3097.927          42.000  
E30  21579516.526   113401083.522       -3115.491          32.000  
E19  19528641.252   102623688.859        -182.129          43.000  
E27  19568987.097   102835702.932        -886.121          48.000  
E21  20766607.739   109129256.407        1997.348          46.000  
E 4  22730736.043   119450791.792        2421.403          39.000  
G21  20979807.564                3       -896.339          25.000  
G 9  21673985.567   113897532.858       -4112.253          27.000  
E20  15988745.512    84021433.601       -2641.057          38.000  
R14  16599303.118    88483566.376       -3323.688          44.000  
R15  15153487.736    80975581.530         626.012          48.000  
R 5  15582389.543    83296756.183       -2231.962          49.000  
R23  18247212.827    97610247.381        1254.752          41.000  
R16  18296009.162    97733914.012        3780.537          36.000  
R 6  16546588.984    88295684.910        2518.079          43.000  
> 2019 11 26 15  7 20.9860000  0 21                     
G30  16305057.173    85683657.382        -738.222          53.000  
G13  17053840.424    89618521.794        1837.866          49.000  
G 7  17780887.971    93439179.264       -2565.204          49.000  
G 5  18032552.385    94761704.230       -2611.724          49.000  
G28  17950824.927    94332215.185        2344.407          46.000  
G 8  19137449.287   100567977.002         349.885          43.000  
G15  19214025.179   100970383.537        3097.860          42.000  
E30  21580107.442   113404199.573       -3116.266          32.000  
E19  19528676.431   102623871.260        -182.547          43.000  
E27  19569155.797   102836589.313        -886.499          48.000  
E21  20766227.411   109127259.335        1997.024          46.000  
E 4  22730275.462   119448370.563        2421.171          39.000  
G21  20979976.578                3       -898.289          25.000  
G 9  21674765.889   113901645.347       -4112.325          27.000  
E20  15989248.130    84024075.363       -2642.018          38.000  
R14  16599926.413    88486890.261       -3324.048          44.000  
R15  15153370.375    80974955.718         625.461          48.000  
R 5  15582807.249    83298988.490       -2232.641          49.000  
R23  18246978.358    97608992.981        1253.895          41.000  
R16  18295301.590    97730133.274        3780.588          35.000  
R 6  16546117.077    88293167.128        2517.426          43.000  
> 2019 11 26 15  7 21.9860000  0 21                     
G30  16305197.682    85684395.721        -738.864          53.000  
G13  17053490.922    89616684.051        1837.239          49.000  
G 7  17781376.324    93441744.551       -2565.627          49.000  
G 5  18033049.559    94764316.167       -2612.496          49.000  
G28  17950378.908    94329870.807        2343.875          46.000  
G 8  19137383.081   100567627.601         348.984          43.000  
G15  19213436.068   100967286.086        3096.994          42.000  
E30  21580701.081   113407315.604       -3116.291          32.000  
E19  19528711.070   102624053.964        -183.306          43.000  
E27  19569324.558   102837475.987        -887.106          48.000  
E21  20765847.563   109125262.454        1996.362          46.000  
E 4  22729814.750   119445949.370        2420.693          39.000  
G21  20980146.387                3       -893.963          24.000  
G 9  21675546.969   113905757.647       -4112.423          27.000  
E20  15989750.984    84026717.254       -2642.452          38.000  
R14  16600549.910    88490214.466       -3324.640          44.000  
R15  15153253.170    80974330.508         624.740          48.000  
R 5  15583225.033    83301221.459       -2233.527          49.000  
R23  18246743.757    97607739.282        1253.214          41.000  
R16  18294593.879    97726352.716        3780.193          36.000  
R 6  16545645.328    88290649.833        2516.644          43.000  
> 2019 11 26 15  7 22.9860000  0 20                     
G30  16305338.576    85685134.606        -738.990          53.000  
G13  17053141.447    89614846.786        1837.100          49.000  
G 7  17781864.520    93444310.196       -2565.649          49.000  
G 5  18033547.004    94766928.646       -2612.573          49.000  
G28  17949932.750    94327526.847        2343.971          46.000  
G 8  19137316.386   100567278.906         348.346          43.000  
G15  19212847.124   100964188.907        3097.180          42.000  
E30  21581295.628   113410431.824       -3116.415          31.000  
E19  19528745.901   102624237.101        -183.273          43.000  
E27  19569493.424   102838363.092        -887.155          48.000  
E21  20765467.341   109123265.876        1996.548          46.000  
E 4  22729353.427   119443528.362        2421.055          39.000  
G 9  21676330.152   113909869.939       -4111.762          27.000  
E20  15990254.223    84029359.394       -2641.820          38.000  
R14  16601173.449    88493539.145       -3324.823          44.000  
R15  15153136.315    80973706.061         624.190          48.000  
R 5  15583642.791    83303455.221       -2233.963          49.000  
R23  18246509.383    97606486.491        1252.470          41.000  
R16  18293886.063    97722572.407        3780.142          36.000  
R 6  16545173.483    88288133.191        2516.473          43.000  
> 2019 11 26 15  7 23.9860000  0 20                     
G30  16305479.102    85685873.864        -739.731          53.000  
G13  17052791.823    89613009.831        1836.590          49.000  
G 7  17782352.917    93446876.039       -2566.149          49.000  
G 5  18034044.134    94769541.509       -2613.293          49.000  
G28  17949486.722    94325183.194        2343.204          46.000  
G 8  19137250.110   100566930.680         347.830          43.000  
G15  19212258.004   100961091.855        3096.788          42.000  
E30  21581888.220   113413548.014       -3116.457          31.000  
E19  19528781.045   102624420.499        -183.538          43.000  
E27  19569662.063   102839250.469        -887.690          48.000  
E21  20765087.336   109121269.477        1996.133          46.000  
E 4  22728892.803   119441107.349        2420.706          39.000  
G 9  21677109.706   113913982.139       -4112.186          27.000  
E20  15990756.850    84032001.734       -2642.509          38.000  
R14  16601796.858    88496864.107       -3325.214          44.000  
R15  15153019.608    80973082.200         623.275          48.000  
R 5  15584060.785    83305689.613       -2234.870          48.000  
R23  18246275.506    97605234.412        1251.364          41.000  
R16  18293178.152    97718792.214        3779.982          35.000  
R 6  16544702.266    88285617.030        2515.936          43.000  
> 2019 11 26 15  7 24.9860000  0 20                     
G30  16305620.074    85686613.753        -740.216          53.000  
G13  17052442.513    89611173.438        1836.093          49.000  
G 7  17782841.270    93449442.320       -2566.418          50.000  
G 5  18034541.404    94772155.002       -2613.760          49.000  
G28  17949040.311    94322840.030        2342.931          46.000  
G 8  19137184.280   100566583.250         347.090          43.000  
G15  19211668.929   100957995.183        3096.541          42.000  
E30  21582481.728   113416664.422       -3116.348          31.000  
E19  19528816.094   102624604.451        -184.262          43.000  
E27  19569831.199   102840138.375        -888.305          48.000  
E21  20764707.471   109119273.489        1995.651          46.000  
E 4  22728432.004   119438686.635        2420.303          39.000  
G 9  21677889.495   113918094.452       -4112.570          27.000  
E20  15991260.053    84034644.458       -2643.334          38.000  
R14  16602420.826    88500189.649       -3325.824          44.000  
R15  15152902.648    80972459.189         622.610          48.000  
R 5  15584478.787    83307924.899       -2235.616          48.000  
R23  18246041.534    97603983.288        1250.464          41.000  
R16  18292470.415    97715012.353        3780.012          36.000  
R 6  16544230.805    88283101.612        2514.984          43.000  
> 2019 11 26 15  7 25.9860000  0 20                     
G30  16305760.827    85687354.223        -740.848          53.000  
G13  17052093.352    89609337.565        1835.514          49.000  
G 7  17783329.588    93452009.008       -2566.984          49.000  
G 5  18035038.622    94774769.088       -2614.479          49.000  
G28  17948594.449    94320497.363        2342.309          45.000  
G 8  19137118.379   100566236.557         346.076          43.000  
G15  19211079.643   100954898.842        3095.856          42.000  
E30  21583068.090   113419781.098       -3117.052          31.000  
E19  19528851.003   102624788.870        -184.576          43.000  
E27  19570000.205   102841026.742        -888.688          47.000  
E21  20764328.112   109117277.850        1995.556          45.000  
E 4  22727971.571   119436266.120        2420.517          38.000  
G 9  21678672.844   113922206.837       -4112.416          25.000  
E20  15991763.588    84037287.470       -2643.105          38.000  
R14  16603044.645    88503515.701       -3326.373          44.000  
R15  15152785.627    80971837.001         621.686          48.000  
R 5  15584896.825    83310161.027       -2236.658          48.000  
R23  18245807.727    97602733.087        1249.582          41.000  
R16  18291762.930    97711232.846        3779.655          36.000  
R 6  16543759.536    88280586.854        2514.362          43.000  
> 2019 11 26 15  7 26.9860000  0 20                     
G30  16305901.650    85688095.021        -740.993          52.000  
G13  17051744.103    89607501.955        1835.426          49.000  
G 7  17783818.142    93454575.845       -2566.900          49.000  
G 5  18035536.285    94777383.502       -2614.681          49.000  
G28  17948148.474    94318154.918        2342.121          45.000  
G 8  19137052.714   100565890.324         345.993          43.000  
G15  19210490.699   100951802.559        3096.184          42.000  
E30  21583668.805   113422897.683       -3116.645          31.000  
E19  19528886.279   102624973.535        -184.927          43.000  
E27  19570169.533   102841915.347        -888.682          47.000  
E21  20763948.456   109115282.350        1995.433          45.000  
E 4  22727511.182   119433845.610        2420.264          38.000  
G 9  21679457.354   113926319.074       -4112.521          25.000  
E20  15992266.206    84039930.634       -2643.338          38.000  
R14  16603668.394    88506842.037       -3326.593          44.000  
R15  15152668.981    80971215.357         621.298          48.000  
R 5  15585315.281    83312397.740       -2237.076          48.000  
R23  18245574.217    97601483.535        1249.177          41.000  
R16  18291055.254    97707453.477        3779.317          36.000  
R 6  16543288.458    88278072.525        2514.044          43.000  
> 2019 11 26 15  7 27.9860000  0 20                     
G30  16306042.779    85688836.442        -741.755          52.000  
G13  17051394.889    89605666.901        1834.692          49.000  
G 7  17784306.826    93457143.115       -2567.523          49.000  
G 5  18036033.756    94779998.534       -2615.412          49.000  
G28  17947702.778    94315812.985        2341.522          45.000  
G 8  19136987.258   100565544.856         344.883          43.000  
G15  19209901.632   100948706.657        3095.641          42.000  
E30  21584257.706   113426014.530       -3117.293          31.000  
E19  19528921.598   102625158.697        -185.553          43.000  
E27  19570338.704   102842804.458        -889.455          47.000  
E21  20763568.548   109113287.241        1994.835          45.000  
E 4  22727050.854   119431425.330        2419.898          38.000  
G 9  21680242.212   113930431.399       -4113.023          25.000  
E20  15992769.558    84042574.147       -2643.892          38.000  
R14  16604292.275    88510168.910       -3327.453          44.000  
R15  15152552.570    80970594.516         620.415          48.000  
R 5  15585733.737    83314635.359       -2238.230          48.000  
R23  18245340.550    97600234.940        1247.914          41.000  
R16  18290347.569    97703674.434        3779.336          36.000  
R 6  16542817.547    88275558.904        2513.208          43.000  
> 2019 11 26 15  7 28.9860000  0 20                     
G30  16306183.969    85689578.400        -741.967          52.000  
G13  17051045.614    89603832.309        1834.534          49.000  
G 7  17784795.415    93459710.732       -2567.518          49.000  
G 5  18036531.628    94782614.097       -2615.556          49.000  
G28  17947257.064    94313471.474        2341.506          45.000  
G 8  19136921.715   100565200.044         344.782          43.000  
G15  19209312.469   100945611.022        3095.519          42.000  
E30  21584853.806   113429131.515       -3117.264          31.000  
E19  19528956.961   102625344.301        -185.729          43.000  
E27  19570508.154   102843694.004        -889.643          47.000  
E21  20763188.831   109111292.453        1994.840          45.000  
E 4  22726590.430   119429005.212        2420.261          38.000  
G 9  21681024.104   113934543.689       -4111.977          26.000  
E20  15993272.386    84045217.964       -2643.520          38.000  
R14  16604916.382    88513496.234       -3327.313          44.000  
R15  15152436.553    80969974.432         620.017          48.000  
R 5  15586152.647    83316873.777       -2238.626          48.000  
R23  18245107.214    97598987.218        1247.298          40.000  
R16  18289640.233    97699895.780        3778.310          36.000  
R 6  16542346.810    88273045.924        2512.872          43.000  
> 2019 11 26 15  7 29.9860000  0 20                     
G30  16306325.115    85690320.802        -742.480          52.000  
G13  17050696.811    89601998.107        1833.979          49.000  
G 7  17785284.117    93462278.624       -2568.020          49.000  
G 5  18037029.622    94785230.116       -2616.208          49.000  
G28  17946811.551    94311130.323        2340.928          45.000  
G 8  19136856.521   100564855.875         343.901          43.000  
G15  19208723.279   100942515.575        3095.453          41.000  
E30  21585445.970   113432248.560       -3117.503          31.000  
E19  19528992.350   102625530.250        -186.274          43.000  
E27  19570677.177   102844583.879        -890.037          47.000  
E21  20762809.158   109109297.899        1994.484          45.000  
E 4  22726129.849   119426585.210        2419.839          38.000  
G 9  21681807.305                3      -4114.068          25.000  
E20  15993775.458    84047862.036       -2644.418          38.000  
R14  16605540.497    88516823.942       -3327.930          44.000  
R15  15152320.474    80969355.032         619.139          48.000  
R 5  15586571.671    83319112.896       -2239.380          49.000  
R23  18244873.844    97597740.279        1246.548          40.000  
R16  18288933.177    97696117.244        3778.446          36.000  
R 6  16541875.837    88270533.492        2512.189          43.000  
> 2019 11 26 15  7 30.9860000  0 22                     
G30  16306466.741    85691063.605        -743.081          52.000  
G13  17050347.702    89600164.218        1833.491          49.000  
G 7  17785772.653    93464846.726       -2568.396          49.000  
G 5  18037527.582    94787846.538       -2616.735          49.000  
G28  17946366.161    94308789.443        2340.683          45.000  
G 8  19136791.065   100564512.238         343.250          43.000  
G15  19208133.811   100939420.271        3095.312          41.000  
E30  21586039.286   113435365.622       -3117.586          31.000  
E19  19529027.678   102625716.495        -186.676          43.000  
E27  19570846.671   102845474.049        -890.442          47.000  
E21  20762430.436   109107303.519        1994.259          45.000  
E 4  22725669.137   119424165.228        2419.968          38.000  
G27  19834981.048                3      -1769.879          33.000  
G21  20981691.891                3       -898.865          24.000  
G 9  21682589.598                3      -4112.119          25.000  
E20  15994278.635    84050506.182       -2644.557          38.000  
R14  16606164.918    88520151.967       -3328.424          44.000  
R15  15152204.735    80968736.268         618.333          48.000  
R 5  15586990.738    83321352.655       -2240.159          49.000  
R23  18244640.770    97596494.058        1245.582          40.000  
R16  18288225.963    97692338.833        3778.101          36.000  
R 6  16541405.213    88268021.547        2511.743          43.000  
> 2019 11 26 15  7 31.9860000  0 22                     
G30  16306608.114    85691806.982        -743.684          52.000  
G13  17049998.767    89598330.848        1833.018          49.000  
G 7  17786261.582    93467415.211       -2568.724          49.000  
G 5  18038026.082    94790463.530       -2617.308          49.000  
G28  17945921.049    94306449.048        2340.056          45.000  
G 8  19136725.513   100564169.309         342.515          43.000  
G15  19207544.735   100936325.283        3094.897          41.000  
E30  21586628.030   113438482.860       -3117.376          31.000  
E19  19529063.416   102625903.213        -186.970          43.000  
E27  19571015.991   102846364.687        -890.887          47.000  
E21  20762050.806   109105309.506        1993.922          45.000  
E 4  22725208.399   119421745.468        2419.462          38.000  
G27  19835318.229   104235300.1702      -1765.240          32.000  
G21  20981864.160                3       -901.945          25.000  
G 9  21683370.827                3      -4111.965          25.000  
E20  15994782.022    84053150.685       -2644.343          38.000  
R14  16606789.532    88523480.522       -3328.821          44.000  
R15  15152089.032    80968118.293         617.509          48.000  
R 5  15587410.005    83323593.257       -2241.077          49.000  
R23  18244407.792    97595248.780        1244.630          40.000  
R16  18287518.872    97688560.762        3777.510          36.000  
R 6  16540934.816    88265510.306        2510.858          43.000  
> 2019 11 26 15  7 32.9860000  0 22                     
G30  16306749.626    85692550.532        -743.339          52.000  
G13  17049649.763    89596497.578        1833.649          49.000  
G 7  17786750.520    93469983.696       -2568.144          49.000  
G 5  18038524.190    94793080.706       -2616.930          49.000  
G28  17945475.912    94304108.713        2340.679          45.000  
G 8  19136660.171   100563826.714         342.660          43.000  
G15  19206955.668   100933230.237        3095.420          41.000  
E30  21587229.312   113441599.933       -3116.546          31.000  
E19  19529098.892   102626090.000        -186.399          43.000  
E27  19571185.275   102847255.394        -890.298          47.000  
E21  20761671.342   109103315.450        1994.638          45.000  
E 4  22724748.053   119419325.527        2420.524          38.000  
G27  19835651.188   104237064.9562      -1764.658          32.000  
G21  20982035.826                3       -901.325          24.000  
G 9  21684150.171                3      -4111.898          26.000  
E20  15995285.094    84055795.146       -2644.325          38.000  
R14  16607413.831    88526809.192       -3328.436          44.000  
R15  15151973.476    80967500.671         617.703          48.000  
R 5  15587829.421    83325834.301       -2240.927          49.000  
R23  18244175.381    97594003.994        1244.898          40.000  
R16  18286811.544    97684782.624        3778.469          36.000  
R 6  16540464.263    88262999.339        2510.950          43.000  
> 2019 11 26 15  7 33.9860000  0 22                     
G30  16306890.799    85693293.866        -743.996          52.000  
G13  17049300.854    89594664.036        1832.803          49.000  
G 7  17787239.257    93472551.772       -2568.694          49.000  
G 5  18039022.280    94795697.670       -2617.790          49.000  
G28  17945030.277    94301768.058        2339.977          45.000  
G 8  19136594.637   100563484.038         341.990          43.000  
G15  19206366.392   100930134.702        3094.814          41.000  
E30  21587822.698   113444716.399       -3117.240          31.000  
E19  19529134.177   102626276.485        -187.186          43.000  
E27  19571354.769   102848145.781        -891.094          47.000  
E21  20761292.036   109101320.974        1993.848          45.000  
E 4  22724287.376   119416905.004        2419.736          39.000  
G27  19835986.834   104238829.6662      -1765.331          32.000  
G21  20982207.257                3       -902.792          24.000  
G 9  21684933.389                3      -4111.967          26.000  
E20  15995787.922    84058439.126       -2644.609          37.000  
R14  16608038.348    88530137.565       -3329.205          44.000  
R15  15151858.017    80966883.040         616.779          48.000  
R 5  15588248.898    83328075.396       -2241.900          49.000  
R23  18243942.744    97592759.333        1243.644          40.000  
R16  18286104.305    97681004.012        3778.134          36.000  
R 6  16539993.395    88260488.231        2510.205          43.000  
> 2019 11 26 15  7 34.9860000  0 22                     
G30  16307032.573    85694038.443        -744.599          52.000  
G13  17048952.129    89592831.659        1832.389          49.000  
G 7  17787728.221    93475120.915       -2569.128          49.000  
G 5  18039520.475    94798315.868       -2618.155          49.000  
G28  17944585.139    94299428.545        2339.379          45.000  
G 8  19136529.800   100563142.776         341.310          43.000  
G15  19205777.133   100927040.164        3094.462          41.000  
E30  21588415.081   113447833.729       -3117.053          31.000  
E19  19529169.758   102626464.097        -187.480          43.000  
E27  19571524.821   102849037.305        -891.522          47.000  
E21  20760912.877   109099327.518        1993.494          45.000  
E 4  22723826.882   119414485.359        2419.635          38.000  
G27  19836317.516   104240595.7212      -1765.979          32.000  
G21  20982376.507                3       -904.241          24.000  
G 9  21685717.811                3      -4111.688          25.000  
E20  15996291.317    84061084.091       -2644.528          37.000  
R14  16608662.821    88533467.096       -3329.596          44.000  
R15  15151742.549    80966266.908         615.960          48.000  
R 5  15588668.428    83330318.000       -2242.698          49.000  
R23  18243710.080    97591516.270        1242.610          40.000  
R16  18285397.178    97677226.399        3777.438          36.000  
R 6  16539522.858    88257978.493        2509.747          43.000  
> 2019 11 26 15  7 35.9860000  0 22                     
G30  16307174.234    85694783.110        -745.106          52.000  
G13  17048603.221    89590999.308        1832.047          49.000  
G 7  17788216.879    93477689.959       -2569.405          49.000  
G 5  18040018.565    94800934.167       -2618.662          49.000  
G28  17944139.984    94297089.008        2339.240          45.000  
G 8  19136464.825   100562801.747         340.792          42.000  
G15  19205188.118   100923945.444        3094.341          41.000  
E30  21589007.018   113450950.740       -3117.232          31.000  
E19  19529205.801   102626651.699        -187.873          43.000  
E27  19571694.193   102849928.810        -891.865          47.000  
E21  20760533.484   109097333.926        1993.342          45.000  
E 4  22723366.572   119412065.448        2419.418          39.000  
G27  19836667.393   104242361.9942      -1766.600          32.000  
G21  20982547.580                3       -903.226          24.000  
G 9  21686498.647                3      -4112.615          25.000  
E20  15996794.416    84063728.980       -2645.432          37.000  
R14  16609287.591    88536796.644       -3329.828          44.000  
R15  15151627.604    80965651.098         615.340          48.000  
R 5  15589088.018    83332560.922       -2243.374          49.000  
R23  18243477.730    97590273.599        1242.323          40.000  
R16  18284689.703    97673448.631        3777.619          35.000  
R 6  16539052.776    88255468.948        2509.229          43.000  
> 2019 11 26 15  7 36.9860000  0 22                     
G30  16307316.348    85695528.977        -746.433          52.000  
G13  17048254.871    89589168.095        1830.625          49.000  
G 7  17788705.546    93480260.017       -2570.532          49.000  
G 5  18040516.987    94803553.670       -2620.083          49.000  
G28  17943694.864    94294750.563        2338.007          45.000  
G 8  19136400.171   100562462.091         338.959          42.000  
G15  19204599.645   100920851.670        3093.529          41.000  
E30  21589599.706   113454068.593       -3118.352          31.000  
E19  19529241.644   102626840.408        -188.988          43.000  
E27  19571864.062   102850821.402        -892.985          47.000  
E21  20760154.046   109095341.327        1992.117          45.000  
E 4  22722906.436   119409646.384        2418.657          39.000  
G27  19836993.625                3      -1768.610          32.000  
G 9  21687280.522                3      -4114.052          25.000  
E20  15997297.698    84066374.763       -2646.333          38.000  
R14  16609912.414    88540127.351       -3331.250          44.000  
R22  19072319.496   101809274.2871      -2880.437          37.000  
R15  15151512.555    80965036.712         613.582          48.000  
R 5  15589507.548    83334805.309       -2245.109          49.000  
R23  18243245.381    97589032.525        1240.328          40.000  
R16  18283982.637    97669671.855        3776.480          35.000  
R 6  16538582.562    88252960.721        2507.556          43.000  
> 2019 11 26 15  7 37.9860000  0 22                     
G30  16307458.428    85696275.168        -746.758          52.000  
G13  17047906.346    89587337.135        1830.565          49.000  
G 7  17789194.702    93482830.217       -2570.643          49.000  
G 5  18041015.400    94806173.494       -2620.430          49.000  
G28  17943249.831    94292412.347        2337.731          45.000  
G 8  19136335.789   100562122.870         338.732          42.000  
G15  19204011.459   100917757.987        3093.109          41.000  
E30  21590192.176   113457186.346       -3117.883          31.000  
E19  19529277.591   102627029.341        -189.325          43.000  
E27  19572034.246   102851714.218        -893.202          47.000  
E21  20759774.844   109093348.831        1992.183          45.000  
E 4  22722446.291   119407227.272        2418.822          38.000  
G27  19837330.161   104245872.1212      -1768.805          31.000  
G 9  21688058.924                3      -4113.164          25.000  
E20  15997801.415    84069020.647       -2646.097          38.000  
R14  16610537.097    88543458.293       -3331.439          44.000  
R22  19072859.178   101812154.532       -2881.040          37.000  
R15  15151397.715    80964422.827         613.164          48.000  
R 5  15589927.391    83337050.272       -2245.649          49.000  
R23  18243013.494    97587792.098        1239.590          40.000  
R16  18283275.528    97665895.114        3776.386          36.000  
R 6  16538112.889    88250452.892        2507.263          43.000  
> 2019 11 26 15  7 38.9860000  0 22                     
G30  16307600.516    85697022.427        -747.737          52.000  
G13  17047558.075    89585507.190        1829.507          49.000  
G 7  17789683.928    93485401.309       -2571.540          49.000  
G 5  18041514.215    94808794.390       -2621.368          49.000  
G28  17942805.453    94290075.103        2336.674          45.000  
G 8  19136271.118   100561784.869         337.453          43.000  
G15  19203423.587   100914665.117        3092.528          42.000  
E30  21590786.452   113460304.856       -3118.652          31.000  
E19  19529313.312   102627219.246        -190.283          43.000  
E27  19572204.464   102852608.000        -894.183          47.000  
E21  20759395.982   109091357.201        1991.363          45.000  
E 4  22721986.068   119404808.887        2418.025          38.000  
G27  19837663.495   104247641.3552      -1769.205          31.000  
G 9  21688841.810                3      -4112.817          24.000  
E20  15998305.003    84071667.382       -2647.328          37.000  
R14  16611162.172    88546790.254       -3332.343          44.000  
R22  19073399.088   101815036.058       -2882.245          37.000  
R15  15151283.050    80963810.255         611.909          48.000  
R 5  15590347.575    83339296.602       -2246.978          49.000  
R23  18242781.720    97586553.075        1238.560          40.000  
R16  18282568.655    97662119.203        3775.371          36.000  
R 6  16537643.164    88247946.243        2506.189          43.000  
> 2019 11 26 15  7 39.9860000  0 22                     
G30  16307742.491    85697769.962        -747.725          52.000  
G13  17047209.969    89583677.449        1829.671          49.000  
G 7  17790173.179    93487972.480       -2571.170          49.000  
G 5  18042012.837    94811415.565       -2621.469          49.000  
G28  17942360.559    94287738.011        2337.077          45.000  
G 8  19136206.910   100561447.268         337.556          43.000  
G15  19202835.454   100911572.260        3092.708          42.000  
E30  21591379.419   113463423.239       -3118.462          31.000  
E19  19529349.844   102627409.317        -190.160          43.000  
E27  19572374.656   102853501.941        -893.972          47.000  
E21  20759016.772   109089365.636        1991.380          45.000  
E 4  22721526.036   119402390.401        2418.630          38.000  
G27  19838006.051   104249410.9782      -1769.168          31.000  
G 9  21689626.067                3      -4136.842          22.000  
E20  15998809.035    84074314.103       -2646.661          38.000  
R14  16611787.108    88550122.427       -3332.318          44.000  
R22  19073939.007   101817918.017       -2882.055          37.000  
R15  15151168.663    80963198.193         611.705          48.000  
R 5  15590767.732    83341543.495       -2247.254          49.000  
R23  18242549.841    97585314.681        1237.879          40.000  
R16  18281862.192    97658343.340        3775.672          36.000  
R 6  16537173.518    88245439.967        2506.140          43.000  
> 2019 11 26 15  7 40.9860000  0 21                     
G30  16307884.990    85698518.296        -748.836          52.000  
G13  17046861.846    89581848.439        1828.537          49.000  
G 7  17790662.815    93490544.271       -2572.240          49.000  
G 5  18042511.582    94814037.528       -2622.470          49.000  
G28  17941915.971    94285401.623        2335.910          45.000  
G 8  19136142.894   100561110.622         336.062          43.000  
G15  19202247.163   100908479.952        3092.035          42.000  
E30  21591973.198   113466541.969       -3118.616          31.000  
E19  19529386.175   102627600.090        -191.263          42.000  
E27  19572544.699   102854396.579        -894.978          47.000  
E21  20758637.753   109087374.635        1990.594          45.000  
E 4  22721066.110   119399972.372        2417.713          38.000  
G27  19838339.447   104251181.4672      -1769.967          32.000  
E20  15999312.631    84076961.419       -2647.428          37.000  
R14  16612412.629    88553455.342       -3333.545          44.000  
R22  19074479.117   101820800.954       -2883.758          37.000  
R15  15151054.321    80962587.178         610.359          48.000  
R 5  15591188.405    83343791.459       -2248.633          49.000  
R23  18242318.233    97584077.411        1236.536          40.000  
R16  18281155.536    97654567.995        3774.920          36.000  
R 6  16536704.072    88242934.605        2504.669          43.000  
> 2019 11 26 15  7 41.9860000  0 21                     
G30  16308027.349    85699267.017        -749.448          52.000  
G13  17046513.932    89580019.755        1827.992          49.000  
G 7  17791152.486    93493116.262       -2572.620          49.000  
G 5  18043010.527    94816659.886       -2623.126          49.000  
G28  17941471.549    94283065.521        2335.403          45.000  
G 8  19136078.686   100560774.522         335.427          43.000  
G15  19201658.882   100905387.774        3091.617          42.000  
E30  21592566.523   113469660.779       -3119.264          31.000  
E19  19529422.184   102627791.141        -191.699          43.000  
E27  19572714.909   102855291.503        -895.615          47.000  
E21  20758258.769   109085383.817        1990.097          45.000  
E 4  22720605.450   119397554.342        2417.463          38.000  
G27  19838676.637   104252952.5432      -1771.288          32.000  
E20  15999816.191    84079608.889       -2648.409          38.000  
R14  16613037.992    88556788.564       -3333.856          44.000  
R22  19075019.175   101823684.480       -2884.897          37.000  
R15  15150940.441    80961976.739         609.672          48.000  
R 5  15591609.025    83346040.059       -2249.448          49.000  
R23  18242086.861    97582840.845        1235.631          40.000  
R16  18280448.802    97650792.820        3774.508          37.000  
R 6  16536234.792    88240429.725        2504.279          43.000  
> 2019 11 26 15  7 42.9860000  0 20                     
G30  16308170.057    85700016.763        -750.097          52.000  
G13  17046166.315    89578192.028        1827.469          49.000  
G 7  17791642.025    93495689.097       -2573.077          49.000  
G 5  18043509.569    94819283.274       -2623.638          48.000  
G28  17941027.014    94280730.341        2334.854          45.000  
G 8  19136014.879   100560439.598         334.497          43.000  
G15  19201070.993   100902296.377        3091.365          42.000  
E30  21593160.275   113472780.244       -3119.520          31.000  
E19  19529458.908   102627983.131        -192.197          43.000  
E27  19572885.406   102856187.351        -896.260          47.000  
E21  20757880.160   109083393.806        1989.737          45.000  
E 4  22720145.017   119395137.009        2417.056          38.000  
E20  16000320.171    84082257.121       -2648.562          38.000  
R14  16613663.617    88560122.749       -3334.308          44.000  
R22  19075559.373   101826569.175       -2885.062          37.000  
R15  15150827.049    80961367.534         608.764          48.000  
R 5  15592030.195    83348289.936       -2250.323          48.000  
R23  18241856.291    97581605.662        1234.514          40.000  
R16  18279742.069    97647018.428        3774.483          37.000  
R 6  16535765.486    88237926.011        2503.558          43.000  
> 2019 11 26 15  7 43.9860000  0 20                     
G30  16308312.956    85700767.257        -750.770          52.000  
G13  17045818.541    89576364.988        1826.728          49.000  
G 7  17792131.809    93498262.506       -2573.663          49.000  
G 5  18044008.767    94821907.415       -2624.481          48.000  
G28  17940582.818    94278395.799        2334.368          45.000  
G 8  19135951.500   100560105.567         333.563          43.000  
G15  19200482.737   100899205.473        3090.789          42.000  
E30  21593753.521   113475900.000       -3119.171          31.000  
E19  19529495.702   102628175.762        -192.902          43.000  
E27  19573056.209   102857083.822        -896.654          47.000  
E21  20757501.578   109081404.335        1989.164          45.000  
E 4  22719684.733   119392720.044        2416.725          38.000  
E20  16000823.915    84084905.858       -2648.811          38.000  
R14  16614288.998    88563457.622       -3335.229          44.000  
R22  19076099.823   101829454.834       -2886.155          37.000  
R15  15150713.614    80960759.283         607.801          48.000  
R 5  15592450.754    83350540.807       -2251.281          48.000  
R23  18241625.599    97580371.566        1233.600          40.000  
R16  18279035.579    97643244.568        3773.454          37.000  
R 6  16535296.494    88235423.131        2502.325          43.000  
> 2019 11 26 15  7 44.9860000  0 20                     
G30  16308455.699    85701518.362        -751.068          52.000  
G13  17045470.994    89574538.485        1826.677          49.000  
G 7  17792621.532    93500836.335       -2573.680          49.000  
G 5  18044508.175    94824532.157       -2624.555          48.000  
G28  17940138.597    94276061.779        2334.072          45.000  
G 8  19135888.243   100559772.285         333.461          42.000  
G15  19199894.647   100896114.923        3090.711          42.000  
E30  21594347.282   113479020.070       -3119.697          31.000  
E19  19529532.626   102628368.897        -193.133          43.000  
E27  19573226.759   102857980.812        -896.894          47.000  
E21  20757123.161   109079415.250        1989.244          45.000  
E 4  22719224.649   119390303.339        2416.945          38.000  
E20  16001328.000    84087554.984       -2649.429          38.000  
R14  16614914.632    88566793.017       -3335.302          44.000  
R22  19076640.649   101832341.275       -2886.363          37.000  
R15  15150600.214    80960151.900         607.232          49.000  
R 5  15592871.365    83352792.571       -2251.815          48.000  
R23  18241394.942    97579138.410        1233.057          40.000  
R16  18278329.125    97639471.035        3773.798          36.000  
R 6  16534827.624    88232920.931        2502.301          43.000  
> 2019 11 26 15  7 45.9860000  0 20                     
G30  16308598.887    85702269.867        -751.827          52.000  
G13  17045123.412    89572712.327        1825.864          49.000  
G 7  17793111.508    93503410.382       -2574.273          49.000  
G 5  18045007.504    94827157.308       -2625.565          48.000  
G28  17939694.690    94273728.034        2333.507          45.000  
G 8  19135824.873   100559439.539         332.455          43.000  
G15  19199306.741   100893024.513        3090.307          42.000  
E30  21594941.070   113482140.124       -3120.655          31.000  
E19  19529569.551   102628562.338        -193.718          43.000  
E27  19573397.335   102858878.084        -897.554          47.000  
E21  20756744.195   109077426.352        1988.716          45.000  
E 4  22718764.792   119387886.663        2416.576          38.000  
E20  16001832.241    84090204.241       -2649.452          38.000  
R14  16615540.475    88570128.740       -3335.938          44.000  
R22  19077181.397   101835228.314       -2887.447          37.000  
R15  15150486.473    80959545.158         606.204          49.000  
R 5  15593292.465    83355045.017       -2253.038          48.000  
R23  18241164.521    97577905.994        1231.906          40.000  
R16  18277622.548    97635697.656        3772.966          36.000  
R 6  16534358.911    88230419.241        2501.245          43.000  
> 2019 11 26 15  7 46.9860000  0 20                     
G30  16308742.005    85703021.775        -752.034          52.000  
G13  17044776.257    89570886.497        1825.808          49.000  
G 7  17793601.275    93505984.653       -2574.247          49.000  
G 5  18045507.235    94829782.858       -2625.669          48.000  
G28  17939250.643    94271394.599        2333.353          45.000  
G 8  19135762.261   100559107.344         332.113          43.000  
G15  19198718.537   100889934.246        3090.454          42.000  
E30  21595530.809   113485260.193       -3119.925          31.000  
E19  19529606.275   102628756.072        -193.765          43.000  
E27  19573568.338   102859775.649        -897.512          47.000  
E21  20756366.084   109075437.637        1988.850          45.000  
E 4  22718304.778   119385470.047        2416.557          38.000  
E20  16002336.771    84092853.680       -2649.373          38.000  
R14  16616166.328    88573464.807       -3336.139          44.000  
R22  19077722.310   101838115.931       -2887.703          37.000  
R15  15150373.073    80958939.012         606.161          49.000  
R 5  15593713.486    83357298.128       -2253.217          48.000  
R23  18240934.213    97576674.320        1231.250          40.000  
R16  18276915.796    97631924.366        3773.244          36.000  
R 6  16533890.181    88227918.036        2501.331          43.000  
> 2019 11 26 15  7 47.9860000  0 20                     
G30  16308885.262    85703773.959        -752.652          52.000  
G13  17044428.945    89569060.892        1825.040          49.000  
G 7  17794090.971    93508559.015       -2574.873          49.000  
G 5  18046006.974    94832408.693       -2626.431          48.000  
G28  17938806.648    94269061.343        2332.718          45.000  
G 8  19135699.109   100558775.569         331.118          43.000  
G15  19198130.491   100886844.019        3090.037          42.000  
E30  21596122.292   113488380.161       -3120.754          31.000  
E19  19529642.877   102628949.989        -194.226          43.000  
E27  19573739.088   102860673.385        -898.154          47.000  
E21  20755987.684   109073448.989        1988.344          45.000  
E 4  22717844.887   119383053.335        2416.245          38.000  
E20  16002841.065    84095503.172       -2650.327          38.000  
R14  16616792.057    88576801.068       -3336.761          44.000  
R22  19078263.345   101841003.967       -2888.166          37.000  
R15  15150259.254    80958333.337         605.097          48.000  
R 5  15594134.682    83359551.800       -2254.367          48.000  
R23  18240704.106    97575443.270        1230.009          40.000  
R16  18276209.036    97628151.142        3772.633          36.000  
R 6  16533421.608    88225417.217        2500.153          43.000  
> 2019 11 26 15  7 48.9860000  0 20                     
G30  16309028.468    85704526.663        -752.819          52.000  
G13  17044081.904    89567235.726        1825.153          49.000  
G 7  17794580.851    93511133.701       -2574.734          49.000  
G 5  18046506.661    94835035.047       -2626.601          48.000  
G28  17938362.557    94266728.489        2332.635          45.000  
G 8  19135636.114   100558444.443         331.003          43.000  
G15  19197542.236   100883754.047        3090.028          42.000  
E30  21596720.276   113491500.220       -3119.449          31.000  
E19  19529679.609   102629144.336        -194.664          43.000  
E27  19573909.778   102861571.544        -898.260          47.000  
E21  20755608.892   109071460.653        1988.354          45.000  
E 4  22717385.204   119380636.805        2416.383          38.000  
E20  16003345.193    84098152.893       -2649.620          38.000  
R14  16617417.953    88580137.801       -3336.755          44.000  
R22  19078804.476   101843892.726       -2888.800          37.000  
R15  15150145.836    80957728.389         604.568          48.000  
R 5  15594556.306    83361806.229       -2254.673          48.000  
R23  18240474.112    97574213.046        1229.978          40.000  
R16  18275502.669    97624378.188        3773.116          36.000  
R 6  16532952.939    88222917.016        2500.092          43.000  
> 2019 11 26 15  7 49.9860000  0 20                     
G30  16309171.655    85705279.892        -753.584          52.000  
G13  17043734.819    89565411.038        1824.398          49.000  
G 7  17795070.688    93513708.744       -2575.334          49.000  
G 5  18047006.304    94837661.925       -2627.274          48.000  
G28  17937918.545    94264396.062        2332.173          45.000  
G 8  19135572.988   100558113.992         330.087          43.000  
G15  19196954.041   100880664.358        3089.487          42.000  
E30  21597314.544   113494620.479       -3120.094          31.000  
E19  19529716.543   102629339.095        -195.118          43.000  
E27  19574081.165   102862470.116        -898.875          47.000  
E21  20755230.563   109069472.630        1987.700          45.000  
E 4  22716925.051   119378220.415        2416.037          38.000  
E20  16003849.321    84100802.940       -2650.029          38.000  
R14  16618044.006    88583474.990       -3337.555          44.000  
R22  19079345.904   101846782.169       -2889.530          37.000  
R15  15150032.811    80957124.204         603.762          48.000  
R 5  15594978.138    83364061.425       -2255.692          48.000  
R23  18240244.301    97572983.704        1228.970          40.000  
R16  18274795.839    97620605.571        3771.965          35.000  
R 6  16532484.714    88220417.468        2499.078          43.000  
> 2019 11 26 15  7 50.9860000  0 21                     
G30  16309314.965    85706033.531        -753.977          52.000  
G13  17043387.595    89563586.689        1824.095          49.000  
G 7  17795560.637    93516284.001       -2575.302          49.000  
G 5  18047505.904    94840289.208       -2627.535          48.000  
G28  17937474.996    94262063.945        2331.917          45.000  
G 8  19135510.306   100557784.110         329.548          43.000  
G15  19196365.672   100877574.824        3089.383          42.000  
E30  21597910.163   113497740.807       -3120.844          31.000  
E19  19529753.389   102629534.161        -195.341          42.000  
E27  19574252.029   102863368.987        -898.978          47.000  
E21  20754852.574   109067484.791        1987.682          45.000  
E 4  22716464.862   119375804.068        2416.367          38.000  
G21  20985137.760                3       -912.051          25.000  
E20  16004353.937    84103453.141       -2650.375          37.000  
R14  16618670.111    88586812.503       -3337.689          44.000  
R22  19079887.062   101849672.233       -2890.678          37.000  
R15  15149919.795    80956520.680         603.181          48.000  
R 5  15595399.858    83366317.243       -2256.084          48.000  
R23  18240014.752    97571755.115        1228.144          40.000  
R16  18274089.742    97616833.084        3772.381          36.000  
R 6  16532016.019    88217918.421        2498.743          43.000  
> 2019 11 26 15  7 51.9860000  0 21                     
G30  16309458.450    85706787.592        -754.125          52.000  
G13  17043040.528    89561762.697        1823.914          49.000  
G 7  17796050.570    93518859.503       -2575.544          49.000  
G 5  18048005.661    94842916.934       -2627.821          48.000  
G28  17937031.045    94259732.149        2331.591          45.000  
G 8  19135448.000   100557454.812         329.066          43.000  
G15  19195777.556   100874485.463        3089.393          42.000  
E30  21598503.183   113500861.074       -3120.024          30.000  
E19  19529790.942   102629729.556        -195.456          42.000  
E27  19574422.910   102864268.187        -899.288          47.000  
E21  20754474.410   109065497.173        1987.536          45.000  
E 4  22716005.093   119373387.801        2416.487          38.000  
G21  20985312.279                3       -912.117          25.000  
E20  16004858.214    84106103.519       -2650.261          37.000  
R14  16619296.539    88590150.364       -3337.768          44.000  
R22  19080428.577   101852562.873       -2890.875          37.000  
R15  15149806.508    80955917.776         602.842          49.000  
R 5  15595821.743    83368573.758       -2256.723          48.000  
R23  18239785.395    97570527.288        1227.459          40.000  
R16  18273383.715    97613060.753        3772.863          36.000  
R 6  16531547.769    88215419.911        2498.383          43.000  
> 2019 11 26 15  7 52.9860000  0 21                     
G30  16309602.274    85707542.081        -754.737          52.000  
G13  17042693.539    89559939.065        1823.453          49.000  
G 7  17796540.502    93521435.241       -2575.864          49.000  
G 5  18048505.592    94845545.074       -2628.235          48.000  
G28  17936587.373    94257400.655        2331.373          45.000  
G 8  19135385.747   100557126.075         328.461          43.000  
G15  19195189.493   100871396.274        3089.105          41.000  
E30  21599096.403   113503981.460       -3120.549          30.000  
E19  19529827.945   102629925.273        -195.768          42.000  
E27  19574594.358   102865167.701        -899.688          47.000  
E21  20754095.845   109063509.760        1987.311          45.000  
E 4  22715545.463   119370971.633        2415.962          38.000  
G21  20985486.127                3       -913.676          25.000  
E20  16005362.438    84108754.111       -2650.823          37.000  
R14  16619922.801    88593488.608       -3338.531          44.000  
R22  19080970.048   101855454.120       -2891.408          37.000  
R15  15149693.483    80955315.496         602.015          48.000  
R 5  15596243.829    83370830.990       -2257.569          48.000  
R23  18239556.117    97569300.218        1226.536          40.000  
R16  18272677.304    97609288.630        3772.053          36.000  
R 6  16531079.666    88212921.925        2497.675          43.000  
> 2019 11 26 15  7 53.9860000  0 21                     
G30  16309746.082    85708297.010        -755.157          52.000  
G13  17042346.445    89558115.810        1823.119          49.000  
G 7  17797030.853    93524011.221       -2576.092          49.000  
G 5  18049005.532    94848173.667       -2628.783          48.000  
G28  17936143.719    94255069.503        2331.022          45.000  
G 8  19135323.127   100556797.929         327.993          43.000  
G15  19194601.342   100868307.275        3088.830          41.000  
E30  21599690.958   113507101.891       -3120.724          30.000  
E19  19529865.620   102630121.339        -196.279          42.000  
E27  19574765.423   102866067.547        -900.053          47.000  
E21  20753717.751   109061522.575        1987.018          45.000  
E 4  22715086.042   119368555.506        2416.192          38.000  
G21  20985657.663                3       -914.350          25.000  
E20  16005866.514    84111404.870       -2651.107          37.000  
R14  16620549.107    88596827.200       -3338.763          44.000  
R22  19081511.764   101858346.012       -2892.244          37.000  
R15  15149580.449    80954713.858         601.292          48.000  
R 5  15596666.133    83373088.950       -2258.219          48.000  
R23  18239326.969    97568073.917        1225.990          40.000  
R16  18271971.269    97605516.685        3771.894          36.000  
R 6  16530611.817    88210424.459        2497.357          43.000  
> 2019 11 26 15  7 54.9860000  0 21                     
G30  16309889.950    85709052.502        -755.806          52.000  
G13  17041999.701    89556293.045        1822.543          49.000  
G 7  17797521.082    93526587.593       -2576.601          49.000  
G 5  18049505.690    94850802.814       -2629.394          48.000  
G28  17935700.675    94252738.808        2330.455          45.000  
G 8  19135260.873   100556470.500         327.006          43.000  
G15  19194013.252   100865218.579        3088.746          41.000  
E30  21600284.108   113510222.494       -3121.511          31.000  
E19  19529902.990   102630317.860        -196.806          42.000  
E27  19574936.889   102866967.850        -900.630          47.000  
E21  20753339.762   109059535.743        1986.545          45.000  
E 4  22714626.412   119366139.598        2415.897          38.000  
G21  20985827.418                3       -914.548          25.000  
E20  16006370.851    84114055.949       -2651.089          37.000  
R14  16621175.613    88600166.294       -3339.410          44.000  
R22  19082053.550   101861238.641       -2892.883          37.000  
R15  15149467.826    80954113.020         600.325          48.000  
R 5  15597088.280    83375347.751       -2259.177          48.000  
R23  18239097.970    97566848.541        1225.024          40.000  
R16  18271265.285    97601745.069        3771.612          36.000  
R 6  16530143.968    88207927.675        2496.558          43.000  
> 2019 11 26 15  7 55.9860000  0 21                     
G30  16310033.487    85709808.463        -756.302          52.000  
G13  17041652.642    89554470.699        1822.132          49.000  
G 7  17798011.320    93529164.242       -2576.812          49.000  
G 5  18050005.944    94853432.440       -2629.963          48.000  
G28  17935257.265    94250408.481        2330.308          45.000  
G 8  19135198.733   100556143.675         326.611          43.000  
G15  19193425.712   100862130.112        3088.242          41.000  
E30  21600871.823   113513343.161       -3120.819          30.000  
E19  19529940.534   102630514.759        -197.116          42.000  
E27  19575108.346   102867868.512        -900.839          47.000  
E21  20752961.756   109057549.167        1986.339          45.000  
E 4  22714167.026   119363723.793        2415.887          38.000  
G21  20986001.022                3       -918.278          25.000  
E20  16006875.389    84116707.312       -2651.845          37.000  
R14  16621801.928    88603505.777       -3339.697          44.000  
R22  19082595.414   101864131.924       -2893.714          37.000  
R15  15149355.237    80953512.890         599.641          48.000  
R 5  15597510.758    83377607.268       -2259.912          48.000  
R23  18238869.049    97565623.950        1224.248          40.000  
R16  18270559.319    97597973.730        3771.070          36.000  
R 6  16529676.163    88205431.469        2495.636          43.000  
> 2019 11 26 15  7 56.9860000  0 21                     
G30  16310177.530    85710564.888        -756.997          52.000  
G13  17041305.950    89552648.750        1821.456          49.000  
G 7  17798501.784    93531741.182       -2577.389          49.000  
G 5  18050506.268    94856062.524       -2630.882          48.000  
G28  17934814.221    94248078.528        2329.350          45.000  
G 8  19135136.278   100555817.474         325.423          43.000  
G15  19192838.268   100859041.849        3087.784          42.000  
E30  21601467.477   113516463.944       -3121.375          31.000  
E19  19529977.964   102630712.019        -197.953          42.000  
E27  19575279.550   102868769.536        -901.523          47.000  
E21  20752583.662   109055562.831        1985.875          45.000  
E 4  22713707.466   119361308.108        2415.380          38.000  
G21  20986173.037                3       -915.832          25.000  
E20  16007380.128    84119358.842       -2652.165          37.000  
R14  16622428.617    88606845.641       -3340.344          44.000  
R22  19083137.392   101867025.818       -2894.413          37.000  
R15  15149243.006    80952913.452         598.795          48.000  
R 5  15597933.638    83379867.490       -2260.905          48.000  
R23  18238640.242    97564400.187        1223.069          39.000  
R16  18269853.519    97594202.547        3770.757          36.000  
R 6  16529208.261    88202935.826        2495.020          43.000  
> 2019 11 26 15  7 57.9860000  0 21                     
G30  16310321.651    85711321.946        -757.191          52.000  
G13  17040959.319    89550827.379        1821.262          49.000  
G 7  17798992.345    93534318.562       -2577.397          49.000  
G 5  18051007.028    94858693.238       -2630.846          48.000  
G28  17934371.003    94245749.083        2329.460          45.000  
G 8  19135074.190   100555492.048         324.959          43.000  
G15  19192250.649   100855953.966        3087.896          42.000  
E30  21602063.629   113519584.950       -3121.439          31.000  
E19  19530015.762   102630909.800        -197.807          42.000  
E27  19575450.981   102869671.089        -901.562          47.000  
E21  20752205.515   109053576.925        1985.882          45.000  
E 4  22713247.723   119358892.702        2415.330          38.000  
G21  20986346.475                3       -915.240          24.000  
E20  16007884.902    84122010.777       -2651.939          37.000  
R14  16623055.202    88610186.073       -3340.674          44.000  
R22  19083679.919   101869920.523       -2894.522          37.000  
R15  15149130.897    80952314.877         598.324          48.000  
R 5  15598356.675    83382128.595       -2261.394          48.000  
R23  18238411.557    97563177.403        1222.037          39.000  
R16  18269147.841    97590431.744        3770.944          36.000  
R 6  16528740.587    88200440.948        2494.690          43.000  
> 2019 11 26 15  7 58.9860000  0 20                     
G30  16310465.668    85712079.562        -757.777          52.000  
G13  17040612.661    89549006.497        1820.766          49.000  
G 7  17799482.705    93536896.324       -2577.854          49.000  
G 5  18051507.850    94861324.514       -2631.387          48.000  
G28  17933927.811    94243420.118        2328.871          45.000  
G 8  19135012.626   100555167.311         324.365          43.000  
G15  19191663.249   100852866.396        3087.598          42.000  
E30  21602651.571   113522706.141       -3121.032          30.000  
E19  19530053.332   102631108.056        -198.267          42.000  
E27  19575622.874   102870573.092        -902.108          47.000  
E21  20751827.753   109051591.355        1985.560          45.000  
E 4  22712788.259   119356477.489        2415.176          38.000  
E20  16008389.483    84124663.045       -2652.580          37.000  
R14  16623681.979    88613527.006       -3341.021          44.000  
R22  19084222.211   101872815.965       -2895.561          37.000  
R15  15149019.285    80951717.057         597.463          48.000  
R 5  15598780.035    83384390.527       -2262.323          48.000  
R23  18238182.924    97561955.493        1221.326          39.000  
R16  18268441.901    97586661.242        3770.360          36.000  
R 6  16528273.069    88197946.757        2493.915          43.000  
> 2019 11 26 15  7 59.9860000  0 20                     
G30  16310610.182    85712837.613        -758.345          52.000  
G13  17040266.152    89547185.979        1820.343          49.000  
G 7  17799973.457    93539474.317       -2577.985          49.000  
G 5  18052009.098    94863956.219       -2631.842          48.000  
G28  17933484.934    94241091.465        2328.477          45.000  
G 8  19134950.652   100554843.158         324.192          43.000  
G15  19191075.612   100849778.998        3087.409          42.000  
E30  21603252.207   113525827.383       -3121.457          30.000  
E19  19530091.382   102631306.642        -198.884          42.000  
E27  19575794.070   102871475.416        -902.426          47.000  
E21  20751449.651   109049606.006        1985.316          45.000  
E 4  22712328.768   119354062.339        2414.849          38.000  
E20  16008894.222    84127315.457       -2652.867          37.000  
R14  16624308.843    88616868.321       -3341.577          44.000  
R22  19084764.904   101875712.007       -2896.097          37.000  
R15  15148907.551    80951119.900         596.817          48.000  
R 5  15599203.342    83386653.155       -2262.973          48.000  
R23  18237954.754    97560734.398        1220.557          39.000  
R16  18267735.987    97582890.932        3769.972          36.000  
R 6  16527805.595    88195453.073        2493.750          43.000  
> 2019 11 26 15  8  0.9860000  0 20                     
G30  16310754.443    85713596.064        -758.710          52.000  
G13  17039919.809    89545365.797        1819.976          49.000  
G 7  17800464.262    93542052.546       -2578.365          49.000  
G 5  18052510.138    94866588.335       -2632.304          48.000  
G28  17933042.117    94238763.109        2328.259          45.000  
G 8  19134888.721   100554519.588         323.267          43.000  
G15  19190488.386   100846691.768        3087.084          42.000  
E30  21603847.774   113528948.647       -3120.946          30.000  
E19  19530129.022   102631505.521        -199.160          42.000  
E27  19575965.544   102872378.042        -902.854          47.000  
E21  20751071.879   109047620.854        1985.031          44.000  
E 4  22711869.068   119351647.251        2414.993          38.000  
E20  16009398.490    84129968.069       -2652.617          37.000  
R14  16624935.481    88620209.952       -3341.809          44.000  
R22  19085307.623   101878608.636       -2896.836          37.000  
R15  15148796.228    80950523.374         596.226          48.000  
R 5  15599626.780    83388916.459       -2263.598          48.000  
R23  18237726.479    97559514.026        1219.945          39.000  
R16  18267030.056    97579120.764        3769.942          37.000  
R 6  16527338.122    88192959.919        2492.761          43.000  
> 2019 11 26 15  8  1.9860000  0 20                     
G30  16310898.991    85714355.145        -759.365          52.000  
G13  17039573.353    89543546.194        1819.378          49.000  
G 7  17800954.709    93544631.206       -2578.803          49.000  
G 5  18053011.003    94869221.075       -2632.926          48.000  
G28  17932599.126    94236435.285        2327.680          45.000  
G 8  19134827.436   100554196.755         322.649          43.000  
G15  19189901.091   100843604.898        3086.692          42.000  
E30  21604441.160   113532070.159       -3120.920          30.000  
E19  19530167.343   102631704.927        -199.495          42.000  
E27  19576137.464   102873281.183        -903.262          47.000  
E21  20750694.396   109045636.112        1984.522          44.000  
E 4  22711409.622   119349232.425        2414.702          38.000  
E20  16009903.499    84132621.090       -2653.214          37.000  
R14  16625562.345    88623552.136       -3342.401          44.000  
R22  19085850.499   101881506.091       -2897.708          37.000  
R15  15148685.026    80949927.684         595.418          48.000  
R 5  15600050.393    83391180.659       -2264.511          48.000  
R23  18237498.082    97558294.639        1218.898          39.000  
R16  18266324.675    97575351.002        3769.695          37.000  
R 6  16526871.075    88190467.468        2492.133          43.000  
> 2019 11 26 15  8  2.9860000  0 20                     
G30  16311043.418    85715114.689        -759.502          52.000  
G13  17039227.044    89541726.978        1819.419          49.000  
G 7  17801445.322    93547210.144       -2578.752          49.000  
G 5  18053512.225    94871854.275       -2633.180          48.000  
G28  17932156.440    94234107.823        2327.505          45.000  
G 8  19134766.133   100553874.548         322.219          43.000  
G15  19189313.734   100840518.232        3086.891          42.000  
E30  21605036.335   113535191.763       -3121.337          31.000  
E19  19530205.088   102631904.710        -199.749          42.000  
E27  19576309.462   102874184.682        -903.403          47.000  
E21  20750316.669   109043651.617        1984.572          44.000  
E 4  22710950.026   119346817.681        2415.244          38.000  
E20  16010408.639    84135274.295       -2653.164          37.000  
R14  16626189.488    88626894.696       -3342.432          44.000  
R22  19086393.306   101884404.211       -2898.373          37.000  
R15  15148573.816    80949332.652         595.012          49.000  
R 5  15600474.564    83393445.563       -2264.925          48.000  
R23  18237270.208    97557076.058        1218.467          39.000  
R16  18265618.970    97571581.480        3769.490          37.000  
R 6  16526404.195    88187975.565        2491.937          43.000  
> 2019 11 26 15  8  3.9860000  0 20                     
G30  16311188.063    85715873.606        -758.435          52.000  
G13  17038880.858    89539907.087        1820.392          49.000  
G 7  17801935.952    93549788.292       -2577.612          49.000  
G 5  18054013.003    94874486.853       -2632.198          48.000  
G28  17931713.335    94231779.649        2328.389          45.000  
G 8  19134704.857   100553551.837         323.281          43.000  
G15  19188726.464   100837430.715        3088.086          42.000  
E30  21605629.284   113538312.364       -3120.101          31.000  
E19  19530242.885   102632103.763        -198.485          42.000  
E27  19576481.041   102875087.459        -902.347          47.000  
E21  20749938.889   109041666.280        1985.907          44.000  
E 4  22710489.812   119344401.997        2416.338          38.000  
E20  16010913.439    84137926.633       -2651.326          37.000  
R14  16626816.483    88630236.572       -3341.498          44.000  
R22  19086936.304   101887301.829       -2897.222          37.000  
R15  15148462.772    80948737.225         595.740          49.000  
R 5  15600898.709    83395710.088       -2264.274          48.000  
R23  18237042.361    97555857.159        1219.096          39.000  
R16  18264913.458    97567811.121        3770.472          37.000  
R 6  16525937.192    88185483.135        2492.950          43.000  
> 2019 11 26 15  8  4.9860000  0 21                     
G30  16311332.594    85716632.563        -759.794          52.000  
G13  17038534.497    89538087.159        1819.106          49.000  
G 7  17802426.783    93552366.281       -2578.765          49.000  
G 5  18054514.060    94877119.461       -2633.499          48.000  
G28  17931270.518    94229451.371        2327.604          45.000  
G 8  19134643.126   100553229.331         321.536          43.000  
G15  19188138.732   100834342.956        3087.070          42.000  
E30  21606223.587   113541432.598       -3120.899          31.000  
E19  19530280.630   102632302.741        -199.659          42.000  
E27  19576652.908   102875990.140        -903.341          47.000  
E21  20749560.874   109039680.767        1984.700          44.000  
E 4  22710029.833   119341985.960        2415.288          38.000  
G21  20987574.482                3       -918.518          25.000  
E20  16011418.065    84140578.804       -2653.041          37.000  
R14  16627443.583    88633578.418       -3342.883          44.000  
R22  19087479.486   101890199.685       -2899.082          37.000  
R15  15148351.518    80948142.038         594.244          49.000  
R 5  15601323.003    83397974.900       -2265.808          48.000  
R23  18236814.757    97554638.579        1217.462          39.000  
R16  18264207.780    97564040.467        3769.813          37.000  
R 6  16525469.954    88182990.843        2491.589          43.000  
> 2019 11 26 15  8  5.9860000  0 21                     
G30  16311477.082    85717393.408        -761.624          52.000  
G13  17038188.521    89536269.064        1817.321          49.000  
G 7  17802917.632    93554945.973       -2580.380          49.000  
G 5  18055015.893    94879753.961       -2635.362          48.000  
G28  17930827.885    94227124.911        2325.664          45.000  
G 8  19134582.225   100552908.858         319.755          42.000  
G15  19187551.358   100831256.867        3085.083          42.000  
E30  21606817.566   113544554.355       -3122.733          31.000  
E19  19530318.732   102632503.522        -201.509          42.000  
E27  19576824.697   102876894.629        -905.224          47.000  
E21  20749183.303   109037696.932        1983.120          44.000  
E 4  22709570.316   119339571.473        2413.776          38.000  
G21  20987751.549                3       -920.292          25.000  
E20  16011922.838    84143232.600       -2654.709          37.000  
R14  16628070.683    88636922.088       -3344.446          44.000  
R22  19088023.034   101893099.632       -2901.048          37.000  
R15  15148240.857    80947548.981         592.139          49.000  
R 5  15601747.287    83400241.905       -2267.929          48.000  
R23  18236587.451    97553422.273        1215.326          39.000  
R16  18263502.294    97560271.509        3768.093          37.000  
R 6  16525003.309    88180500.594        2489.240          43.000  
> 2019 11 26 15  8  6.9860000  0 21                     
G30  16311622.294    85718155.412        -762.433          53.000  
G13  17037842.553    89534452.062        1816.510          49.000  
G 7  17803408.786    93557526.655       -2581.189          49.000  
G 5  18055517.508    94882389.624       -2636.105          48.000  
G28  17930385.138    94224799.495        2324.896          45.000  
G 8  19134521.464   100552589.685         318.771          42.000  
G15  19186964.132   100828171.656        3084.955          42.000  
E30  21607411.772   113547676.844       -3123.078          30.000  
E19  19530357.140   102632705.370        -202.278          42.000  
E27  19576997.646   102877800.171        -906.080          47.000  
E21  20748805.803   109035714.050        1982.521          44.000  
E 4  22709111.210   119337157.786        2413.323          38.000  
G21  20987922.465                3       -921.731          25.000  
E20  16012428.188    84145887.311       -2654.777          37.000  
R14  16628697.835    88640266.845       -3345.203          44.000  
R22  19088566.634   101896000.908       -2901.854          37.000  
R15  15148130.258    80946957.301         591.044          49.000  
R 5  15602171.886    83402510.332       -2269.018          48.000  
R23  18236360.406    97552207.482        1214.115          39.000  
R16  18262797.227    97556503.434        3767.746          37.000  
R 6  16524536.559    88178011.631        2488.434          43.000  
> 2019 11 26 15  8  7.9860000  0 21                     
G30  16311767.506    85718917.984        -762.636          53.000  
G13  17037496.951    89532635.546        1816.475          49.000  
G 7  17803899.835    93560107.686       -2581.131          49.000  
G 5  18056019.106    94885025.843       -2636.355          48.000  
G28  17929942.103    94222474.531        2325.044          45.000  
G 8  19134460.763   100552271.239         318.152          42.000  
G15  19186377.045   100825086.765        3084.892          42.000  
E30  21608005.542   113550799.516       -3121.758          31.000  
E19  19530395.697   102632907.658        -202.238          42.000  
E27  19577169.522   102878706.145        -905.963          47.000  
E21  20748428.695   109033731.512        1982.425          44.000  
E 4  22708651.746   119334744.301        2413.449          38.000  
G21  20988097.412                3       -921.620          25.000  
E20  16012933.520    84148542.375       -2655.294          37.000  
R14  16629325.196    88643612.078       -3345.325          44.000  
R22  19089110.444   101898902.919       -2902.383          37.000  
R15  15148019.754    80946366.412         590.642          49.000  
R 5  15602596.537    83404779.575       -2269.630          48.000  
R23  18236133.387    97550993.569        1213.749          39.000  
R16  18262092.377    97552735.705        3767.698          37.000  
R 6  16524070.115    88175523.330        2488.104          43.000  
> 2019 11 26 15  8  8.9860000  0 21                     
G30  16311912.596    85719681.040        -763.397          53.000  
G13  17037151.358    89530819.463        1815.678          49.000  
G 7  17804391.058    93562689.033       -2581.595          49.000  
G 5  18056520.957    94887662.548       -2637.032          48.000  
G28  17929499.932    94220149.956        2324.287          45.000  
G 8  19134400.010   100551953.388         317.549          43.000  
G15  19185790.038   100822002.093        3084.667          42.000  
E30  21608600.306   113553922.388       -3123.276          30.000  
E19  19530434.741   102633110.354        -203.144          42.000  
E27  19577342.262   102879612.522        -906.706          47.000  
E21  20748051.543   109031749.241        1981.990          44.000  
E 4  22708192.648   119332330.920        2413.460          38.000  
G21  20988272.421                3       -921.340          25.000  
E20  16013438.800    84151197.617       -2655.278          37.000  
R14  16629952.907    88646957.733       -3345.917          44.000  
R22  19089654.411   101901805.560       -2902.713          36.000  
R15  15147909.216    80945776.248         589.663          49.000  
R 5  15603021.153    83407049.568       -2270.465          48.000  
R23  18235906.683    97549780.516        1212.537          39.000  
R16  18261387.406    97548968.215        3767.399          37.000  
R 6  16523604.124    88173035.619        2487.347          43.000  
> 2019 11 26 15  8  9.9860000  0 21                     
G30  16312057.782    85720444.713        -764.257          53.000  
G13  17036805.984    89529003.939        1815.064          49.000  
G 7  17804882.422    93565270.819       -2582.266          49.000  
G 5  18057022.904    94890299.879       -2637.740          48.000  
G28  17929057.316    94217825.905        2323.656          45.000  
G 8  19134339.877   100551636.326         316.484          43.000  
G15  19185203.178   100818917.836        3083.773          42.000  
E30  21609194.643   113557045.389       -3122.673          31.000  
E19  19530473.376   102633313.555        -203.556          42.000  
E27  19577514.600   102880519.394        -907.240          47.000  
E21  20747674.278   109029767.383        1981.551          44.000  
E 4  22707733.271   119329917.835        2413.008          38.000  
G21  20988448.790                3       -922.376          25.000  
E20  16013944.176    84153853.289       -2655.585          38.000  
R14  16630580.713    88650303.980       -3346.710          44.000  
R22  19090198.561   101904709.044       -2904.371          37.000  
R15  15147798.817    80945186.925         588.709          49.000  
R 5  15603446.005    83409320.469       -2271.534          48.000  
R23  18235679.987    97548568.429        1211.506          39.000  
R16  18260682.400    97545201.116        3766.700          37.000  
R 6  16523138.125    88170548.634        2486.560          43.000  
> 2019 11 26 15  8 10.9860000  0 21                     
G30  16312203.229    85721208.344        -763.139          53.000  
G13  17036460.600    89527188.328        1815.850          49.000  
G 7  17805373.846    93567852.383       -2581.185          49.000  
G 5  18057524.885    94892937.174       -2636.904          48.000  
G28  17928614.691    94215501.724        2324.658          45.000  
G 8  19134279.673   100551319.383         317.069          43.000  
G15  19184616.493   100815833.273        3084.918          42.000  
E30  21609788.710   113560168.049       -3122.405          31.000  
E19  19530511.845   102633516.629        -202.746          42.000  
E27  19577687.095   102881426.141        -906.352          47.000  
E21  20747297.502   109027785.275        1982.585          44.000  
E 4  22707274.356   119327504.357        2413.842          38.000  
G21  20988620.710                3       -920.004          25.000  
E20  16014449.342    84156508.696       -2654.960          38.000  
R14  16631208.502    88653650.122       -3345.849          44.000  
R22  19090742.432   101907612.621       -2903.763          37.000  
R15  15147688.584    80944597.742         589.430          49.000  
R 5  15603871.005    83411591.592       -2270.967          48.000  
R23  18235453.466    97547356.647        1212.006          39.000  
R16  18259977.298    97541433.726        3767.226          37.000  
R 6  16522672.012    88168061.723        2487.054          43.000  
> 2019 11 26 15  8 11.9860000  0 21                     
G30  16312348.712    85721972.442        -764.256          53.000  
G13  17036115.086    89525373.096        1815.012          49.000  
G 7  17805865.026    93570434.216       -2581.897          49.000  
G 5  18058026.806    94895574.927       -2637.927          48.000  
G28  17928172.485    94213177.893        2323.566          45.000  
G 8  19134219.426   100551003.041         315.822          43.000  
G15  19184029.607   100812748.920        3084.049          42.000  
E30  21610382.759   113563290.754       -3122.929          31.000  
E19  19530550.750   102633720.055        -203.513          42.000  
E27  19577859.748   102882333.229        -907.197          46.000  
E21  20746920.403   109025803.412        1981.641          44.000  
E 4  22706815.197   119325090.961        2413.504          38.000  
G21  20988798.309                3       -923.679          26.000  
E20  16014955.058    84159164.276       -2655.599          37.000  
R14  16631836.100    88656996.608       -3346.740          44.000  
R22  19091286.486   101910516.831       -2904.748          37.000  
R15  15147578.421    80944009.228         588.103          49.000  
R 5  15604295.892    83413863.415       -2272.160          49.000  
R23  18235227.023    97546145.664        1210.693          39.000  
R16  18259272.265    97537666.512        3766.923          37.000  
R 6  16522206.021    88165575.354        2486.169          43.000  
> 2019 11 26 15  8 12.9860000  0 21                     
G30  16312494.133    85722736.744        -764.527          53.000  
G13  17035769.633    89523558.004        1814.924          49.000  
G 7  17806356.337    93573016.062       -2581.727          49.000  
G 5  18058528.744    94898212.872       -2638.012          48.000  
G28  17927730.462    94210854.158        2323.519          45.000  
G 8  19134159.153   100550687.063         315.590          42.000  
G15  19183442.783   100809664.522        3084.169          42.000  
E30  21610976.686   113566413.284       -3123.003          31.000  
E19  19530589.193   102633923.601        -203.785          42.000  
E27  19578032.400   102883240.414        -907.363          46.000  
E21  20746543.373   109023821.542        1981.655          44.000  
E 4  22706355.847   119322677.410        2413.652          38.000  
G21  20988975.438                3       -920.526          26.000  
E20  16015460.486    84161819.861       -2655.772          38.000  
R14  16632464.063    88660343.209       -3346.802          45.000  
R22  19091830.645   101913421.438       -2904.448          37.000  
R15  15147468.240    80943421.155         587.803          49.000  
R 5  15604721.136    83416135.681       -2272.543          49.000  
R23  18235000.563    97544935.212        1210.277          39.000  
R16  18258567.285    97533899.249        3767.312          37.000  
R 6  16521740.109    88163089.307        2485.864          43.000  
> 2019 11 26 15  8 13.9860000  0 21                     
G30  16312639.607    85723501.965        -765.564          53.000  
G13  17035424.336    89521743.779        1813.929          49.000  
G 7  17806847.717    93575598.662       -2582.818          49.000  
G 5  18059030.604    94900851.757       -2639.185          48.000  
G28  17927288.169    94208531.254        2322.436          45.000  
G 8  19134099.317   100550372.140         314.445          42.000  
G15  19182856.124   100806580.782        3083.534          42.000  
E30  21611571.380   113569536.328       -3122.973          30.000  
E19  19530628.011   102634127.949        -204.552          42.000  
E27  19578205.506   102884148.418        -908.272          46.000  
E21  20746166.065   109021840.377        1980.872          44.000  
E 4  22705896.723   119320264.442        2412.877          38.000  
G21  20989152.165                3       -924.135          26.000  
E20  16015966.150    84164476.090       -2656.640          37.000  
R14  16633092.210    88663690.664       -3347.754          44.000  
R22  19092374.952   101916327.182       -2906.102          37.000  
R15  15147358.705    80942834.283         586.480          49.000  
R 5  15605146.921    83418409.124       -2273.916          49.000  
R23  18234774.365    97543726.054        1208.678          39.000  
R16  18257862.296    97530132.699        3766.839          37.000  
R 6  16521274.633    88160604.303        2484.650          43.000  
> 2019 11 26 15  8 14.9860000  0 21                     
G30  16312785.491    85724268.081        -766.699          53.000  
G13  17035079.258    89519930.391        1812.951          49.000  
G 7  17807339.404    93578181.967       -2583.718          49.000  
G 5  18059532.864    94903491.534       -2640.404          48.000  
G28  17926846.112    94206209.132        2321.670          45.000  
G 8  19134039.654   100550058.254         313.262          42.000  
G15  19182269.561   100803497.700        3082.378          42.000  
E30  21612166.066   113572659.895       -3123.775          31.000  
E19  19530667.100   102634333.111        -205.545          42.000  
E27  19578378.351   102885057.206        -909.302          46.000  
E21  20745789.323   109019859.891        1980.027          44.000  
E 4  22705437.817   119317852.015        2411.986          38.000  
G21  20989329.476                3       -924.550          26.000  
E20  16016471.709    84167132.965       -2657.411          37.000  
R14  16633720.453    88667038.974       -3348.944          44.000  
R22  19092919.504   101919233.991       -2907.860          36.000  
R15  15147249.318    80942248.534         585.076          49.000  
R 5  15605572.576    83420683.728       -2275.194          49.000  
R23  18234548.498    97542518.131        1207.317          39.000  
R16  18257157.290    97526366.792        3766.019          37.000  
R 6  16520809.114    88158120.311        2483.441          43.000  
> 2019 11 26 15  8 15.9860000  0 21                     
G30  16312931.235    85725034.797        -766.908          53.000  
G13  17034734.049    89518117.540        1812.718          49.000  
G 7  17807831.186    93580765.689       -2583.747          49.000  
G 5  18060035.073    94906131.896       -2640.575          48.000  
G28  17926404.377    94203887.515        2321.575          45.000  
G 8  19133979.660   100549745.121         312.970          42.000  
G15  19181682.963   100800414.953        3082.695          42.000  
E30  21612760.351   113575783.683       -3123.433          31.000  
E19  19530706.293   102634538.760        -205.698          42.000  
E27  19578551.378   102885966.493        -909.461          47.000  
E21  20745412.381   109017879.795        1980.036          44.000  
E 4  22704978.771   119315439.812        2412.162          38.000  
G21  20989504.458                3       -925.630          26.000  
E20  16016977.364    84169790.225       -2657.219          37.000  
R14  16634348.791    88670387.820       -3348.999          45.000  
R22  19093463.820   101922141.555       -2907.841          36.000  
R15  15147139.775    80941663.567         584.834          49.000  
R 5  15605998.675    83422959.219       -2275.729          49.000  
R23  18234322.753    97541311.144        1206.727          39.000  
R16  18256452.589    97522601.273        3765.318          37.000  
R 6  16520343.621    88155637.006        2483.130          43.000  
> 2019 11 26 15  8 16.9860000  0 21                     
G30  16313077.433    85725802.024        -767.701          52.000  
G13  17034389.207    89516305.146        1811.796          49.000  
G 7  17808323.142    93583349.742       -2584.544          49.000  
G 5  18060537.849    94908772.780       -2641.416          48.000  
G28  17925962.555    94201566.326        2320.583          45.000  
G 8  19133919.981   100549432.668         311.735          42.000  
G15  19181096.583   100797332.481        3081.891          42.000  
E30  21613355.185   113578907.634       -3124.398          31.000  
E19  19530745.024   102634744.839        -206.675          42.000  
E27  19578724.685   102886876.190        -910.339          46.000  
E21  20745035.579   109015900.007        1979.328          44.000  
E 4  22704519.752   119313027.774        2411.708          38.000  
G21  20989682.817                3       -925.885          26.000  
E20  16017482.774    84172447.758       -2658.200          37.000  
R14  16634977.261    88673737.119       -3349.994          44.000  
R22  19094008.301   101925049.845       -2909.441          35.000  
R15  15147030.432    80941079.317         583.577          49.000  
R 5  15606424.644    83425235.505       -2276.940          49.000  
R23  18234097.226    97540105.018        1205.480          39.000  
R16  18255747.801    97518836.012        3764.765          38.000  
R 6  16519878.328    88153154.329        2482.220          43.000  
> 2019 11 26 15  8 17.9860000  0 21                     
G30  16313223.613    85726570.053        -768.533          52.000  
G13  17034044.652    89514493.483        1811.177          49.000  
G 7  17808814.924    93585934.403       -2584.956          49.000  
G 5  18061040.127    94911414.460       -2642.079          48.000  
G28  17925521.038    94199245.808        2320.169          45.000  
G 8  19133860.606   100549121.159         310.801          42.000  
G15  19180510.195   100794250.540        3081.757          42.000  
E30  21613949.801   113582031.973       -3124.786          31.000  
E19  19530784.548   102634951.613        -207.283          42.000  
E27  19578897.844   102887786.561        -910.665          47.000  
E21  20744658.610   109013920.800        1978.913          44.000  
E 4  22704061.003   119310616.179        2411.403          38.000  
G21  20989861.368                3       -926.554          26.000  
E20  16017989.014    84175105.834       -2658.173          37.000  
R14  16635605.626    88677087.121       -3350.372          44.000  
R22  19094552.966   101927959.071       -2909.802          35.000  
R15  15146921.324    80940496.089         582.651          49.000  
R 5  15606850.795    83427512.856       -2277.906          49.000  
R23  18233871.944    97538900.025        1204.432          39.000  
R16  18255043.266    97515071.341        3764.216          37.000  
R 6  16519412.957    88150672.546        2481.378          43.000  
> 2019 11 26 15  8 18.9860000  0 21                     
G30  16313369.750    85727338.444        -768.654          52.000  
G13  17033699.984    89512682.114        1811.109          49.000  
G 7  17809306.654    93588519.235       -2585.005          49.000  
G 5  18061542.859    94914056.502       -2642.310          48.000  
G28  17925079.321    94196925.569        2319.740          45.000  
G 8  19133801.633   100548810.148         310.555          42.000  
G15  19179923.929   100791168.720        3081.661          42.000  
E30  21614543.815   113585156.278       -3124.224          31.000  
E19  19530824.047   102635158.632        -207.153          42.000  
E27  19579071.151   102888697.194        -910.803          46.000  
E21  20744282.314   109011941.733        1978.846          44.000  
E 4  22703602.124   119308204.601        2411.484          38.000  
G21  20990043.365                3       -926.166          26.000  
E20  16018494.739    84177764.035       -2658.236          38.000  
R14  16636234.165    88680437.410       -3350.708          44.000  
R22  19095098.059   101930868.831       -2910.115          35.000  
R15  15146811.981    80939913.467         582.192          49.000  
R 5  15607276.869    83429790.810       -2278.361          49.000  
R23  18233646.548    97537695.709        1204.137          39.000  
R16  18254338.853    97511306.774        3764.292          38.000  
R 6  16518947.821    88148191.244        2480.896          43.000  
> 2019 11 26 15  8 19.9860000  0 21                     
G30  16313516.018    85728107.301        -769.134          53.000  
G13  17033355.378    89510871.159        1810.702          49.000  
G 7  17809798.584    93591104.359       -2585.348          49.000  
G 5  18062045.600    94916699.018       -2642.873          48.000  
G28  17924637.909    94194605.685        2319.709          45.000  
G 8  19133742.547   100548499.773         309.996          42.000  
G15  19179337.444   100788087.124        3081.249          42.000  
E30  21615138.414   113588280.672       -3124.356          31.000  
E19  19530864.034   102635366.042        -207.733          42.000  
E27  19579244.519   102889608.200        -911.297          47.000  
E21  20743905.677   109009962.933        1978.579          44.000  
E 4  22703143.279   119305793.125        2411.356          38.000  
G21  20990222.308                3       -926.216          26.000  
E20  16019000.359    84180422.486       -2658.885          37.000  
R14  16636862.705    88683788.093       -3350.940          44.000  
R22  19095643.099   101933779.260       -2910.678          35.000  
R15  15146702.725    80939331.526         581.502          49.000  
R 5  15607702.776    83432069.482       -2279.039          49.000  
R23  18233421.405    97536492.236        1202.888          39.000  
R16  18253634.205    97507542.407        3764.255          38.000  
R 6  16518482.956    88145710.492        2480.481          43.000  
> 2019 11 26 15  8 20.9860000  0 21                     
G30  16313662.582    85728876.770        -769.820          53.000  
G13  17033010.910    89509060.756        1810.000          49.000  
G 7  17810290.462    93593689.913       -2585.925          49.000  
G 5  18062548.515    94919342.146       -2643.608          48.000  
G28  17924196.191    94192286.320        2318.936          45.000  
G 8  19133683.731   100548190.165         308.962          42.000  
G15  19178751.213   100785005.875        3081.064          42.000  
E30  21615733.100   113591405.308       -3124.805          32.000  
E19  19530903.419   102635573.942        -208.043          42.000  
E27  19579417.756   102890519.704        -911.850          47.000  
E21  20743529.058   109007984.530        1978.259          44.000  
E 4  22702684.740   119303381.893        2411.372          38.000  
G21  20990399.402                3       -927.760          25.000  
E20  16019506.424    84183081.277       -2658.621          38.000  
R14  16637491.357    88687139.355       -3351.825          44.000  
R22  19096188.209   101936690.481       -2912.144          35.000  
R15  15146593.836    80938750.423         580.628          49.000  
R 5  15608128.954    83434349.020       -2280.075          49.000  
R23  18233196.769    97535289.713        1201.874          38.000  
R16  18252929.635    97503778.433        3763.723          38.000  
R 6  16518018.231    88143230.484        2479.602          43.000  
> 2019 11 26 15  8 21.9860000  0 21                     
G30  16313808.955    85729646.662        -770.052          53.000  
G13  17032666.478    89507250.716        1809.923          49.000  
G 7  17810782.637    93596275.693       -2585.781          49.000  
G 5  18063051.500    94921985.688       -2643.688          48.000  
G28  17923755.006    94189967.267        2318.844          45.000  
G 8  19133624.994   100547881.118         308.992          43.000  
G15  19178165.086   100781924.809        3081.065          42.000  
E30  21616328.179   113594529.995       -3124.674          32.000  
E19  19530942.752   102635782.191        -208.427          42.000  
E27  19579591.010   102891431.521        -911.941          47.000  
E21  20743153.049   109006006.333        1978.184          44.000  
E 4  22702225.816   119300970.754        2411.340          38.000  
G21  20990575.387                3       -928.890          25.000  
E20  16020012.594    84185740.308       -2659.279          38.000  
R14  16638120.228    88690490.942       -3351.733          44.000  
R22  19096733.641   101939602.277       -2911.858          35.000  
R15  15146485.042    80938169.951         580.206          49.000  
R 5  15608555.499    83436629.234       -2280.459          49.000  
R23  18232972.045    97534087.939        1201.242          38.000  
R16  18252224.916    97500014.632        3763.904          37.000  
R 6  16517553.331    88140751.005        2479.169          43.000  
> 2019 11 26 15  8 22.9860000  0 21                     
G30  16313955.484    85730417.076        -770.667          53.000  
G13  17032322.063    89505441.139        1809.250          49.000  
G 7  17811274.716    93598861.819       -2586.249          49.000  
G 5  18063554.695    94924629.758       -2644.443          48.000  
G28  17923313.856    94187648.640        2318.410          45.000  
G 8  19133566.352   100547572.755         307.981          43.000  
G15  19177578.785   100778844.021        3080.731          42.000  
E30  21616922.900   113597654.777       -3124.616          32.000  
E19  19530982.861   102635990.846        -208.793          42.000  
E27  19579764.361   102892343.758        -912.439          47.000  
E21  20742776.761   109004028.459        1977.644          44.000  
E 4  22701767.172   119298559.769        2410.810          38.000  
G21  20990751.678                3       -900.162          24.000  
E20  16020518.929    84188399.548       -2659.510          38.000  
R14  16638749.073    88693842.979       -3352.246          44.000  
R22  19097279.083   101942514.771       -2912.252          35.000  
R15  15146376.354    80937590.208         579.423          49.000  
R 5  15608981.929    83438910.254       -2281.461          49.000  
R23  18232747.539    97532887.052        1200.569          38.000  
R16  18251520.425    97496251.120        3763.269          37.000  
R 6  16517088.867    88138272.158        2478.455          43.000  
> 2019 11 26 15  8 23.9860000  0 20                     
G30  16314102.372    85731187.907        -770.985          53.000  
G13  17031977.796    89503631.912        1809.012          49.000  
G 7  17811766.620    93601448.183       -2586.591          49.000  
G 5  18064057.627    94927274.236       -2644.617          47.000  
G28  17922872.584    94185330.331        2318.144          45.000  
G 8  19133507.519   100547264.938         307.719          43.000  
G15  19176992.641   100775763.401        3080.515          42.000  
E30  21617517.324   113600779.640       -3124.633          32.000  
E19  19531022.753   102636199.819        -208.876          42.000  
E27  19579938.069   102893256.304        -912.675          47.000  
E21  20742400.613   109002050.776        1977.608          45.000  
E 4  22701308.266   119296148.833        2411.047          38.000  
E20  16021024.881    84191058.992       -2659.289          38.000  
R14  16639377.831    88697195.337       -3352.539          44.000  
R22  19097825.205   101945427.899       -2913.386          35.000  
R15  15146268.241    80937011.110         578.741          49.000  
R 5  15609408.823    83441191.968       -2282.102          49.000  
R23  18232523.313    97531686.917        1199.594          38.000  
R16  18250815.794    97492487.779        3763.305          37.000  
R 6  16516624.543    88135793.854        2477.985          43.000  
> 2019 11 26 15  8 24.9860000  0 20                     
G30  16314249.180    85731959.326        -771.570          53.000  
G13  17031633.809    89501823.205        1808.686          49.000  
G 7  17812259.187    93604034.920       -2586.744          49.000  
G 5  18064560.857    94929919.301       -2645.078          47.000  
G28  17922431.643    94183012.495        2317.638          45.000  
G 8  19133449.052   100546957.868         306.804          43.000  
G15  19176406.375   100772683.091        3080.410          42.000  
E30  21618112.167   113603904.692       -3124.882          32.000  
E19  19531062.356   102636409.295        -209.604          42.000  
E27  19580111.873   102894169.323        -913.155          47.000  
E21  20742024.483   109000073.458        1977.315          45.000  
E 4  22700849.186   119293738.131        2410.878          38.000  
E20  16021531.469    84193718.795       -2660.037          38.000  
R14  16640006.684    88700548.213       -3352.984          44.000  
R22  19098370.969   101948341.776       -2914.451          35.000  
R15  15146160.250    80936432.819         578.019          49.000  
R 5  15609835.865    83443474.534       -2282.736          49.000  
R23  18232299.060    97530487.703        1198.642          38.000  
R16  18250111.320    97488724.787        3762.847          37.000  
R 6  16516160.472    88133316.224        2477.570          43.000  
> 2019 11 26 15  8 25.9860000  0 20                     
G30  16314395.884    85732731.118        -772.367          52.000  
G13  17031289.568    89500014.830        1807.841          49.000  
G 7  17812751.397    93606621.862       -2587.472          49.000  
G 5  18065063.929    94932564.746       -2645.946          47.000  
G28  17921990.519    94180694.956        2316.896          45.000  
G 8  19133391.004   100546651.322         305.957          43.000  
G15  19175820.187   100769602.927        3079.747          42.000  
E30  21618706.923   113607029.753       -3125.270          32.000  
E19  19531102.500   102636619.042        -210.462          43.000  
E27  19580285.590   102895082.612        -913.853          47.000  
E21  20741648.509   108998096.319        1976.673          45.000  
E 4  22700390.472   119291327.446        2410.186          38.000  
E20  16022037.325    84196378.706       -2660.657          37.000  
R14  16640635.407    88703901.400       -3353.583          44.000  
R22  19098916.987   101951256.189       -2915.130          35.000  
R15  15146052.111    80935855.135         577.012          49.000  
R 5  15610263.124    83445757.728       -2283.913          49.000  
R23  18232075.200    97529289.215        1197.922          39.000  
R16  18249407.186    97484961.903        3762.138          37.000  
R 6  16515696.078    88130839.094        2476.501          43.000  
> 2019 11 26 15  8 26.9860000  0 20                     
G30  16314542.789    85733503.529        -772.854          52.000  
G13  17030945.625    89498206.997        1807.471          49.000  
G 7  17813243.981    93609209.230       -2587.657          49.000  
G 5  18065567.420    94935210.810       -2646.461          47.000  
G28  17921549.796    94178377.908        2316.736          45.000  
G 8  19133332.912   100546345.546         305.366          43.000  
G15  19175233.773   100766523.123        3079.568          42.000  
E30  21619301.478   113610154.997       -3125.336          32.000  
E19  19531142.496   102636829.292        -210.733          43.000  
E27  19580459.298   102895996.404        -914.151          47.000  
E21  20741272.561   108996119.571        1976.538          45.000  
E 4  22699931.671   119288917.022        2410.263          38.000  
E20  16022543.495    84199038.982       -2660.310          38.000  
R14  16641264.496    88707255.130       -3353.998          44.000  
R22  19099463.126   101954171.392       -2916.005          35.000  
R15  15145944.164    80935278.274         576.407          49.000  
R 5  15610690.262    83448041.765       -2284.553          49.000  
R23  18231851.017    97528091.699        1197.186          38.000  
R16  18248702.721    97481199.382        3761.965          37.000  
R 6  16515232.155    88128362.666        2476.056          44.000  
> 2019 11 26 15  8 27.9860000  0 20                     
G30  16314689.763    85734276.284        -773.208          52.000  
G13  17030601.594    89496399.452        1807.189          48.000  
G 7  17813736.322    93611796.768       -2587.924          49.000  
G 5  18066071.173    94937857.207       -2646.822          47.000  
G28  17921109.100    94176061.120        2316.484          45.000  
G 8  19133274.724   100546040.266         304.596          43.000  
G15  19174647.995   100763443.422        3079.391          42.000  
E30  21619895.631   113613280.254       -3125.622          32.000  
E19  19531182.858   102637039.798        -210.967          43.000  
E27  19580633.512   102896910.448        -914.372          47.000  
E21  20740896.361   108994142.979        1976.168          45.000  
E 4  22699473.053   119286506.583        2410.151          38.000  
E20  16023049.830    84201699.409       -2661.101          37.000  
R14  16641893.585    88710609.143       -3354.468          44.000  
R22  19100009.091   101957087.128       -2915.926          35.000  
R15  15145836.557    80934701.980         575.871          49.000  
R 5  15611117.513    83450326.392       -2285.254          49.000  
R23  18231627.305    97526894.886        1196.048          39.000  
R16  18247998.229    97477436.967        3762.027          37.000  
R 6  16514768.433    88125886.707        2475.500          44.000  
> 2019 11 26 15  8 28.9860000  0 20                     
G30  16314836.973    85735049.693        -773.851          52.000  
G13  17030257.624    89494592.504        1806.559          48.000  
G 7  17814228.741    93614384.763       -2588.295          49.000  
G 5  18066575.031    94940504.259       -2647.639          47.000  
G28  17920668.473    94173744.894        2315.747          45.000  
G 8  19133216.667   100545735.751         304.121          43.000  
G15  19174061.921   100760364.125        3078.978          42.000  
E30  21620490.291   113616405.735       -3125.930          32.000  
E19  19531222.514   102637250.839        -211.193          43.000  
E27  19580807.657   102897825.027        -914.782          47.000  
E21  20740520.117   108992166.796        1975.963          45.000  
E 4  22699014.261   119284096.441        2410.030          38.000  
E20  16023555.895    84204360.210       -2661.260          37.000  
R14  16642522.822    88713963.735       -3355.084          44.000  
R22  19100555.675   101960003.681       -2916.883          35.000  
R15  15145729.186    80934126.586         574.975          49.000  
R 5  15611544.974    83452611.938       -2286.040          49.000  
R23  18231403.811    97525699.045        1195.227          38.000  
R16  18247294.043    97473674.958        3761.523          37.000  
R 6  16514304.790    88123411.483        2474.994          44.000  
> 2019 11 26 15  8 29.9860000  0 20                     
G30  16314984.367    85735823.668        -774.097          52.000  
G13  17029913.785    89492786.058        1806.310          48.000  
G 7  17814721.509    93616973.151       -2588.414          49.000  
G 5  18067079.037    94943151.875       -2647.740          47.000  
G28  17920227.724    94171429.135        2315.614          45.000  
G 8  19133158.575   100545431.970         303.471          43.000  
G15  19173476.265   100757285.156        3078.883          42.000  
E30  21621085.134   113619531.442       -3125.696          32.000  
E19  19531262.684   102637462.373        -211.545          43.000  
E27  19580981.574   102898740.083        -915.250          47.000  
E21  20740143.716   108990190.986        1975.807          45.000  
E 4  22698555.730   119281686.525        2410.043          38.000  
E20  16024062.353    84207021.329       -2660.581          37.000  
R14  16643152.313    88717318.821       -3355.346          44.000  
R22  19101102.190   101962920.979       -2917.422          35.000  
R15  15145621.545    80933551.995         574.260          49.000  
R 5  15611972.705    83454898.338       -2286.633          49.000  
R23  18231180.309    97524504.131        1194.220          38.000  
R16  18246590.023    97469913.293        3761.748          37.000  
R 6  16513841.190    88120936.937        2474.695          44.000  
> 2019 11 26 15  8 30.9860000  0 20                     
G30  16315131.585    85736597.912        -774.527          52.000  
G13  17029570.207    89490979.810        1806.083          48.000  
G 7  17815213.998    93619561.616       -2588.616          49.000  
G 5  18067583.121    94945799.752       -2648.046          47.000  
G28  17919787.333    94169113.520        2315.649          45.000  
G 8  19133100.981   100545128.595         302.988          43.000  
G15  19172890.531   100754206.180        3078.987          42.000  
E30  21621680.204   113622657.013       -3125.320          32.000  
E19  19531302.802   102637674.063        -211.749          43.000  
E27  19581155.850   102899655.276        -915.219          47.000  
E21  20739768.004   108988215.229        1975.788          45.000  
E 4  22698096.737   119279276.528        2410.053          38.000  
E20  16024568.784    84209682.519       -2661.314          37.000  
R14  16643781.917    88720674.059       -3355.328          44.000  
R22  19101648.705   101965838.713       -2918.071          35.000  
R15  15145513.938    80932977.855         573.858          49.000  
R 5  15612400.593    83457185.287       -2287.256          49.000  
R23  18230957.129    97523309.805        1193.889          39.000  
R16  18245885.645    97466151.687        3761.815          37.000  
R 6  16513377.389    88118462.782        2473.859          44.000  
> 2019 11 26 15  8 31.9860000  0 20                     
G30  16315278.979    85737372.599        -774.842          52.000  
G13  17029226.377    89489173.966        1805.625          48.000  
G 7  17815706.521    93622150.336       -2588.761          49.000  
G 5  18068087.083    94948448.076       -2648.377          48.000  
G28  17919346.968    94166798.277        2315.126          45.000  
G 8  19133043.535   100544825.808         302.650          43.000  
G15  19172304.649   100751127.427        3078.643          43.000  
E30  21622274.890   113625782.651       -3125.673          32.000  
E19  19531343.304   102637886.111        -212.115          43.000  
E27  19581330.099   102900570.825        -915.575          47.000  
E21  20739392.100   108986239.711        1975.385          45.000  
E 4  22697637.796   119276866.588        2409.996          38.000  
E20  16025075.137    84212343.869       -2661.460          37.000  
R14  16644411.529    88724029.679       -3355.810          44.000  
R22  19102195.280   101968757.063       -2918.936          35.000  
R15  15145406.628    80932404.387         573.219          49.000  
R 5  15612829.013    83459472.953       -2287.935          49.000  
R23  18230734.046    97522116.291        1193.157          39.000  
R16  18245181.633    97462390.283        3761.388          37.000  
R 6  16512913.815    88115989.172        2473.395          44.000  
> 2019 11 26 15  8 32.9860000  0 20                     
G30  16315426.529    85738147.932        -775.555          52.000  
G13  17028882.974    89487368.702        1804.907          48.000  
G 7  17816199.307    93624739.522       -2589.356          49.000  
G 5  18068591.281    94951097.059       -2649.288          48.000  
G28  17918906.280    94164483.580        2314.386          45.000  
G 8  19132985.967   100544523.835         301.648          43.000  
G15  19171718.985   100748049.060        3078.217          43.000  
E30  21622869.436   113628908.559       -3125.723          32.000  
E19  19531383.719   102638098.708        -212.883          43.000  
E27  19581504.584   102901486.914        -916.314          47.000  
E21  20739015.995   108984264.625        1974.906          45.000  
E 4  22697179.082   119274456.981        2409.462          38.000  
E20  16025581.778    84215005.643       -2661.490          37.000  
R14  16645041.177    88727385.891       -3356.488          44.000  
R22  19102742.031   101971676.256       -2919.779          35.000  
R15  15145299.527    80931831.791         572.197          49.000  
R 5  15613257.128    83461761.521       -2288.967          49.000  
R23  18230510.962    97520923.745        1192.523          39.000  
R16  18244477.351    97458629.246        3761.067          37.000  
R 6  16512450.512    88113516.335        2472.437          44.000  
> 2019 11 26 15  8 33.9860000  0 20                     
G30  16315573.948    85738923.289        -775.098          52.000  
G13  17028539.362    89485563.402        1805.526          48.000  
G 7  17816691.874    93627328.548       -2588.691          49.000  
G 5  18069095.654    94953746.053       -2648.789          48.000  
G28  17918465.741    94162168.795        2315.039          45.000  
G 8  19132928.861   100544222.015         301.986          43.000  
G15  19171133.408   100744970.460        3078.978          43.000  
E30  21623464.306   113632034.128       -3125.763          32.000  
E19  19531423.933   102638311.219        -212.372          43.000  
E27  19581678.693   102902402.912        -915.737          47.000  
E21  20738639.891   108982289.356        1975.411          45.000  
E 4  22696720.604   119272047.012        2410.174          38.000  
E20  16026088.410    84217667.230       -2661.356          37.000  
R14  16645670.632    88730742.041       -3355.927          44.000  
R22  19103289.112   101974595.601       -2918.619          35.000  
R15  15145192.304    80931259.414         572.542          49.000  
R 5  15613685.514    83464050.332       -2288.620          49.000  
R23  18230288.201    97519731.593        1192.138          39.000  
R16  18243773.340    97454867.962        3761.681          37.000  
R 6  16511987.008    88111043.637        2472.681          43.000  
> 2019 11 26 15  8 34.9860000  0 20                     
G30  16315721.420    85739698.201        -775.743          52.000  
G13  17028195.715    89483757.597        1804.919          48.000  
G 7  17817184.415    93629916.944       -2589.260          49.000  
G 5  18069599.799    94956394.598       -2649.420          48.000  
G28  17918024.808    94159853.465        2314.534          45.000  
G 8  19132871.572   100543919.904         301.157          43.000  
G15  19170547.325   100741891.172        3078.643          43.000  
E30  21624058.878   113635158.804       -3125.165          32.000  
E19  19531464.348   102638523.180        -212.684          43.000  
E27  19581852.933   102903318.351        -916.172          47.000  
E21  20738264.030   108980313.416        1974.998          45.000  
E 4  22696261.882   119269636.233        2410.095          38.000  
E20  16026595.095    84220328.081       -2661.471          37.000  
R14  16646300.192    88734097.651       -3356.488          44.000  
R22  19103835.932   101977514.713       -2920.224          35.000  
R15  15145085.011    80930686.815         571.652          49.000  
R 5  15614113.724    83466338.941       -2289.577          49.000  
R23  18230065.484    97518539.275        1191.302          39.000  
R16  18243068.874    97451105.992        3761.141          37.000  
R 6  16511523.574    88108570.575        2472.150          44.000  
> 2019 11 26 15  8 35.9860000  0 20                     
G30  16315868.962    85740474.467        -776.839          52.000  
G13  17027852.085    89481953.095        1803.995          48.000  
G 7  17817677.183    93632506.504       -2590.041          49.000  
G 5  18070104.006    94959044.501       -2650.374          48.000  
G28  17917584.269    94157539.396        2313.703          45.000  
G 8  19132814.710   100543619.304         299.890          43.000  
G15  19169961.573   100738812.999        3077.801          43.000  
E30  21624654.140   113638284.495       -3125.678          32.000  
E19  19531505.190   102638736.417        -213.685          43.000  
E27  19582027.523   102904235.052        -917.119          47.000  
E21  20737887.830   108978338.622        1974.297          45.000  
E 4  22695803.517   119267226.475        2409.316          38.000  
E20  16027101.587    84222990.057       -2662.073          37.000  
R14  16646929.945    88737454.553       -3357.458          44.000  
R22  19104383.407   101980435.364       -2921.337          35.000  
R15  15144977.893    80930115.787         570.499          49.000  
R 5  15614542.092    83468629.188       -2291.006          49.000  
R23  18229842.863    97517348.675        1190.212          39.000  
R16  18242364.592    97447345.196        3760.219          37.000  
R 6  16511060.576    88106099.011        2470.868          44.000  
> 2019 11 26 15  8 36.9860000  0 20                     
G30  16316016.809    85741251.075        -776.556          52.000  
G13  17027508.970    89480148.858        1804.233          48.000  
G 7  17818170.265    93635096.206       -2589.427          49.000  
G 5  18070608.160    94961694.742       -2650.221          48.000  
G28  17917144.009    94155225.558        2313.952          45.000  
G 8  19132757.639   100543319.192         300.241          43.000  
G15  19169375.822   100735734.906        3078.315          43.000  
E30  21625249.192   113641410.139       -3125.482          31.000  
E19  19531545.779   102638949.885        -213.396          43.000  
E27  19582201.824   102905151.979        -916.896          46.000  
E21  20737512.188   108976363.956        1974.741          45.000  
E 4  22695345.134   119264816.699        2409.785          38.000  
E20  16027607.696    84225652.170       -2662.336          37.000  
R14  16647559.941    88740811.717       -3357.080          44.000  
R22  19104930.698   101983356.524       -2921.417          35.000  
R15  15144871.028    80929545.333         570.379          49.000  
R 5  15614970.783    83470920.031       -2290.830          49.000  
R23  18229620.259    97516158.769        1189.640          39.000  
R16  18241660.223    97443584.476        3761.193          37.000  
R 6  16510597.238    88103627.887        2471.106          43.000  
> 2019 11 26 15  8 37.9860000  0 20                     
G30  16316164.656    85742027.899        -777.368          52.000  
G13  17027165.602    89478344.793        1803.547          48.000  
G 7  17818663.103    93637685.963       -2590.246          49.000  
G 5  18071112.428    94964345.200       -2651.010          48.000  
G28  17916703.940    94152911.841        2313.320          45.000  
G 8  19132700.935   100543019.460         299.058          43.000  
G15  19168789.774   100732656.795        3077.509          43.000  
E30  21625843.538   113644535.610       -3125.996          31.000  
E19  19531586.185   102639163.468        -214.058          43.000  
E27  19582376.833   102906069.012        -917.517          47.000  
E21  20737136.476   108974389.307        1974.092          45.000  
E 4  22694886.464   119262406.767        2409.590          38.000  
E20  16028114.355    84228314.197       -2662.324          37.000  
R14  16648189.754    88744169.044       -3357.995          44.000  
R22  19105478.111   101986278.029       -2922.433          35.000  
R15  15144764.434    80928975.307         569.260          49.000  
R 5  15615398.994    83473211.359       -2291.918          49.000  
R23  18229398.040    97514969.410        1188.415          39.000  
R16  18240956.150    97439823.752        3760.134          37.000  
R 6  16510134.345    88101157.075        2470.093          43.000  
> 2019 11 26 15  8 38.9860000  0 20                     
G30  16316312.494    85742806.297        -779.068          52.000  
G13  17026822.714    89476542.229        1801.851          48.000  
G 7  17819156.106    93640277.098       -2591.794          49.000  
G 5  18071617.158    94966997.234       -2652.754          48.000  
G28  17916263.924    94150599.601        2311.568          45.000  
G 8  19132644.265   100542721.417         297.309          43.000  
G15  19168204.485   100729580.000        3076.093          43.000  
E30  21626438.783   113647662.275       -3127.150          31.000  
E19  19531627.115   102639378.530        -215.785          43.000  
E27  19582551.370   102906987.516        -919.095          46.000  
E21  20736761.113   108972415.997        1972.753          45.000  
E 4  22694428.082   119259998.076        2408.016          38.000  
E20  16028621.100    84230977.573       -2663.597          37.000  
R14  16648820.161    88747527.894       -3359.497          44.000  
R22  19106025.882   101989201.301       -2924.082          35.000  
R15  15144658.275    80928407.075         567.457          49.000  
R 5  15615827.632    83475504.512       -2293.985          49.000  
R23  18229176.125    97513781.965        1186.456          39.000  
R16  18240252.322    97436064.315        3759.070          37.000  
R 6  16509671.704    88098687.960        2468.372          44.000  
> 2019 11 26 15  8 39.9860000  0 20                     
G30  16316460.707    85743585.212        -779.392          52.000  
G13  17026479.468    89474740.120        1801.683          48.000  
G 7  17819649.459    93642868.559       -2591.884          49.000  
G 5  18072122.193    94969649.771       -2653.057          48.000  
G28  17915824.066    94148287.765        2311.504          45.000  
G 8  19132587.831   100542424.059         296.633          43.000  
G15  19167618.925   100726503.470        3075.916          43.000  
E30  21627033.844   113650789.041       -3126.639          31.000  
E19  19531668.236   102639593.997        -215.876          43.000  
E27  19582726.230   102907906.424        -919.266          46.000  
E21  20736385.986   108970443.007        1972.568          45.000  
E 4  22693969.586   119257589.541        2407.939          38.000  
E20  16029127.724    84233641.261       -2664.375          37.000  
R14  16649450.716    88750887.187       -3359.790          44.000  
R22  19106573.610   101992125.272       -2924.379          35.000  
R15  15144552.213    80927839.596         566.790          49.000  
R 5  15616256.585    83477798.430       -2294.548          49.000  
R23  18228954.542    97512595.391        1185.854          39.000  
R16  18239548.171    97432305.165        3758.532          37.000  
R 6  16509209.195    88096219.463        2467.847          44.000  
> 2019 11 26 15  8 40.9860000  0 20                     
G30  16316609.174    85744365.321        -780.304          52.000  
G13  17026136.676    89472939.153        1800.780          48.000  
G 7  17820142.785    93645461.030       -2592.564          49.000  
G 5  18072627.159    94972303.493       -2653.886          48.000  
G28  17915384.713    94145977.042        2310.560          45.000  
G 8  19132531.659   100542128.019         295.770          43.000  
G15  19167033.889   100723427.879        3075.509          43.000  
E30  21627628.931   113653916.689       -3127.566          31.000  
E19  19531709.750   102639810.567        -216.646          43.000  
E27  19582901.107   102908826.422        -920.067          46.000  
E21  20736010.658   108968470.989        1972.046          45.000  
E 4  22693511.684   119255181.818        2407.748          38.000  
E20  16029634.766    84236305.832       -2664.429          37.000  
R14  16650080.983    88754247.573       -3360.492          44.000  
R22  19107121.808   101995050.646       -2925.236          35.000  
R15  15144446.028    80927273.563         565.754          49.000  
R 5  15616686.087    83480093.804       -2295.736          49.000  
R23  18228733.117    97511410.387        1184.566          40.000  
R16  18238844.430    97428546.996        3757.918          36.000  
R 6  16508746.825    88093752.285        2467.078          44.000  
> 2019 11 26 15  8 41.9860000  0 20                     
G30  16316757.789    85745145.562        -780.813          52.000  
G13  17025793.832    89471138.260        1800.218          48.000  
G 7  17820636.155    93648053.447       -2592.883          49.000  
G 5  18073132.508    94974957.350       -2654.482          48.000  
G28  17914944.915    94143666.345        2310.187          45.000  
G 8  19132475.260   100541832.258         295.148          43.000  
G15  19166448.513   100720352.185        3075.164          43.000  
E30  21628224.167   113657044.058       -3128.285          31.000  
E19  19531750.811   102640027.177        -217.069          43.000  
E27  19583076.403   102909746.443        -920.443          46.000  
E21  20735635.408   108966498.903        1971.637          45.000  
E 4  22693053.842   119252773.894        2407.646          38.000  
E20  16030141.956    84238970.380       -2665.040          37.000  
R14  16650711.555    88757608.014       -3361.029          44.000  
R22  19107669.937   101997976.324       -2926.454          35.000  
R15  15144340.638    80926707.869         565.110          49.000  
R 5  15617115.258    83482389.583       -2296.545          49.000  
R23  18228511.717    97510225.851        1183.671          40.000  
R16  18238140.662    97424788.726        3757.367          36.000  
R 6  16508284.621    88091285.356        2466.211          43.000  
> 2019 11 26 15  8 42.9860000  0 20                     
G30  16316906.430    85745926.712        -781.599          52.000  
G13  17025451.040    89469338.199        1799.603          48.000  
G 7  17821129.473    93650646.593       -2593.463          49.000  
G 5  18073637.937    94977612.099       -2655.286          48.000  
G28  17914505.379    94141356.464        2309.505          45.000  
G 8  19132419.262   100541537.554         294.180          43.000  
G15  19165863.381   100717277.147        3074.686          43.000  
E30  21628819.664   113660171.924       -3128.357          31.000  
E19  19531792.255   102640244.600        -217.781          43.000  
E27  19583251.577   102910667.274        -921.313          46.000  
E21  20735259.941   108964527.509        1971.116          45.000  
E 4  22692595.591   119250366.536        2407.037          38.000  
E20  16030649.025    84241635.549       -2665.609          37.000  
R14  16651342.258    88760969.308       -3361.749          44.000  
R22  19108218.197   102000903.079       -2927.239          35.000  
R15  15144235.230    80926143.298         563.942          49.000  
R 5  15617545.100    83484686.560       -2297.570          49.000  
R23  18228290.553    97509042.574        1182.514          39.000  
R16  18237436.869    97421031.127        3757.027          36.000  
R 6  16507822.557    88088819.456        2465.253          43.000  
> 2019 11 26 15  8 43.9860000  0 20                     
G30  16317054.975    85746708.180        -781.714          52.000  
G13  17025108.370    89467538.411        1799.600          48.000  
G 7  17821622.791    93653239.869       -2593.421          49.000  
G 5  18074143.356    94980267.167       -2655.319          48.000  
G28  17914066.227    94139046.808        2309.659          45.000  
G 8  19132363.133   100541243.336         293.707          43.000  
G15  19165278.502   100714202.186        3074.728          43.000  
E30  21629414.821   113663299.750       -3128.251          31.000  
E19  19531834.039   102640462.236        -217.788          43.000  
E27  19583427.013   102911588.305        -921.099          46.000  
E21  20734885.258   108962556.224        1971.239          45.000  
E 4  22692137.540   119247959.125        2407.417          38.000  
E20  16031156.355    84244300.796       -2665.099          37.000  
R14  16651972.996    88764330.858       -3361.786          44.000  
R22  19108766.448   102003830.321       -2927.656          35.000  
R15  15144129.647    80925579.251         563.673          49.000  
R 5  15617975.152    83486984.131       -2297.875          49.000  
R23  18228069.432    97507859.956        1182.038          39.000  
R16  18236733.206    97417273.604        3757.580          36.000  
R 6  16507360.327    88086353.994        2465.106          43.000  
> 2019 11 26 15  8 44.9860000  0 20                     
G30  16317203.825    85747490.524        -782.588          52.000  
G13  17024766.040    89465739.430        1798.825          48.000  
G 7  17822116.527    93655833.838       -2594.208          49.000  
G 5  18074648.993    94982923.107       -2656.167          48.000  
G28  17913626.594    94136737.928        2308.682          45.000  
G 8  19132307.397   100540950.146         292.576          43.000  
G15  19164693.300   100711127.864        3074.062          43.000  
E30  21630009.952   113666428.048       -3128.542          31.000  
E19  19531875.719   102640680.641        -218.465          42.000  
E27  19583602.152   102912510.124        -922.039          46.000  
E21  20734509.991   108960585.612        1970.339          45.000  
E 4  22691679.585   119245552.238        2406.797          38.000  
E20  16031663.650    84246966.680       -2665.805          37.000  
R14  16652603.909    88767693.214       -3362.640          44.000  
R22  19109315.022   102006758.606       -2928.493          35.000  
R15  15144024.265    80925016.324         562.551          49.000  
R 5  15618405.440    83489282.851       -2299.118          49.000  
R23  18227848.661    97506678.546        1180.928          39.000  
R16  18236029.587    97413516.712        3757.129          36.000  
R 6  16506898.568    88083889.517        2464.215          43.000  
> 2019 11 26 15  8 45.9860000  0 20                     
G30  16317352.981    85748273.416        -782.892          52.000  
G13  17024423.963    89463940.945        1798.596          48.000  
G 7  17822610.176    93658428.165       -2594.167          49.000  
G 5  18075154.823    94985579.593       -2656.360          48.000  
G28  17913187.154    94134429.506        2308.400          45.000  
G 8  19132251.775   100540657.648         292.525          43.000  
G15  19164108.011   100708053.843        3074.127          43.000  
E30  21630605.345   113669556.513       -3127.945          31.000  
E19  19531917.024   102640899.519        -218.807          43.000  
E27  19583777.431   102913432.373        -922.184          46.000  
E21  20734134.829   108958615.322        1970.461          45.000  
E 4  22691221.805   119243145.544        2406.876          38.000  
E20  16032171.382    84249632.894       -2666.188          37.000  
R14  16653234.822    88771056.024       -3362.640          44.000  
R22  19109863.482   102009687.621       -2929.009          35.000  
R15  15143919.215    80924454.168         562.189          49.000  
R 5  15618835.308    83491582.354       -2299.473          49.000  
R23  18227627.863    97505498.041        1180.630          39.000  
R16  18235326.221    97409760.141        3756.434          36.000  
R 6  16506436.809    88081425.706        2463.934          43.000  
> 2019 11 26 15  8 46.9860000  0 20                     
G30  16317501.787    85749056.238        -783.070          52.000  
G13  17024081.424    89462142.341        1798.459          48.000  
G 7  17823103.826    93661022.249       -2594.348          49.000  
G 5  18075660.303    94988236.022       -2656.754          48.000  
G28  17912747.706    94132120.912        2308.323          45.000  
G 8  19132196.074   100540365.251         292.170          43.000  
G15  19163523.045   100704979.497        3074.216          43.000  
E30  21631200.275   113672684.542       -3128.522          31.000  
E19  19531958.154   102641118.228        -219.006          42.000  
E27  19583953.364   102914354.443        -922.302          46.000  
E21  20733759.885   108956644.759        1970.569          45.000  
E 4  22690763.519   119240738.430        2406.972          38.000  
E20  16032678.319    84252298.754       -2665.944          37.000  
R14  16653865.883    88774418.682       -3362.915          45.000  
R22  19110412.256   102012616.724       -2929.236          35.000  
R15  15143813.955    80923892.157         561.592          49.000  
R 5  15619265.613    83493882.050       -2300.154          49.000  
R23  18227407.415    97504317.812        1179.987          39.000  
R16  18234622.681    97406003.158        3757.036          36.000  
R 6  16505974.771    88078961.914        2463.647          43.000  
> 2019 11 26 15  8 47.9860000  0 20                     
G30  16317651.126    85749839.925        -784.459          52.000  
G13  17023739.610    89460344.533        1797.163          48.000  
G 7  17823597.649    93663616.997       -2595.379          49.000  
G 5  18076166.142    94990893.306       -2658.024          48.000  
G28  17912308.012    94129813.084        2307.071          45.000  
G 8  19132140.408   100540073.858         290.884          43.000  
G15  19162938.384   100701905.772        3073.361          43.000  
E30  21631795.982   113675813.001       -3128.420          31.000  
E19  19532000.070   102641337.679        -219.967          42.000  
E27  19584128.503   102915277.269        -923.425          46.000  
E21  20733385.141   108954674.849        1969.285          45.000  
E 4  22690305.477   119238331.813        2406.417          38.000  
E20  16033185.510    84254965.242       -2666.828          37.000  
R14  16654496.821    88777782.143       -3364.166          45.000  
R22  19110961.118   102015546.886       -2930.823          35.000  
R15  15143709.132    80923331.233         560.129          49.000  
R 5  15619696.267    83496182.865       -2301.567          49.000  
R23  18227187.045    97503138.820        1178.168          39.000  
R16  18233919.263    97402246.885        3755.534          36.000  
R 6  16505513.038    88076499.098        2462.091          43.000  
> 2019 11 26 15  8 48.9860000  0 20                     
G30  16317800.378    85750624.493        -784.742          52.000  
G13  17023397.629    89458547.556        1796.925          48.000  
G 7  17824091.613    93666212.448       -2595.369          49.000  
G 5  18076672.006    94993551.477       -2658.245          48.000  
G28  17911868.860    94127506.022        2307.088          45.000  
G 8  19132084.637   100539783.513         290.265          43.000  
G15  19162353.261   100698832.698        3073.176          43.000  
E30  21632391.392   113678942.052       -3128.960          31.000  
E19  19532042.063   102641557.938        -220.192          42.000  
E27  19584304.288   102916200.875        -923.500          46.000  
E21  20733010.642   108952705.612        1969.456          45.000  
E 4  22689846.990   119235925.751        2406.334          38.000  
E20  16033692.971    84257632.404       -2667.226          37.000  
R14  16655127.935    88781146.433       -3364.264          45.000  
R22  19111510.137   102018478.132       -2931.496          35.000  
R15  15143604.378    80922771.417         559.675          49.000  
R 5  15620126.773    83498484.843       -2302.079          49.000  
R23  18226966.640    97501961.076        1177.585          39.000  
R16  18233215.975    97398491.238        3755.526          36.000  
R 6  16505051.585    88074037.278        2461.694          43.000  
> 2019 11 26 15  8 49.9860000  0 21                     
G30  16317949.621    85751409.472        -785.341          52.000  
G13  17023055.622    89456750.930        1796.236          48.000  
G 7  17824585.358    93668808.126       -2595.979          49.000  
G 5  18077177.862    94996210.056       -2658.918          48.000  
G28  17911429.630    94125199.296        2306.335          45.000  
G 8  19132029.529   100539493.709         289.332          43.000  
G15  19161768.888   100695759.781        3072.565          43.000  
E30  21632986.558   113682071.094       -3129.653          31.000  
E19  19532083.778   102641778.503        -220.799          42.000  
E27  19584480.160   102917124.788        -924.332          46.000  
E21  20732635.864   108950736.577        1968.776          45.000  
E 4  22689389.270   119233519.728        2405.988          38.000  
G27  19861875.550                1      -1817.383          32.000  
E20  16034200.458    84260299.694       -2667.164          37.000  
R14  16655759.048    88784511.067       -3365.094          45.000  
R22  19112059.164   102021409.952       -2932.176          35.000  
R15  15143499.694    80922212.227         558.606          49.000  
R 5  15620557.383    83500787.476       -2303.213          49.000  
R23  18226746.593    97500784.086        1176.415          39.000  
R16  18232512.784    97394735.802        3754.959          37.000  
R 6  16504590.253    88071575.998        2460.992          43.000  
> 2019 11 26 15  8 50.9860000  0 21                     
G30  16318098.899    85752194.917        -785.694          52.000  
G13  17022713.894    89454954.703        1795.922          48.000  
G 7  17825079.330    93671404.080       -2596.134          49.000  
G 5  18077683.717    94998869.090       -2659.380          48.000  
G28  17910990.495    94122892.913        2306.191          45.000  
G 8  19131974.491   100539204.526         288.625          43.000  
G15  19161184.201   100692687.074        3072.529          43.000  
E30  21633582.457   113685200.181       -3129.447          31.000  
E19  19532126.165   102641999.436        -221.205          42.000  
E27  19584656.049   102918049.049        -924.558          46.000  
E21  20732260.964   108948767.787        1968.688          45.000  
E 4  22688931.307   119231113.817        2405.640          38.000  
G27  19862228.803   104376716.400       -1815.396          32.000  
E20  16034708.390    84262967.236       -2667.412          38.000  
R14  16656390.257    88787876.067       -3365.234          45.000  
R22  19112608.645   102024342.366       -2932.826          35.000  
R15  15143395.228    80921653.738         557.983          49.000  
R 5  15620987.863    83503090.800       -2303.642          49.000  
R23  18226526.903    97499607.874        1175.754          39.000  
R16  18231809.732    97390980.584        3755.192          37.000  
R 6  16504128.791    88069115.302        2460.132          43.000  
> 2019 11 26 15  8 51.9860000  0 21                     
G30  16318248.674    85752980.665        -785.902          52.000  
G13  17022372.446    89453158.721        1795.861          48.000  
G 7  17825573.302    93674000.154       -2596.230          49.000  
G 5  18078189.573    95001528.423       -2659.451          48.000  
G28  17910551.910    94120586.756        2305.848          45.000  
G 8  19131919.435   100538915.781         288.341          43.000  
G15  19160599.723   100689614.423        3072.531          43.000  
E30  21634171.061   113688329.202       -3129.091          31.000  
E19  19532168.037   102642220.572        -221.291          42.000  
E27  19584831.974   102918973.518        -924.675          46.000  
E21  20731886.744   108946799.093        1968.731          45.000  
E 4  22688473.352   119228707.838        2406.288          38.000  
G27  19862570.330   104378532.859       -1816.808          32.000  
E20  16035216.227    84265634.838       -2667.857          37.000  
R14  16657021.641    88791241.287       -3365.393          45.000  
R22  19113158.135   102027275.253       -2933.035          35.000  
R15  15143291.016    80921095.765         557.664          49.000  
R 5  15621418.324    83505394.696       -2304.191          49.000  
R23  18226307.074    97498432.312        1174.989          39.000  
R16  18231106.890    97387225.421        3755.064          37.000  
R 6  16503667.652    88066655.009        2459.967          43.000  
> 2019 11 26 15  8 52.9860000  0 21                     
G30  16318397.987    85753766.911        -786.616          52.000  
G13  17022030.631    89451363.182        1795.090          48.000  
G 7  17826067.605    93676596.524       -2596.639          49.000  
G 5  18078695.620    95004188.252       -2660.168          48.000  
G28  17910113.281    94118280.979        2305.416          45.000  
G 8  19131864.755   100538627.679         287.766          43.000  
G15  19160014.958   100686542.020        3072.022          43.000  
E30  21634768.906   113691458.323       -3130.002          30.000  
E19  19532210.353   102642442.085        -221.753          42.000  
E27  19585008.517   102919898.354        -925.188          46.000  
E21  20731512.227   108944830.679        1968.086          45.000  
E 4  22688016.043   119226302.021        2405.736          38.000  
G27  19862911.988   104380349.872       -1817.450          32.000  
E20  16035723.845    84268302.676       -2668.193          37.000  
R14  16657652.911    88794606.905       -3365.930          45.000  
R22  19113707.651   102030208.823       -2934.190          35.000  
R15  15143186.768    80920538.505         556.702          49.000  
R 5  15621849.127    83507699.365       -2305.219          48.000  
R23  18226087.271    97497257.547        1174.545          39.000  
R16  18230403.977    97383470.479        3754.745          37.000  
R 6  16503206.669    88064195.340        2459.222          43.000  
> 2019 11 26 15  8 53.9860000  0 21                     
G30  16318547.876    85754553.725        -787.264          52.000  
G13  17021689.226    89449568.148        1794.684          48.000  
G 7  17826561.621    93679193.284       -2596.983          49.000  
G 5  18079201.843    95006848.654       -2660.845          48.000  
G28  17909674.879    94115975.672        2305.068          45.000  
G 8  19131809.770   100538340.307         286.841          43.000  
G15  19159430.576   100683469.934        3071.848          43.000  
E30  21635357.030   113694587.656       -3129.592          30.000  
E19  19532252.356   102642664.093        -222.297          42.000  
E27  19585184.355   102920823.663        -925.639          46.000  
E21  20731137.606   108942862.615        1967.988          45.000  
E 4  22687558.123   119223896.417        2405.400          38.000  
G27  19863263.479   104382167.543       -1817.204          32.000  
E20  16036231.742    84270970.851       -2668.472          37.000  
R14  16658284.505    88797973.027       -3366.327          45.000  
R22  19114257.386   102033143.116       -2934.661          35.000  
R15  15143082.765    80919982.030         556.080          49.000  
R 5  15622280.208    83510004.874       -2305.879          48.000  
R23  18225867.930    97496083.745        1173.315          39.000  
R16  18229701.580    97379715.834        3754.265          37.000  
R 6  16502745.896    88061736.361        2458.545          43.000  
> 2019 11 26 15  8 54.9860000  0 21                     
G30  16318697.380    85755340.992        -787.513          52.000  
G13  17021347.909    89447773.511        1794.482          48.000  
G 7  17827055.933    93681790.319       -2597.136          49.000  
G 5  18079708.204    95009509.508       -2661.122          48.000  
G28  17909236.242    94113670.724        2304.937          45.000  
G 8  19131755.011   100538053.542         286.535          43.000  
G15  19158846.177   100680398.075        3071.739          43.000  
E30  21635962.178   113697717.057       -3129.176          30.000  
E19  19532294.306   102642886.451        -222.444          42.000  
E27  19585360.261   102921749.324        -925.805          46.000  
E21  20730763.098   108940894.822        1967.744          45.000  
E 4  22687100.273   119221490.899        2405.653          38.000  
G27  19863609.273   104383985.844       -1817.687          32.000  
E20  16036739.884    84273639.250       -2668.676          37.000  
R14  16658916.072    88801339.550       -3366.656          45.000  
R22  19114807.120   102036078.057       -2934.967          35.000  
R15  15142978.805    80919426.252         555.534          49.000  
R 5  15622711.761    83512311.110       -2306.595          48.000  
R23  18225648.721    97494910.739        1172.574          39.000  
R16  18228998.991    97375961.407        3754.496          37.000  
R 6  16502284.931    88059277.940        2458.124          43.000  
> 2019 11 26 15  8 55.9860000  0 21                     
G30  16318847.234    85756128.702        -787.805          52.000  
G13  17021006.330    89445979.263        1794.244          48.000  
G 7  17827550.246    93684387.607       -2597.203          49.000  
G 5  18080215.011    95012170.796       -2661.498          48.000  
G28  17908798.023    94111366.132        2304.618          45.000  
G 8  19131700.767   100537767.374         285.909          43.000  
G15  19158261.569   100677326.397        3071.648          43.000  
E30  21636548.130   113700846.553       -3130.194          30.000  
E19  19532337.007   102643109.156        -222.665          42.000  
E27  19585536.142   102922675.321        -926.108          46.000  
E21  20730388.965   108938927.245        1967.690          45.000  
E 4  22686642.589   119219085.481        2405.781          37.000  
G27  19863953.173   104385804.699       -1818.740          33.000  
E20  16037247.685    84276307.814       -2668.165          37.000  
R14  16659547.944    88804706.426       -3366.913          45.000  
R22  19115357.064   102039013.617       -2935.657          35.000  
R15  15142874.950    80918871.143         554.941          49.000  
R 5  15623143.340    83514618.008       -2307.054          48.000  
R23  18225429.572    97493738.519        1172.181          39.000  
R16  18228296.366    97372207.257        3754.354          37.000  
R 6  16501824.577    88056820.056        2457.654          43.000  
> 2019 11 26 15  8 56.9860000  0 21                     
G30  16318997.306    85756916.787        -788.394          52.000  
G13  17020665.178    89444185.328        1793.638          48.000  
G 7  17828044.357    93686985.084       -2597.766          49.000  
G 5  18080721.556    95014832.446       -2661.981          48.000  
G28  17908359.421    94109061.804        2303.963          45.000  
G 8  19131646.418   100537481.714         285.224          43.000  
G15  19157677.039   100674254.851        3071.415          43.000  
E30  21637150.363   113703975.947       -3129.591          30.000  
E19  19532379.402   102643332.125        -223.180          42.000  
E27  19585712.241   102923601.568        -926.509          46.000  
E21  20730014.370   108936959.827        1967.230          45.000  
E 4  22686185.035   119216680.101        2404.900          37.000  
G27  19864300.240   104387624.037       -1819.554          33.000  
E20  16037755.478    84278976.570       -2669.071          37.000  
R14  16660179.520    88808073.597       -3367.566          45.000  
R22  19115907.182   102041949.743       -2936.941          35.000  
R15  15142771.191    80918316.617         554.139          49.000  
R 5  15623575.058    83516925.523       -2307.967          48.000  
R23  18225210.904    97492567.017        1171.013          39.000  
R16  18227593.541    97368453.269        3753.577          37.000  
R 6  16501364.345    88054362.633        2457.086          43.000  
> 2019 11 26 15  8 57.9860000  0 21                     
G30  16319147.448    85757705.370        -789.034          52.000  
G13  17020324.026    89442391.837        1793.033          48.000  
G 7  17828538.556    93689582.874       -2598.121          49.000  
G 5  18081228.240    95017494.593       -2662.574          48.000  
G28  17907920.879    94106757.877        2303.702          45.000  
G 8  19131591.965   100537196.688         284.579          43.000  
G15  19157092.753   100671183.554        3071.038          43.000  
E30  21637748.906   113707105.492       -3129.521          30.000  
E19  19532421.693   102643555.517        -223.764          42.000  
E27  19585889.021   102924528.216        -927.002          46.000  
E21  20729639.505   108934992.704        1966.745          45.000  
E 4  22685727.211   119214274.824        2404.937          37.000  
G27  19864646.165   104389443.982       -1820.218          33.000  
E20  16038262.843    84281645.524       -2669.282          37.000  
R14  16660811.183    88811441.183       -3367.865          45.000  
R22  19116457.439   102044886.529       -2937.915          35.000  
R15  15142667.502    80917762.800         553.324          49.000  
R 5  15624006.689    83519233.806       -2308.793          48.000  
R23  18224992.139    97491396.380        1170.090          39.000  
R16  18226891.135    97364699.518        3753.581          37.000  
R 6  16500903.886    88051905.828        2456.445          43.000  
> 2019 11 26 15  8 58.9860000  0 21                     
G30  16319297.607    85758494.549        -789.487          52.000  
G13  17019983.162    89440598.872        1792.766          48.000  
G 7  17829032.860    93692181.077       -2598.354          49.000  
G 5  18081734.951    95020157.341       -2662.911          48.000  
G28  17907482.408    94104454.464        2303.084          45.000  
G 8  19131537.799   100536912.425         284.130          43.000  
G15  19156508.241   100668112.606        3070.982          43.000  
E30  21638342.440   113710235.287       -3129.816          30.000  
E19  19532464.856   102643779.386        -223.930          42.000  
E27  19586065.320   102925455.355        -927.243          46.000  
E21  20729265.433   108933025.955        1966.797          45.000  
E 4  22685269.492   119211869.809        2405.083          38.000  
G27  19864992.979   104391264.600       -1820.738          33.000  
E20  16038770.688    84284314.840       -2668.965          37.000  
R14  16661443.107    88814809.285       -3368.378          45.000  
R22  19117007.837   102047824.063       -2937.806          35.000  
R15  15142564.127    80917209.795         552.654          49.000  
R 5  15624438.730    83521542.955       -2309.612          48.000  
R23  18224773.619    97490226.692        1169.203          40.000  
R16  18226188.677    97360946.144        3753.214          37.000  
R 6  16500443.445    88049449.721        2455.634          43.000  
> 2019 11 26 15  8 59.9860000  0 21                     
G30  16319448.124    85759284.215        -789.659          52.000  
G13  17019641.897    89438806.350        1792.480          48.000  
G 7  17829527.434    93694779.592       -2598.459          49.000  
G 5  18082242.028    95022820.578       -2663.283          48.000  
G28  17907043.587    94102151.436        2302.845          45.000  
G 8  19131483.250   100536628.815         283.535          43.000  
G15  19155923.824   100665041.914        3070.879          43.000  
E30  21638942.492   113713365.181       -3130.237          30.000  
E19  19532507.504   102644003.660        -224.189          42.000  
E27  19586241.628   102926382.885        -927.585          46.000  
E21  20728891.361   108931059.496        1966.562          45.000  
E 4  22684812.035   119209464.954        2404.692          38.000  
G27  19865339.741   104393085.930       -1821.981          33.000  
E20  16039278.751    84286984.465       -2669.704          37.000  
R14  16662074.884    88818177.803       -3368.530          45.000  
R22  19117558.155   102050762.261       -2938.268          35.000  
R15  15142460.638    80916657.495         552.029          49.000  
R 5  15624871.042    83523852.858       -2310.068          48.000  
R23  18224555.203    97489057.842        1168.510          40.000  
R16  18225486.628    97357192.962        3753.239          37.000  
R 6  16499983.448    88046994.206        2455.426          43.000  
> 2019 11 26 15  9  0.9860000  0 21                     
G30  16319598.396    85760074.409        -790.647          52.000  
G13  17019300.710    89437014.282        1791.532          48.000  
G 7  17830022.322    93697378.442       -2599.356          49.000  
G 5  18082748.695    95025484.340       -2664.354          48.000  
G28  17906605.412    94099848.817        2302.159          45.000  
G 8  19131429.512   100536345.867         282.507          43.000  
G15  19155339.608   100661971.496        3070.031          43.000  
E30  21639535.476   113716495.197       -3130.635          30.000  
E19  19532550.362   102644228.343        -224.906          42.000  
E27  19586418.251   102927310.814        -928.318          46.000  
E21  20728517.621   108929093.347        1965.866          45.000  
E 4  22684354.420   119207060.218        2404.580          38.000  
G27  19865686.424   104394907.836       -1823.352          33.000  
E20  16039786.744    84289654.300       -2670.418          37.000  
R14  16662706.774    88821546.782       -3369.568          45.000  
R22  19118108.692   102053701.137       -2939.003          35.000  
R15  15142357.054    80916105.939         550.879          49.000  
R 5  15625303.336    83526163.534       -2311.253          48.000  
R23  18224336.918    97487889.858        1167.139          40.000  
R16  18224784.152    97353440.063        3752.554          37.000  
R 6  16499523.190    88044539.339        2454.346          43.000  
> 2019 11 26 15  9  1.9860000  0 21                     
G30  16319748.834    85760865.040        -790.938          52.000  
G13  17018960.344    89435222.607        1791.379          49.000  
G 7  17830516.626    93699977.531       -2599.258          49.000  
G 5  18083255.694    95028148.530       -2664.484          48.000  
G28  17906166.975    94097546.547        2301.971          45.000  
G 8  19131375.922   100536063.521         282.010          43.000  
G15  19154755.471   100658901.264        3070.172          43.000  
E30  21640131.829   113719625.235       -3130.355          30.000  
E19  19532593.176   102644453.394        -225.240          42.000  
E27  19586595.021   102928239.088        -928.440          46.000  
E21  20728143.349   108927127.434        1965.696          45.000  
E 4  22683896.936   119204655.617        2404.248          38.000  
G27  19866033.649   104396730.233       -1822.503          33.000  
E20  16040294.720    84292324.356       -2670.128          37.000  
R14  16663338.847    88824916.152       -3369.677          45.000  
R22  19118659.639   102056640.668       -2939.883          35.000  
R15  15142253.626    80915555.063         550.530          49.000  
R 5  15625736.084    83528474.909       -2311.672          48.000  
R23  18224118.755    97486722.650        1166.742          40.000  
R16  18224081.615    97349687.341        3752.850          37.000  
R 6  16499063.307    88042085.039        2453.967          43.000  
> 2019 11 26 15  9  2.9860000  0 21                     
G30  16319899.465    85761656.151        -791.167          52.000  
G13  17018619.236    89433431.344        1791.233          49.000  
G 7  17831011.226    93702576.917       -2599.319          49.000  
G 5  18083762.762    95030813.182       -2664.667          48.000  
G28  17905728.905    94095244.674        2301.634          45.000  
G 8  19131322.490   100535781.800         281.681          43.000  
G15  19154171.246   100655831.277        3070.035          43.000  
E30  21640719.718   113722755.447       -3131.198          30.000  
E19  19532635.894   102644678.813        -225.617          42.000  
E27  19586771.749   102929167.728        -928.609          46.000  
E21  20727769.147   108925161.786        1965.583          45.000  
E 4  22683439.418   119202251.118        2404.658          38.000  
G27  19866380.420   104398553.349       -1823.639          33.000  
E20  16040803.141    84294994.686       -2670.647          37.000  
R14  16663970.815    88828285.931       -3369.836          45.000  
R22  19119210.447   102059580.830       -2940.029          35.000  
R15  15142150.679    80915004.907         549.857          49.000  
R 5  15626168.518    83530787.017       -2312.259          48.000  
R23  18223901.029    97485556.237        1166.183          40.000  
R16  18223379.096    97345934.920        3752.429          37.000  
R 6  16498603.537    88039631.363        2453.412          43.000  
> 2019 11 26 15  9  3.9860000  0 21                     
G30  16320050.235    85762447.504        -791.028          52.000  
G13  17018278.433    89431640.267        1791.593          49.000  
G 7  17831505.992    93705176.367       -2599.046          49.000  
G 5  18084269.883    95033478.083       -2664.420          48.000  
G28  17905291.175    94092942.925        2302.167          45.000  
G 8  19131268.638   100535500.489         281.575          43.000  
G15  19153586.812   100652761.275        3070.691          43.000  
E30  21641327.230   113725885.418       -3128.966          30.000  
E19  19532678.962   102644904.380        -225.175          42.000  
E27  19586948.371   102930096.510        -928.461          46.000  
E21  20727395.049   108923196.164        1966.181          45.000  
E 4  22682982.109   119199846.515        2405.169          38.000  
G27  19866727.487   104400376.693       -1822.729          33.000  
E20  16041311.413    84297664.978       -2670.000          37.000  
R14  16664602.853    88831655.842       -3369.525          44.000  
R22  19119761.333   102062521.393       -2940.344          35.000  
R15  15142047.679    80914455.187         549.931          49.000  
R 5  15626601.414    83533099.627       -2312.233          48.000  
R23  18223682.709    97484390.409        1165.882          40.000  
R16  18222676.785    97342182.512        3752.679          37.000  
R 6  16498143.733    88037178.030        2453.735          43.000  
> 2019 11 26 15  9  4.9860000  0 22                     
G30  16320200.821    85763238.197        -790.529          52.000  
G13  17017937.517    89429848.482        1792.139          49.000  
G 7  17832000.583    93707774.977       -2598.315          49.000  
G 5  18084777.126    95036142.329       -2663.967          48.000  
G28  17904853.105    94090640.441        2302.751          45.000  
G 8  19131215.031   100535218.650         281.924          43.000  
G15  19153002.248   100649690.375        3071.377          43.000  
E30  21641919.464   113729014.389       -3128.223          30.000  
E19  19532721.235   102645129.182        -224.491          42.000  
E27  19587124.862   102931024.525        -927.819          46.000  
E21  20727021.003   108921229.682        1966.878          45.000  
E 4  22682523.927   119197440.905        2405.942          38.000  
G 9  21756144.953                3      -4118.680          20.000  
G27  19867074.170   104402199.606       -1822.596          33.000  
E20  16041819.267    84300334.379       -2668.930          37.000  
R14  16665234.787    88835024.979       -3368.927          44.000  
R22  19120312.192   102065461.473       -2939.997          36.000  
R15  15141944.583    80913905.015         550.315          49.000  
R 5  15627033.874    83535411.841       -2312.030          48.000  
R23  18223464.669    97483224.212        1166.325          40.000  
R16  18221974.257    97338429.193        3753.327          37.000  
R 6  16497683.963    88034724.154        2454.102          43.000  
> 2019 11 26 15  9  5.9860000  0 22                     
G30  16320351.382    85764029.262        -792.051          52.000  
G13  17017596.636    89428057.012        1790.456          49.000  
G 7  17832495.140    93710373.758       -2599.716          49.000  
G 5  18085284.247    95038806.933       -2665.626          48.000  
G28  17904415.305    94088338.228        2301.144          45.000  
G 8  19131161.407   100534937.325         280.391          43.000  
G15  19152417.543   100646619.602        3069.735          43.000  
E30  21642512.178   113732143.368       -3129.415          30.000  
E19  19532763.935   102645354.277        -226.290          42.000  
E27  19587301.406   102931952.793        -929.186          46.000  
E21  20726646.766   108919263.355        1965.378          45.000  
E 4  22682066.478   119195035.309        2404.677          38.000  
G 9  21756927.857                3      -4118.680          20.000  
G27  19867421.238   104404022.996       -1825.275          33.000  
E20  16042327.330    84303003.918       -2670.577          37.000  
R14  16665866.502    88838394.424       -3370.471          44.000  
R22  19120863.209   102068402.066       -2941.645          35.000  
R15  15141841.635    80913355.418         548.575          49.000  
R 5  15627466.552    83537724.683       -2314.013          48.000  
R23  18223246.820    97482058.744        1164.531          40.000  
R16  18221271.720    97334675.975        3752.118          37.000  
R 6  16497223.949    88032270.745        2452.356          43.000  
> 2019 11 26 15  9  6.9860000  0 22                     
G30  16320502.422    85764822.119        -793.390          52.000  
G13  17017256.182    89426267.269        1789.194          49.000  
G 7  17832990.054    93712974.151       -2600.835          49.000  
G 5  18085791.708    95041473.326       -2666.924          48.000  
G28  17903977.959    94086037.692        2300.001          45.000  
G 8  19131108.026   100534657.948         278.736          43.000  
G15  19151833.319   100643550.362        3068.855          43.000  
E30  21643107.414   113735273.777       -3131.343          30.000  
E19  19532806.994   102645581.040        -227.255          42.000  
E27  19587478.430   102932882.756        -930.565          46.000  
E21  20726272.921   108917298.610        1964.276          45.000  
E 4  22681608.995   119192631.146        2403.712          38.000  
G 9  21757710.028                3      -4118.680          20.000  
G27  19867768.759   104405848.268       -1826.483          33.000  
E20  16042835.733    84305674.963       -2671.306          37.000  
R14  16666498.846    88841765.622       -3371.740          44.000  
R22  19121414.339   102071344.650       -2942.988          35.000  
R15  15141739.238    80912807.874         546.907          49.000  
R 5  15627899.405    83540039.565       -2315.634          48.000  
R23  18223029.129    97480895.467        1162.528          40.000  
R16  18220569.488    97330924.328        3750.960          37.000  
R 6  16496764.747    88029819.261        2450.616          43.000  
> 2019 11 26 15  9  7.9860000  0 22                     
G30  16320653.297    85765615.455        -793.426          52.000  
G13  17016915.815    89424477.953        1789.254          49.000  
G 7  17833484.733    93715574.832       -2600.842          49.000  
G 5  18086299.178    95044140.192       -2667.007          48.000  
G28  17903540.290    94083737.560        2299.827          45.000  
G 8  19131055.379   100534379.174         278.520          43.000  
G15  19151249.399   100640481.348        3069.019          43.000  
E30  21643702.257   113738404.210       -3129.808          30.000  
E19  19532850.445   102645808.195        -227.288          42.000  
E27  19587655.401   102933813.092        -930.639          46.000  
E21  20725898.920   108915334.139        1964.273          45.000  
E 4  22681151.197   119190227.110        2403.994          38.000  
G 9  21758488.264                3      -4118.680          19.000  
G27  19868116.167   104407674.075       -1826.359          33.000  
E20  16043343.927    84308346.288       -2671.284          37.000  
R14  16667131.119    88845137.206       -3371.753          44.000  
R22  19121965.670   102074287.871       -2943.203          35.000  
R15  15141636.936    80912261.039         546.522          49.000  
R 5  15628332.511    83542355.167       -2315.952          48.000  
R23  18222811.534    97479733.019        1162.169          40.000  
R16  18219867.449    97327172.911        3751.236          37.000  
R 6  16496305.413    88027368.350        2450.531          43.000  
> 2019 11 26 15  9  8.9860000  0 22                     
G30  16320804.372    85766409.702        -794.902          52.000  
G13  17016575.423    89422689.494        1787.801          49.000  
G 7  17833979.552    93718176.240       -2601.951          49.000  
G 5  18086806.735    95046807.969       -2668.486          48.000  
G28  17903102.970    94081438.223        2298.552          45.000  
G 8  19131002.461   100534101.460         276.982          43.000  
G15  19150665.751   100637413.022        3067.940          43.000  
E30  21644298.548   113741535.232       -3131.270          30.000  
E19  19532893.887   102646036.158        -228.434          42.000  
E27  19587832.879   102934744.214        -931.625          46.000  
E21  20725525.502   108913370.356        1963.356          45.000  
E 4  22680693.513   119187823.627        2403.120          38.000  
G 9  21759275.557                3      -4118.680          19.000  
G27  19868463.976   104409501.025       -1827.691          33.000  
E20  16043852.357    84311018.291       -2672.382          37.000  
R14  16667763.602    88848509.630       -3373.090          44.000  
R22  19122517.062   102077232.189       -2945.092          35.000  
R15  15141534.651    80911715.339         544.942          49.000  
R 5  15628765.651    83544671.957       -2317.659          48.000  
R23  18222594.444    97478571.857        1160.391          40.000  
R16  18219165.008    97323422.180        3750.466          37.000  
R 6  16495846.228    88024918.478        2449.176          43.000  
> 2019 11 26 15  9  9.9860000  0 21                     
G30  16320955.491    85767204.450        -795.175          52.000  
G13  17016235.056    89420901.474        1787.680          49.000  
G 7  17834474.492    93720777.960       -2601.995          49.000  
G 5  18087314.588    95049476.237       -2668.665          48.000  
G28  17902665.327    94079139.285        2298.770          45.000  
G 8  19130949.509   100533824.408         276.632          43.000  
G15  19150081.823   100634344.950        3067.912          43.000  
E30  21644893.199   113744666.368       -3131.737          29.000  
E19  19532937.425   102646264.539        -228.636          42.000  
E27  19588010.374   102935675.743        -931.875          47.000  
E21  20725151.701   108911406.867        1963.379          45.000  
E 4  22680236.247   119185420.294        2403.130          38.000  
G27  19868811.558   104411328.486       -1827.980          33.000  
E20  16044361.013    84313690.508       -2672.312          37.000  
R14  16668396.278    88851882.468       -3373.267          44.000  
R22  19123068.751   102080177.151       -2945.114          35.000  
R15  15141432.829    80911170.340         544.498          49.000  
R 5  15629198.993    83546989.527       -2318.019          48.000  
R23  18222377.049    97477411.540        1159.889          40.000  
R16  18218462.776    97319671.742        3750.084          37.000  
R 6  16495387.314    88022469.235        2448.975          43.000  
> 2019 11 26 15  9 10.9860000  0 21                     
G30  16321107.055    85768000.132        -795.813          52.000  
G13  17015895.196    89419114.335        1786.999          49.000  
G 7  17834969.511    93723380.435       -2602.431          49.000  
G 5  18087822.294    95052145.437       -2669.313          48.000  
G28  17902227.816    94076841.201        2298.014          45.000  
G 8  19130897.367   100533548.448         275.750          43.000  
G15  19149498.000   100631277.578        3067.392          43.000  
E30  21645489.909   113747798.009       -3132.061          29.000  
E19  19532981.147   102646493.746        -229.336          42.000  
E27  19588187.895   102936608.108        -932.586          46.000  
E21  20724778.380   108909444.112        1962.760          45.000  
E 4  22679778.912   119183017.552        2402.656          38.000  
G27  19869159.611   104413157.049       -1828.295          33.000  
E20  16044869.687    84316363.463       -2672.785          37.000  
R14  16669029.188    88855256.175       -3373.779          44.000  
R22  19123620.291   102083123.262       -2946.487          35.000  
R15  15141331.313    80910626.506         543.701          49.000  
R 5  15629632.639    83549308.331       -2319.137          48.000  
R23  18222160.335    97476252.510        1159.081          40.000  
R16  18217760.431    97315921.995        3749.757          37.000  
R 6  16494928.556    88020021.078        2447.925          43.000  
> 2019 11 26 15  9 11.9860000  0 21                     
G30  16321258.208    85768795.789        -795.826          52.000  
G13  17015555.021    89417327.115        1786.968          49.000  
G 7  17835464.609    93725982.700       -2602.370          49.000  
G 5  18088330.086    95054814.610       -2669.467          48.000  
G28  17901790.635    94074542.993        2298.002          45.000  
G 8  19130845.113   100533272.603         275.740          43.000  
G15  19148914.377   100628209.927        3067.408          43.000  
E30  21646084.081   113750929.212       -3131.050          29.000  
E19  19533025.087   102646722.826        -229.119          42.000  
E27  19588365.285   102937540.318        -932.261          47.000  
E21  20724404.788   108907481.113        1962.967          45.000  
E 4  22679321.742   119180614.399        2403.593          38.000  
G27  19869507.446   104414985.685       -1828.652          33.000  
E20  16045378.248    84319036.137       -2672.976          37.000  
R14  16669661.828    88858629.751       -3373.749          44.000  
R22  19124171.954   102086069.508       -2946.547          35.000  
R15  15141229.717    80910082.854         543.373          49.000  
R 5  15630066.635    83551627.325       -2319.265          48.000  
R23  18221943.778    97475093.826        1158.337          40.000  
R16  18217058.199    97312171.926        3750.214          37.000  
R 6  16494469.921    88017572.995        2447.797          44.000  
> 2019 11 26 15  9 12.9860000  0 21                     
G30  16321409.921    85769592.416        -797.115          52.000  
G13  17015215.108    89415540.805        1785.826          49.000  
G 7  17835959.951    93728585.739       -2603.411          49.000  
G 5  18088838.254    95057484.741       -2670.595          48.000  
G28  17901353.507    94072245.657        2296.844          45.000  
G 8  19130793.041   100532997.895         274.229          43.000  
G15  19148330.772   100625142.992        3066.566          43.000  
E30  21646679.168   113754061.103       -3132.493          29.000  
E19  19533068.564   102646952.794        -230.349          42.000  
E27  19588542.291   102938473.416        -933.573          47.000  
E21  20724031.458   108905518.885        1961.840          45.000  
E 4  22678864.442   119178211.899        2402.417          38.000  
G27  19869855.377   104416815.457       -1830.354          33.000  
E20  16045886.939    84321709.527       -2673.469          37.000  
R14  16670295.114    88862004.234       -3374.921          44.000  
R22  19124724.018   102089016.895       -2948.255          36.000  
R15  15141128.393    80909540.403         541.842          49.000  
R 5  15630500.456    83553947.547       -2320.819          48.000  
R23  18221727.212    97473936.441        1156.780          40.000  
R16  18216356.282    97308422.654        3748.906          37.000  
R 6  16494011.321    88015126.010        2446.539          44.000  
> 2019 11 26 15  9 13.9860000  0 21                     
G30  16321561.711    85770390.017        -798.135          52.000  
G13  17014875.457    89413755.415        1784.758          49.000  
G 7  17836455.537    93731189.572       -2604.250          49.000  
G 5  18089346.282    95060155.851       -2671.658          48.000  
G28  17900916.580    94069949.198        2295.928          45.000  
G 8  19130741.162   100532724.291         272.830          43.000  
G15  19147747.446   100622076.799        3065.754          43.000  
E30  21647274.936   113757193.490       -3132.269          29.000  
E19  19533112.486   102647183.618        -231.132          42.000  
E27  19588720.240   102939407.357        -934.351          47.000  
E21  20723657.954   108903557.411        1961.094          45.000  
E 4  22678407.194   119175810.009        2401.544          38.000  
G27  19870203.832   104418646.252       -1830.895          33.000  
E20  16046395.473    84324383.658       -2674.255          37.000  
R14  16670928.199    88865379.667       -3375.982          44.000  
R22  19125276.326   102091965.448       -2949.679          36.000  
R15  15141027.304    80908999.152         540.604          49.000  
R 5  15630934.713    83556268.978       -2322.061          48.000  
R23  18221510.820    97472780.388        1155.615          40.000  
R16  18215654.303    97304674.119        3747.870          37.000  
R 6  16493553.026    88012680.127        2445.227          44.000  
> 2019 11 26 15  9 14.9860000  0 21                     
G30  16321713.659    85771188.092        -798.329          52.000  
G13  17014535.658    89411970.438        1784.674          49.000  
G 7  17836951.202    93733793.691       -2604.338          49.000  
G 5  18089854.782    95062827.442       -2672.009          48.000  
G28  17900479.862    94067653.110        2295.996          45.000  
G 8  19130689.221   100532451.312         272.292          43.000  
G15  19147164.277   100619010.823        3065.750          43.000  
E30  21647873.775   113760326.032       -3132.663          29.000  
E19  19533156.591   102647414.844        -231.547          42.000  
E27  19588898.215   102940341.681        -934.573          47.000  
E21  20723284.859   108901596.210        1960.900          45.000  
E 4  22677950.504   119173408.255        2401.523          38.000  
G27  19870552.243   104420477.685       -1831.741          33.000  
E20  16046904.199    84327058.036       -2674.841          37.000  
R14  16671561.564    88868755.502       -3376.147          44.000  
R22  19125828.861   102094914.615       -2949.522          36.000  
R15  15140926.520    80908458.604         540.098          49.000  
R 5  15631369.294    83558591.161       -2322.620          48.000  
R23  18221294.935    97471625.168        1154.332          40.000  
R16  18214952.630    97300925.790        3748.015          37.000  
R 6  16493094.643    88010234.843        2444.690          44.000  
> 2019 11 26 15  9 15.9860000  0 21                     
G30  16321865.607    85771986.681        -798.734          52.000  
G13  17014196.033    89410185.917        1784.393          49.000  
G 7  17837446.796    93736398.143       -2604.476          49.000  
G 5  18090363.045    95065499.522       -2672.067          48.000  
G28  17900042.987    94065357.449        2295.546          45.000  
G 8  19130637.429   100532179.020         271.943          43.000  
G15  19146580.716   100615945.117        3065.699          43.000  
E30  21648467.362   113763458.687       -3132.593          29.000  
E19  19533200.479   102647646.469        -231.558          42.000  
E27  19589075.884   102941276.396        -934.645          47.000  
E21  20722911.870   108899635.293        1961.143          45.000  
E 4  22677493.466   119171006.637        2401.754          38.000  
G27  19870900.663   104422309.783       -1832.546          33.000  
E20  16047413.074    84329732.634       -2674.246          37.000  
R14  16672195.260    88872131.752       -3376.312          44.000  
R22  19126381.396   102097864.477       -2949.790          36.000  
R15  15140825.570    80907918.786         539.677          49.000  
R 5  15631803.926    83560914.115       -2323.081          49.000  
R23  18221079.233    97470470.768        1154.187          40.000  
R16  18214250.686    97297177.772        3747.392          37.000  
R 6  16492636.462    88007790.165        2444.543          44.000  
> 2019 11 26 15  9 16.9860000  0 21                     
G30  16322017.485    85772785.518        -799.099          52.000  
G13  17013856.478    89408401.582        1784.221          49.000  
G 7  17837942.348    93739002.663       -2604.794          49.000  
G 5  18090871.588    95068171.856       -2672.536          48.000  
G28  17899606.304    94063061.938        2295.295          45.000  
G 8  19130585.890   100531907.130         271.521          43.000  
G15  19145997.067   100612879.423        3065.530          43.000  
E30  21649065.791   113766591.211       -3132.777          29.000  
E19  19533244.724   102647878.254        -231.876          42.000  
E27  19589253.867   102942211.266        -934.871          47.000  
E21  20722538.618   108897674.435        1960.898          45.000  
E 4  22677036.401   119168604.942        2401.598          38.000  
G27  19871249.423   104424142.176       -1832.802          32.000  
E20  16047922.088    84332407.281       -2674.622          37.000  
R14  16672828.729    88875508.137       -3376.489          44.000  
R22  19126934.018   102100814.757       -2950.543          37.000  
R15  15140724.630    80907379.457         538.938          49.000  
R 5  15632238.873    83563237.571       -2323.807          49.000  
R23  18220863.592    97469316.969        1153.650          40.000  
R16  18213549.039    97293429.745        3747.755          37.000  
R 6  16492178.254    88005345.863        2443.939          44.000  
> 2019 11 26 15  9 17.9860000  0 21                     
G30  16322169.572    85773584.726        -799.423          52.000  
G13  17013516.932    89406617.572        1783.873          49.000  
G 7  17838438.143    93741607.356       -2604.777          49.000  
G 5  18091380.280    95070844.562       -2672.972          48.000  
G28  17899169.613    94060766.691        2295.077          45.000  
G 8  19130534.176   100531635.788         270.916          43.000  
G15  19145413.401   100609813.854        3065.443          42.000  
E30  21649659.194   113769723.711       -3132.665          29.000  
E19  19533288.690   102648110.311        -232.212          42.000  
E27  19589432.148   102943146.395        -935.252          47.000  
E21  20722165.533   108895713.734        1960.629          45.000  
E 4  22676579.388   119166203.240        2401.833          38.000  
G27  19871598.366   104425975.098       -1832.972          33.000  
E20  16048430.849    84335082.037       -2675.150          37.000  
R14  16673462.250    88878884.820       -3377.014          44.000  
R22  19127486.876   102103765.531       -2950.581          37.000  
R15  15140623.575    80906840.722         538.323          49.000  
R 5  15632673.759    83565561.659       -2324.435          49.000  
R23  18220648.343    97468163.897        1152.433          40.000  
R16  18212847.305    97289681.860        3747.377          37.000  
R 6  16491720.395    88002902.045        2443.500          44.000  
> 2019 11 26 15  9 18.9860000  0 20                     
G30  16322321.913    85774384.290        -799.996          52.000  
G13  17013177.167    89404833.857        1783.238          49.000  
G 7  17838933.599    93744212.225       -2605.311          49.000  
G 5  18091888.884    95073517.615       -2673.600          48.000  
G28  17898732.711    94058471.710        2294.480          45.000  
G 8  19130482.489   100531364.941         270.231          43.000  
G15  19144830.188   100606748.394        3065.055          42.000  
E30  21650259.700   113772856.148       -3132.508          29.000  
E19  19533332.743   102648342.617        -232.704          42.000  
E27  19589610.210   102944081.773        -935.786          47.000  
E21  20721792.229   108893753.180        1960.190          45.000  
E 4  22676122.009   119163801.561        2401.186          38.000  
E20  16048940.203    84337756.895       -2675.105          37.000  
R14  16674095.981    88882261.786       -3377.582          44.000  
R22  19128039.978   102106716.873       -2951.972          37.000  
R15  15140522.547    80906302.559         537.491          49.000  
R 5  15633108.662    83567886.393       -2325.445          49.000  
R23  18220433.025    97467011.524        1151.543          40.000  
R16  18212145.588    97285934.111        3747.297          37.000  
R 6  16491262.492    88000458.691        2442.706          44.000  
> 2019 11 26 15  9 19.9860000  0 19                     
G30  16322473.573    85775184.456        -800.826          28.000  
G13  17012839.165    89403050.663        1783.286          28.000  
G 7  17839430.232    93746817.460       -2605.380          25.000  
G 5  18092396.921    95076191.260       -2673.686          21.000  
G28  17898296.220                3       2293.469          27.000  
G 8  19130431.002                3        270.114          19.000  
G15  19144241.357                3       3049.366          26.000  
E30  21650855.354                3      -3127.794          18.000  
E19  19533369.510                3       -232.549          24.000  
E27  19589788.167   102945017.655        -936.087          26.000  
E21  20721418.620   108891793.040        1960.406          25.000  
E 4  22675665.712                3       2399.455          23.000  
R14  16674729.616    88885639.275       -3377.930          38.000  
R22  19128593.045   102109668.955       -2952.346          32.000  
R15  15140421.676    80905765.220         536.948          43.000  
R 5  15633543.870    83570211.964       -2325.875          43.000  
R23  18220217.829    97465860.078        1150.948          35.000  
R16  18211444.010    97282186.687        3747.286          32.000  
R 6  16490804.904    87998016.043        2442.230          37.000  
> 2019 11 26 15  9 20.9860000  0 20                     
G30  16322627.230                3       -801.708          27.000  
G13  17012499.523                3       1789.739          25.000  
G 7  17839923.279    93749423.205       -2607.016          24.000  
G 5  18092905.708                3      -2676.869          20.000  
G28  17897860.829                3       2293.495          23.000  
G 8  19130379.436                3        270.114          17.000  
G15  19143663.292                3       3049.366          22.000  
E30  21651450.092                3      -3127.794          12.000  
E19  19533419.200                3       -232.549          20.000  
E27  19589964.467                3       -935.733          23.000  
E21  20721045.813                3       1960.868          21.000  
E 4  22675206.693                3       2399.455          19.000  
G27  19872639.150                3      -1812.300          11.000  
R14  16675363.582    88889017.244       -3378.632          37.000  
R22  19129146.260   102112621.805       -2954.012          31.000  
R15  15140321.085    80905228.670         535.646          42.000  
R 5  15633979.017    83572538.362       -2327.196          42.000  
R23  18220002.729    97464709.551        1149.825          34.000  
R16  18210742.390    97278439.592        3746.118          31.000  
R 6  16490347.377    87995574.092        2440.936          37.000  
