     3.03           OBSERVATION DATA    M: Mixed            RINEX VERSION / TYPE
RTKCONV 2.4.3 b33   MKJ                 20191127 110009 UTC PGM / RUN BY / DATE 
Low-cost receiver                                           MARKER NAME               
NON GEODETIC                                                MARKER TYPE         
M. Kirkko-Jaakkola  Finnish Geospatial Research Institute   OBSERVER / AGENCY   
                    U-Blox M8T          10/19               REC # / TYPE / VERS
                    Septentrio PolaNt Choke Ring B3/E6      ANT # / TYPE       
  2853707.8301  1211344.0887  5555361.7611                  APPROX POSITION XYZ 
        0.0000        0.0000        0.0000                  ANTENNA: DELTA H/E/N
G    4 C1C L1C D1C S1C                                      SYS / # / OBS TYPES 
R    4 C1C L1C D1C S1C                                      SYS / # / OBS TYPES 
E    4 C1C L1C D1C S1C                                      SYS / # / OBS TYPES 
  2019    12     1    15    20   14.9920000     GPS         TIME OF FIRST OBS   
  2019    12     1    15    33   19.9930000     GPS         TIME OF LAST OBS    
G                                                           SYS / PHASE SHIFT   
R                                                           SYS / PHASE SHIFT   
E                                                           SYS / PHASE SHIFT   
  0                                                         GLONASS SLOT / FRQ #
 C1C    0.000 C1P    0.000 C2C    0.000 C2P    0.000        GLONASS COD/PHS/BIS 
                                                            END OF HEADER       
> 2019 12  1 15 20 14.9920000  0 23                     
G 2  21535693.165   113170833.111        2443.671          46.000  
G 4  19323114.598   101543649.989         -15.526          46.000  
G10  20540141.181   107939168.062        2691.725          46.000  
G13  19105191.720   100398460.277        2014.847          46.000  
G20  19295752.888   101399863.329       -3211.555          46.000  
G23  18125411.505    95249679.203         140.698          46.000  
G31  21043997.534   110586951.106       -3161.534          49.000  
G32  21538728.103   113186779.175       -3782.416          46.000  
R14  18045819.129    96194314.416        1718.885          44.000  
R13  18688826.385    99797221.578       -2521.412          49.000  
R 5  18094641.860    96726185.630        2055.487          46.000  
R20  19802532.849   105893009.079       -3637.155          46.000  
R 4  17226464.602    92246896.666       -1910.795          45.000  
E 7  24561855.427   129073432.263       -1245.000          43.000  
E 8  25331988.469   133120507.124       -3191.357          43.000  
E16  21136868.688   111075003.443       -1193.688          43.000  
E24  22223831.022   116787029.327       -1030.735          43.000  
E15  22242640.518   116885875.666        1282.234          43.000  
E17  23561107.673   123814455.428       -3178.510          43.000  
E22  25393817.782   133445420.982        2718.489          43.000  
E25  24868736.064   130686100.233       -3101.390          44.000  
E23  22455110.737   118002392.418        1524.172          44.000  
E 6  25475968.446   133877129.381        1052.000          43.000  
> 2019 12  1 15 20 15.9920000  0 23                     
G 2  21535221.728   113168356.073        2504.431          46.000  
G 4  19323112.430   101543639.735          37.281          46.000  
G10  20539622.314   107936443.107        2758.641          46.000  
G13  19104806.371   100396436.428        2040.056          46.000  
G20  19296369.077   101403100.615       -3259.118          46.000  
G23  18125385.475    95249542.064         136.972          46.000  
G31  21044601.322   110590123.663       -3193.146          49.000  
G32  21539454.477   113190597.150       -3850.958          46.000  
R14  18045501.242    96192620.555        1671.948          44.000  
R13  18689300.307    99799752.699       -2548.617          49.000  
R 5  18094252.689    96724105.780        2103.751          46.000  
R20  19803207.605   105896616.532       -3573.433          46.000  
R 4  17226823.933    92248820.732       -1937.794          45.000  
E 7  24562086.324   129074643.558       -1182.848          43.000  
E 8  25332588.977   133123664.672       -3120.359          43.000  
E16  21137097.338   111076204.215       -1204.521          43.000  
E24  22224031.146   116788080.241       -1074.396          43.000  
E15  22242391.833   116884569.041        1332.183          43.000  
E17  23561718.889   123817667.046       -3241.099          43.000  
E22  25393302.721   133442714.610        2706.097          43.000  
E25  24869327.903   130689209.385       -3127.531          43.000  
E23  22454825.003   118000890.514        1486.276          43.000  
E 6  25475765.160   133876061.418        1073.239          43.000  
> 2019 12  1 15 20 16.9920000  0 23                     
G 2  21534744.268   113165845.128        2506.213          46.000  
G 4  19323101.694   101543583.124          69.412          46.000  
G10  20539092.888   107933661.292        2796.061          46.000  
G13  19104413.338   100394372.001        2089.622          46.000  
G20  19296990.669   101406367.263       -3265.508          46.000  
G23  18125358.447    95249400.088         149.388          46.000  
G31  21045215.400   110593350.550       -3261.346          49.000  
G32  21540190.944   113194467.063       -3878.186          46.000  
R14  18045189.987    96190959.182        1659.176          44.000  
R13  18689782.993    99802330.039       -2606.788          49.000  
R 5  18093856.207    96721986.838        2127.349          46.000  
R20  19803870.325   105900159.864       -3519.544          46.000  
R 4  17227187.787    92250769.488       -1956.096          45.000  
E 7  24562309.872   129075818.940       -1178.832          43.000  
E 8  25333177.165   133126753.520       -3064.905          43.000  
E16  21137326.056   111077406.349       -1196.257          43.000  
E24  22224240.162   116789179.299       -1119.192          43.000  
E15  22242134.584   116883219.107        1361.903          43.000  
E17  23562338.273   123820921.642       -3257.865          43.000  
E22  25392783.296   133439985.639        2760.423          43.000  
E25  24869929.938   130692371.814       -3199.321          43.000  
E23  22454542.454   117999403.167        1497.232          43.000  
E 6  25475565.048   133875008.607        1023.951          43.000  
> 2019 12  1 15 20 17.9920000  0 23                     
G 2  21534272.281   113163365.549        2447.125          46.000  
G 4  19323089.153   101543519.097          50.786          46.000  
G10  20538562.713   107930873.809        2769.389          46.000  
G13  19104012.707   100392265.336        2117.738          46.000  
G20  19297608.625   101409615.530       -3225.199          46.000  
G23  18125328.568    95249242.041         166.304          46.000  
G31  21045840.809   110596637.656       -3303.733          49.000  
G32  21540926.115   113198330.333       -3839.014          46.000  
R14  18044876.402    96189286.768        1692.071          44.000  
R13  18690275.491    99804958.686       -2643.053          49.000  
R 5  18093459.908    96719868.063        2103.856          46.000  
R20  19804528.037   105903676.955       -3525.346          46.000  
R 4  17227552.894    92252724.727       -1949.681          45.000  
E 7  24562539.135   129077023.578       -1236.760          44.000  
E 8  25333760.257   133129818.622       -3076.562          43.000  
E16  21137551.641   111078592.965       -1176.154          43.000  
E24  22224454.326   116790304.721       -1123.342          43.000  
E15  22241876.824   116881862.179        1344.858          43.000  
E17  23562954.722   123824161.343       -3213.630          43.000  
E22  25392250.898   133437187.941        2832.448          43.000  
E25  24870544.515   130695600.933       -3250.179          43.000  
E23  22454252.793   117997882.668        1546.838          43.000  
E 6  25475377.427   133874022.793         949.560          43.000  
> 2019 12  1 15 20 18.9920000  0 23                     
G 2  21533813.393   113160953.956        2381.018          46.000  
G 4  19323084.287   101543493.918          -2.362          46.000  
G10  20538042.191   107928137.163        2702.390          46.000  
G13  19103610.802   100390153.852        2098.073          46.000  
G20  19298217.408   101412814.779       -3175.715          46.000  
G23  18125296.063    95249071.831         171.426          46.000  
G31  21046468.236   110599935.752       -3282.060          49.000  
G32  21541649.941   113202134.498       -3770.026          46.000  
R14  18044554.332    96187570.571        1739.077          44.000  
R13  18690769.550    99807597.161       -2624.971          49.000  
R 5  18093070.987    96717788.811        2054.464          46.000  
R20  19805192.424   105907230.246       -3586.282          46.000  
R 4  17227914.545    92254662.679       -1924.901          45.000  
E 7  24562781.211   129078296.045       -1303.960          43.000  
E 8  25334351.782   133132926.785       -3144.391          43.000  
E16  21137773.839   111079761.683       -1163.555          43.000  
E24  22224664.449   116791410.839       -1084.011          43.000  
E15  22241625.406   116880541.159        1295.623          43.000  
E17  23563559.780   123827341.981       -3149.219          43.000  
E22  25391708.489   133434338.517        2855.470          44.000  
E25  24871162.388   130698848.942       -3234.199          43.000  
E23  22453953.781   117996311.972        1589.162          43.000  
E 6  25475200.709   133873094.490         917.782          43.000  
> 2019 12  1 15 20 19.9920000  0 23                     
G 2  21533362.516   113158585.552        2367.584          46.000  
G 4  19323089.219   101543519.511         -42.521          46.000  
G10  20537533.338   107925462.097        2656.243          46.000  
G13  19103216.543   100388080.516        2047.502          46.000  
G20  19298819.801   101415980.533       -3163.497          46.000  
G23  18125264.146    95248905.762         158.714          46.000  
G31  21047087.086   110603186.644       -3217.166          49.000  
G32  21542363.005   113205882.303       -3735.126          46.000  
R14  18044225.789    96185819.568        1756.090          44.000  
R13  18691256.420    99810196.473       -2570.692          49.000  
R 5  18092690.363    96715753.258        2023.448          46.000  
R20  19805869.134   105910850.282       -3648.014          46.000  
R 4  17228272.292    92256576.779       -1905.849          45.000  
E 7  24563032.078   129079613.767       -1319.831          43.000  
E 8  25334956.603   133136106.268       -3207.524          43.000  
E16  21137995.625   111080927.591       -1170.808          43.000  
E24  22224866.383   116792470.866       -1038.341          43.000  
E15  22241383.060   116879266.861        1258.836          43.000  
E17  23564155.515   123830474.613       -3124.997          43.000  
E22  25391168.889   133431502.718        2807.529          44.000  
E25  24871771.806   130702051.618       -3166.616          43.000  
E23  22453650.880   117994721.265        1584.118          43.000  
E 6  25475023.563   133872162.480         956.445          43.000  
> 2019 12  1 15 20 20.9920000  0 23                     
G 2  21532907.482   113156195.838        2419.611          46.000  
G 4  19323097.438   101543561.406         -32.406          46.000  
G10  20537026.937   107922802.656        2673.492          46.000  
G13  19102830.516   100386053.251        2013.140          46.000  
G20  19299424.553   101419159.181       -3199.808          46.000  
G23  18125235.848    95248756.472         140.482          46.000  
G31  21047693.677   110606375.569       -3168.278          49.000  
G32  21543075.774   113209628.147       -3766.125          46.000  
R14  18043898.296    96184075.164        1726.806          44.000  
R13  18691733.308    99812744.019       -2530.137          49.000  
R 5  18092311.091    96713725.483        2039.577          46.000  
R20  19806552.816   105914506.458       -3653.035          46.000  
R 4  17228628.351    92258482.602       -1909.687          45.000  
E 7  24563279.098   129080912.677       -1269.636          43.000  
E 8  25335568.396   133139319.570       -3207.105          43.000  
E16  21138220.497   111082108.426       -1191.357          43.000  
E24  22225062.722   116793500.492       -1028.259          43.000  
E15  22241143.298   116878007.058        1268.645          43.000  
E17  23564753.030   123833614.231       -3162.371          43.000  
E22  25390642.030   133428733.059        2733.304          43.000  
E25  24872368.181   130705186.297       -3109.375          43.000  
E23  22453353.633   117993159.126        1536.672          43.000  
E 6  25474834.117   133871168.987        1030.696          43.000  
> 2019 12  1 15 20 21.9920000  0 23                     
G 2  21532440.200   113153739.990        2488.525          46.000  
G 4  19323098.740   101543570.578          17.281          46.000  
G10  20536512.393   107920098.521        2737.776          46.000  
G13  19102446.960   100384037.795        2025.560          46.000  
G20  19300038.554   101422385.340       -3251.412          46.000  
G23  18125209.985    95248621.441         132.138          46.000  
G31  21048296.864   110609544.882       -3181.118          49.000  
G32  21543799.361   113213428.119       -3834.918          46.000  
R14  18043578.787    96182373.151        1677.498          44.000  
R13  18692207.492    99815275.276       -2541.664          49.000  
R 5  18091924.992    96711662.566        2087.542          46.000  
R20  19807231.473   105918135.326       -3598.136          46.000  
R 4  17228987.219    92260403.692       -1934.342          45.000  
E 7  24563513.710   129082146.173       -1199.979          43.000  
E 8  25336172.916   133142498.115       -3143.907          43.000  
E16  21138449.119   111083308.233       -1206.260          43.000  
E24  22225261.288   116794543.504       -1063.433          43.000  
E15  22240897.616   116876716.205        1315.620          43.000  
E17  23565361.194   123836809.371       -3227.816          43.000  
E22  25390126.133   133426021.027        2701.122          43.000  
E25  24872959.571   130708292.765       -3115.094          43.000  
E23  22453066.255   117991647.930        1489.931          43.000  
E 6  25474633.256   133870112.906        1071.561          43.000  
> 2019 12  1 15 20 22.9920000  0 23                     
G 2  21531963.526   113151234.754        2510.565          46.000  
G 4  19323090.685   101543529.109          60.416          46.000  
G10  20535985.763   107917331.163        2789.570          46.000  
G13  19102057.342   100381989.831        2072.893          46.000  
G20  19300659.928   101425650.785       -3271.885          46.000  
G23  18125184.163    95248485.965         141.222          46.000  
G31  21048907.984   110612755.804       -3244.610          49.000  
G32  21544533.995   113217289.127       -3878.375          46.000  
R14  18043267.043    96180711.553        1652.159          44.000  
R13  18692687.892    99817841.896       -2595.591          49.000  
R 5  18091530.717    96709554.815        2122.151          46.000  
R20  19807897.879   105921699.539       -3534.414          46.000  
R 4  17229350.786    92262350.531       -1957.327          45.000  
E 7  24563738.772   129083328.701       -1175.873          43.000  
E 8  25336764.079   133145605.911       -3076.821          43.000  
E16  21138678.609   111084514.433       -1203.050          43.000  
E24  22225468.498   116795632.290       -1112.663          43.000  
E15  22240642.787   116875377.982        1355.880          43.000  
E17  23565979.776   123840058.054       -3260.985          43.000  
E22  25389609.180   133423305.640        2739.826          43.000  
E25  24873558.065   130711437.440       -3179.637          43.000  
E23  22452783.869   117990164.008        1486.326          43.000  
E 6  25474431.420   133869051.475        1040.638          43.000  
> 2019 12  1 15 20 23.9920000  0 23                     
G 2  21531489.818   113148742.986        2464.917          46.000  
G 4  19323079.067   101543466.637          56.493          46.000  
G10  20535454.633   107914540.785        2780.903          46.000  
G13  19101658.668   100379895.707        2111.260          46.000  
G20  19301280.565   101428911.871       -3242.530          46.000  
G23  18125155.621    95248336.649         158.225          46.000  
G31  21049531.380   110616032.052       -3300.552          49.000  
G32  21545271.055   113221162.464       -3857.068          46.000  
R14  18042956.093    96179052.371        1673.752          44.000  
R13  18693178.941    99820464.158       -2643.210          49.000  
R 5  18091133.951    96707434.489        2111.547          46.000  
R20  19808556.922   105925222.141       -3520.924          46.000  
R 4  17229716.834    92264310.867       -1958.215          45.000  
E 7  24563965.987   129084522.344       -1219.887          43.000  
E 8  25337347.961   133148672.595       -3067.469          44.000  
E16  21138906.267   111085709.220       -1184.470          43.000  
E24  22225682.586   116796757.903       -1130.590          43.000  
E15  22240384.608   116874020.200        1352.400          43.000  
E17  23566598.303   123843309.662       -3232.118          43.000  
E22  25389080.900   133420529.397        2813.867          43.000  
E25  24874169.680   130714652.153       -3243.483          43.000  
E23  22452497.412   117988659.326        1528.580          43.000  
E 6  25474240.308   133868047.611         966.195          43.000  
> 2019 12  1 15 20 24.9920000  0 23                     
G 2  21531027.810   113146314.502        2393.701          46.000  
G 4  19323072.936   101543431.769           8.801          46.000  
G10  20534931.000   107911788.032        2719.825          46.000  
G13  19101256.982   100377783.651        2105.056          46.000  
G20  19301892.476   101432128.363       -3190.568          46.000  
G23  18125124.630    95248172.319         167.939          46.000  
G31  21050160.277   110619336.724       -3297.817          49.000  
G32  21545998.736   113224987.271       -3790.399          46.000  
R14  18042637.601    96177355.184        1721.303          44.000  
R13  18693674.558    99823110.972       -2641.255          49.000  
R 5  18090742.988    96705344.869        2065.177          46.000  
R20  19809219.476   105928764.049       -3570.632          46.000  
R 4  17230080.545    92266259.616       -1936.671          45.000  
E 7  24564204.959   129085778.446       -1291.499          44.000  
E 8  25337936.616   133151764.848       -3124.590          43.000  
E16  21139130.051   111086884.677       -1168.181          43.000  
E24  22225895.610   116797877.077       -1101.429          43.000  
E15  22240131.325   116872687.944        1308.298          43.000  
E17  23567207.011   123846510.026       -3167.255          43.000  
E22  25388540.504   133417689.814        2855.547          43.000  
E25  24874788.543   130717903.598       -3247.782          44.000  
E23  22452201.265   117987104.291        1578.185          43.000  
E 6  25474062.337   133867110.730         916.421          44.000  
> 2019 12  1 15 20 25.9920000  0 23                     
G 2  21530576.349   113143941.808        2362.274          46.000  
G 4  19323076.421   101543448.860         -38.932          46.000  
G10  20534419.364   107909099.701        2662.764          46.000  
G13  19100860.323   100375699.224        2060.256          46.000  
G20  19302496.276   101435301.873       -3163.694          46.000  
G23  18125093.158    95248006.593         160.977          46.000  
G31  21050782.715   110622607.674       -3238.851          49.000  
G32  21546714.267   113228747.925       -3739.252          46.000  
R14  18042311.002    96175615.732        1751.316          44.000  
R13  18694164.817    99825729.922       -2591.786          49.000  
R 5  18090360.977    96703301.899        2025.854          46.000  
R20  19809893.735   105932369.535       -3638.046          46.000  
R 4  17230439.444    92268183.362       -1912.489          45.000  
E 7  24564454.892   129087091.910       -1325.208          44.000  
E 8  25338538.238   133154926.565       -3195.473          43.000  
E16  21139352.004   111088051.433       -1168.618          43.000  
E24  22226100.368   116798953.329       -1051.624          43.000  
E15  22239886.852   116871403.537        1264.383          43.000  
E17  23567805.117   123849652.787       -3126.201          43.000  
E22  25387999.188   133414843.204        2826.872          43.000  
E25  24875401.454   130721125.436       -3188.750          43.000  
E23  22451898.726   117985516.475        1589.054          44.000  
E 6  25473886.910   133866189.551         937.170          43.000  
> 2019 12  1 15 20 26.9920000  0 23                     
G 2  21530123.928   113141566.420        2398.474          46.000  
G 4  19323085.127   101543495.138         -44.494          46.000  
G10  20533913.932   107906443.616        2660.652          46.000  
G13  19100472.867   100373662.979        2016.632          46.000  
G20  19303100.093   101438473.899       -3187.722          46.000  
G23  18125064.230    95247854.868         142.333          46.000  
G31  21051393.043   110625814.135       -3179.206          49.000  
G32  21547426.092   113232487.950       -3751.782          46.000  
R14  18041983.514    96173869.356        1734.341          44.000  
R13  18694645.248    99828294.953       -2541.969          49.000  
R 5  18089982.460    96701279.039        2028.270          46.000  
R20  19810577.330   105936025.000       -3662.424          46.000  
R 4  17230795.947    92270092.266       -1909.091          45.000  
E 7  24564704.742   129088405.318       -1291.345          43.000  
E 8  25339149.578   133158137.985       -3215.814          44.000  
E16  21139575.677   111089228.492       -1186.920          43.000  
E24  22226297.244   116799990.084       -1028.398          43.000  
E15  22239647.439   116870145.559        1259.948          43.000  
E17  23568401.168   123852784.663       -3147.097          43.000  
E22  25387467.907   133412052.392        2752.896          44.000  
E25  24876001.506   130724278.724       -3121.622          43.000  
E23  22451599.917   117983943.851        1550.538          44.000  
E 6  25473701.713   133865218.753        1008.118          44.000  
> 2019 12  1 15 20 27.9920000  0 23                     
G 2  21529660.876   113139132.911        2468.671          46.000  
G 4  19323089.773   101543521.847          -3.158          46.000  
G10  20533402.867   107903758.383        2715.730          46.000  
G13  19100089.968   100371651.757        2014.091          46.000  
G20  19303711.784   101441687.891       -3241.001          46.000  
G23  18125038.617    95247720.344         129.052          46.000  
G31  21051996.153   110628985.219       -3173.759          49.000  
G32  21548146.147   113236270.192       -3816.516          46.000  
R14  18041662.919    96172158.716        1685.503          44.000  
R13  18695120.064    99830830.522       -2538.081          49.000  
R 5  18089599.445    96699231.908        2069.951          46.000  
R20  19811259.201   105939671.708       -3621.838          46.000  
R 4  17231154.392    92272010.931       -1930.744          45.000  
E 7  24564944.019   129089661.972       -1221.093          43.000  
E 8  25339757.781   133161334.106       -3167.326          44.000  
E16  21139803.588   111090425.901       -1206.225          43.000  
E24  22226494.663   116801027.696       -1053.400          43.000  
E15  22239404.480   116868868.740        1298.800          43.000  
E17  23569006.224   123855962.818       -3211.508          44.000  
E22  25386949.555   133409329.103        2702.383          44.000  
E25  24876592.811   130727387.960       -3108.142          44.000  
E23  22451310.097   117982421.031        1497.315          43.000  
E 6  25473504.201   133864179.221        1063.398          43.000  
> 2019 12  1 15 20 28.9920000  0 23                     
G 2  21529186.572   113136639.769        2508.203          46.000  
G 4  19323085.118   101543499.015          46.718          46.000  
G10  20532879.980   107901009.867        2777.127          46.000  
G13  19099703.131   100369619.977        2054.355          46.000  
G20  19304332.346   101444949.255       -3274.616          46.000  
G23  18125014.141    95247591.109         132.609          46.000  
G31  21052605.026   110632183.134       -3228.296          49.000  
G32  21548878.402   113240118.984       -3873.944          46.000  
R14  18041350.590    96170494.522        1649.122          44.000  
R13  18695599.456    99833389.109       -2584.542          49.000  
R 5  18089207.700    96697139.035        2112.163          46.000  
R20  19811930.136   105943259.761       -3554.627          46.000  
R 4  17231517.592    92273955.708       -1957.419          45.000  
E 7  24565171.701   129090857.966       -1179.622          44.000  
E 8  25340353.196   133164464.354       -3094.651          43.000  
E16  21140033.806   111091635.543       -1209.283          43.000  
E24  22226699.929   116802106.327       -1103.738          43.000  
E15  22239152.104   116867545.550        1345.233          44.000  
E17  23569622.952   123859202.145       -3259.703          43.000  
E22  25386434.959   133406623.256        2721.225          44.000  
E25  24877188.760   130730518.545       -3160.922          43.000  
E23  22451027.840   117980937.270        1478.612          44.000  
E 6  25473301.925   133863115.573        1052.488          43.000  
> 2019 12  1 15 20 29.9920000  0 23                     
G 2  21528711.058   113134140.529        2479.749          46.000  
G 4  19323074.672   101543442.743          57.632          46.000  
G10  20532349.456   107898222.228        2787.297          46.000  
G13  19099307.725   100367541.214        2099.830          46.000  
G20  19304954.992   101448220.088       -3258.896          46.000  
G23  18124987.508    95247450.777         148.822          46.000  
G31  21053225.909   110635445.689       -3293.079          49.000  
G32  21549616.500   113243997.521       -3872.046          46.000  
R14  18041041.691    96168845.444        1656.955          44.000  
R13  18696089.074    99836002.659       -2639.898          49.000  
R 5  18088811.690    96695021.301        2115.336          46.000  
R20  19812591.054   105946793.580       -3523.144          46.000  
R 4  17231884.165    92275919.383       -1965.865          45.000  
E 7  24565397.612   129092045.469       -1206.167          44.000  
E 8  25340937.981   133167538.808       -3065.280          43.000  
E16  21140262.467   111092838.240       -1194.128          43.000  
E24  22226913.581   116803228.779       -1134.815          43.000  
E15  22238894.502   116866191.214        1355.429          43.000  
E17  23570242.884   123862461.364       -3248.505          43.000  
E22  25385910.220   133403868.630        2791.603          43.000  
E25  24877797.251   130733716.323       -3232.120          43.000  
E23  22450744.233   117979446.212        1510.006          44.000  
E 6  25473107.856   133862094.879         983.686          43.000  
> 2019 12  1 15 20 30.9920000  0 23                     
G 2  21528245.722   113131695.105        2409.821          46.000  
G 4  19323066.760   101543400.895          20.031          46.000  
G10  20531823.326   107895456.286        2737.676          46.000  
G13  19098906.603   100365433.095        2108.760          46.000  
G20  19305570.105   101451454.567       -3207.610          46.000  
G23  18124957.664    95247294.088         162.918          46.000  
G31  21053855.112   110638752.115       -3308.845          49.000  
G32  21550347.913   113247842.202       -3811.932          46.000  
R14  18040726.933    96167167.466        1701.890          44.000  
R13  18696585.651    99838653.814       -2653.273          49.000  
R 5  18088419.417    96692923.323        2076.455          46.000  
R20  19813252.064   105950328.526       -3556.358          46.000  
R 4  17232249.555    92277878.383       -1948.499          45.000  
E 7  24565633.973   129093285.347       -1275.808          43.000  
E 8  25341524.487   133170619.511       -3105.715          43.000  
E16  21140487.673   111094021.952       -1174.142          43.000  
E24  22227128.524   116804358.394       -1116.961          43.000  
E15  22238639.102   116864850.256        1320.914          43.000  
E17  23570855.332   123865681.503       -3187.563          43.000  
E22  25385372.751   133401044.341        2849.591          43.000  
E25  24878415.988   130736966.054       -3256.212          43.000  
E23  22450451.599   117977908.936        1563.680          43.000  
E 6  25472927.347   133861145.530         921.219          43.000  
> 2019 12  1 15 20 31.9920000  0 23                     
G 2  21527792.523   113129314.409        2361.304          46.000  
G 4  19323068.309   101543408.893         -33.683          46.000  
G10  20531308.946   107892753.306        2672.286          46.000  
G13  19098508.513   100363340.757        2071.393          46.000  
G20  19306176.394   101454640.795       -3169.676          46.000  
G23  18124926.596    95247131.459         160.326          46.000  
G31  21054481.256   110642041.830       -3262.216          49.000  
G32  21551066.923   113251620.847       -3750.085          46.000  
R14  18040403.288    96165444.016        1740.865          44.000  
R13  18697079.370    99841291.548       -2614.571          49.000  
R 5  18088035.644    96690872.068        2029.923          46.000  
R20  19813923.788   105953919.652       -3625.642          46.000  
R 4  17232611.459    92279814.084       -1922.616          45.000  
E 7  24565882.171   129094590.920       -1326.468          44.000  
E 8  25342122.655   133173763.113       -3180.503          43.000  
E16  21140709.950   111095192.590       -1169.456          43.000  
E24  22227336.828   116805452.538       -1068.644          43.000  
E15  22238392.941   116863555.291        1271.532          43.000  
E17  23571456.195   123868839.801       -3134.253          43.000  
E22  25384830.481   133398193.748        2840.615          43.000  
E25  24879032.257   130740205.038       -3211.851          43.000  
E23  22450150.716   117976329.528        1588.381          43.000  
E 6  25472753.200   133860230.874         920.571          43.000  
> 2019 12  1 15 20 32.9920000  0 23                     
G 2  21527342.686   113126949.484        2379.791          46.000  
G 4  19323077.756   101543456.233         -53.164          46.000  
G10  20530803.001   107890096.193        2652.390          46.000  
G13  19098119.186   100361294.490        2023.173          46.000  
G20  19306779.905   101457810.910       -3178.913          46.000  
G23  18124897.641    95246978.529         144.372          46.000  
G31  21055095.203   110645269.304       -3195.252          49.000  
G32  21551778.800   113255361.431       -3742.157          46.000  
R14  18040075.983    96163700.370        1738.644          44.000  
R13  18697563.430    99843877.155       -2558.188          49.000  
R 5  18087657.838    96688851.252        2019.583          46.000  
R20  19814606.589   105957570.235       -3666.459          46.000  
R 4  17232969.189    92281729.146       -1911.397          45.000  
E 7  24566133.961   129095914.828       -1310.258          44.000  
E 8  25342732.688   133176967.954       -3219.401          44.000  
E16  21140933.766   111096367.669       -1183.060          43.000  
E24  22227536.222   116806500.890       -1033.304          43.000  
E15  22238153.434   116862296.139        1254.347          43.000  
E17  23572051.767   123871969.815       -3136.139          43.000  
E22  25384295.852   133395383.731        2774.219          44.000  
E25  24879636.229   130743379.999       -3139.104          44.000  
E23  22449850.033   117974750.404        1562.723          44.000  
E 6  25472572.265   133859282.027         983.752          43.000  
> 2019 12  1 15 20 33.9920000  0 23                     
G 2  21526883.615   113124537.961        2446.301          46.000  
G 4  19323085.413   101543497.651         -22.812          46.000  
G10  20530294.859   107887426.680        2694.562          46.000  
G13  19097736.359   100359283.347        2006.567          46.000  
G20  19307389.443   101461012.956       -3228.803          46.000  
G23  18124871.769    95246843.265         127.506          46.000  
G31  21055700.060   110648447.346       -3171.491          49.000  
G32  21552495.788   113259127.820       -3797.223          46.000  
R14  18039753.485    96161981.853        1694.724          44.000  
R13  18698039.821    99846421.399       -2538.833          49.000  
R 5  18087277.174    96686817.790        2052.703          46.000  
R20  19815290.974   105961230.237       -3643.118          46.000  
R 4  17233327.363    92283646.528       -1927.085          45.000  
E 7  24566377.430   129097194.079       -1244.310          44.000  
E 8  25343343.389   133180177.028       -3188.334          43.000  
E16  21141161.317   111097561.744       -1204.482          43.000  
E24  22227733.728   116807536.378       -1045.217          43.000  
E15  22237912.848   116861030.732        1282.945          43.000  
E17  23572654.236   123875132.055       -3193.733          43.000  
E22  25383774.518   133392644.635        2709.942          43.000  
E25  24880229.257   130746497.445       -3106.238          44.000  
E23  22449557.941   117973214.812        1508.207          44.000  
E 6  25472378.125   133858262.700        1050.449          43.000  
> 2019 12  1 15 20 34.9920000  0 23                     
G 2  21526412.208   113122060.835        2500.391          46.000  
G 4  19323084.629   101543494.150          29.638          46.000  
G10  20529775.913   107884698.364        2760.618          46.000  
G13  19097352.053   100357264.700        2037.285          46.000  
G20  19308008.143   101464266.223       -3272.857          46.000  
G23  18124847.784    95246718.092         125.849          46.000  
G31  21056306.503   110651634.807       -3212.174          49.000  
G32  21553224.952   113262960.495       -3863.855          46.000  
R14  18039440.302    96160311.632        1649.816          44.000  
R13  18698517.957    99848973.979       -2573.730          49.000  
R 5  18086888.758    96684740.847        2099.366          46.000  
R20  19815966.018   105964841.776       -3577.309          46.000  
R 4  17233689.869    92285587.849       -1955.175          45.000  
E 7  24566608.356   129098407.357       -1188.804          43.000  
E 8  25343943.116   133183329.870       -3115.686          43.000  
E16  21141392.303   111098772.423       -1213.590          43.000  
E24  22227936.775   116808604.401       -1093.289          43.000  
E15  22237663.858   116859723.150        1331.985          43.000  
E17  23573268.106   123878357.710       -3252.883          43.000  
E22  25383260.749   133389941.865        2707.653          44.000  
E25  24880823.082   130749617.194       -3143.167          44.000  
E23  22449274.942   117971726.496        1475.596          43.000  
E 6  25472176.180   133857201.958        1059.784          44.000  
> 2019 12  1 15 20 35.9920000  0 23                     
G 2  21525936.085   113119559.170        2492.255          46.000  
G 4  19323076.105   101543448.054          55.809          46.000  
G10  20529247.006   107881918.563        2789.879          46.000  
G13  19096959.514   100355202.620        2086.998          46.000  
G20  19308631.537   101467542.653       -3270.868          46.000  
G23  18124822.575    95246586.090         140.530          46.000  
G31  21056924.494   110654881.676       -3280.001          49.000  
G32  21553962.869   113266838.541       -3880.487          46.000  
R14  18039132.214    96158668.624        1644.972          44.000  
R13  18699005.464    99851577.114       -2631.523          49.000  
R 5  18086493.991    96682629.392        2116.687          46.000  
R20  19816629.767   105968391.453       -3529.186          46.000  
R 4  17234056.538    92287552.654       -1969.742          45.000  
E 7  24566833.948   129099593.841       -1194.832          43.000  
E 8  25344530.915   133186417.319       -3067.602          43.000  
E16  21141622.509   111099981.806       -1201.891          43.000  
E24  22228148.937   116809720.284       -1133.172          43.000  
E15  22237407.501   116858375.943        1356.142          43.000  
E17  23573888.409   123881619.282       -3259.361          44.000  
E22  25382739.650   133387206.870        2769.885          43.000  
E25  24881428.031   130752796.545       -3215.339          44.000  
E23  22448993.461   117970245.477        1494.915          43.000  
E 6  25471979.623   133856166.726        1003.522          43.000  
> 2019 12  1 15 20 36.9920000  0 23                     
G 2  21525467.748   113117096.639        2427.991          46.000  
G 4  19323067.415   101543401.204          29.893          46.000  
G10  20528718.670   107879141.908        2754.161          46.000  
G13  19096559.723   100353101.249        2108.646          46.000  
G20  19309250.007   101470792.986       -3225.740          46.000  
G23  18124794.194    95246436.828         156.579          46.000  
G31  21057552.780   110658183.456       -3314.088          49.000  
G32  21554697.292   113270699.210       -3833.282          46.000  
R14  18038820.269    96157007.238        1682.345          44.000  
R13  18699501.818    99854227.015       -2660.575          49.000  
R 5  18086100.305    96680524.263        2087.171          46.000  
R20  19817290.053   105971923.095       -3545.015          46.000  
R 4  17234423.699    92289519.199       -1959.514          45.000  
E 7  24567066.865   129100817.524       -1258.265          43.000  
E 8  25345115.585   133189490.270       -3089.745          44.000  
E16  21141848.915   111101173.205       -1181.471          43.000  
E24  22228365.090   116810855.521       -1129.953          43.000  
E15  22237151.210   116857028.009        1332.243          43.000  
E17  23574503.939   123884856.090       -3208.171          44.000  
E22  25382205.722   133384400.517        2837.962          43.000  
E25  24882045.280   130756037.981       -3258.232          44.000  
E23  22448703.925   117968725.181        1546.886          43.000  
E 6  25471795.969   133855200.625         931.493          43.000  
> 2019 12  1 15 20 37.9920000  0 23                     
G 2  21525012.147   113114702.723        2366.498          46.000  
G 4  19323066.141   101543398.201         -24.474          46.000  
G10  20528200.920   107876421.823        2686.296          46.000  
G13  19096160.451   100351002.664        2082.122          46.000  
G20  19309859.164   101473993.751       -3179.034          46.000  
G23  18124763.862    95246277.687         159.236          46.000  
G31  21058181.226   110661487.007       -3283.066          49.000  
G32  21555420.202   113274497.297       -3765.417          46.000  
R14  18038500.311    96155300.999        1727.307          44.000  
R13  18699998.202    99856879.144       -2634.842          49.000  
R 5  18085714.861    96678462.347        2037.858          46.000  
R20  19817958.985   105975499.142       -3610.603          46.000  
R 4  17234787.335    92291466.119       -1933.455          45.000  
E 7  24567312.708   129102110.109       -1321.237          44.000  
E 8  25345710.339   133192614.630       -3161.674          43.000  
E16  21142072.033   111102348.266       -1171.253          43.000  
E24  22228576.295   116811965.675       -1086.391          43.000  
E15  22236902.363   116855720.634        1282.113          44.000  
E17  23575108.413   123888031.879       -3146.537          44.000  
E22  25381663.214   133381550.748        2850.088          43.000  
E25  24882663.805   130759288.513       -3231.642          44.000  
E23  22448405.147   117967156.884        1583.895          44.000  
E 6  25471621.824   133854285.511         910.329          44.000  
> 2019 12  1 15 20 38.9920000  0 23                     
G 2  21524563.423   113112343.298        2364.246          46.000  
G 4  19323074.766   101543443.116         -57.916          46.000  
G10  20527694.188   107873759.103        2648.719          46.000  
G13  19095769.054   100348945.906        2031.578          46.000  
G20  19310462.837   101477166.561       -3174.187          46.000  
G23  18124735.077    95246124.750         145.242          46.000  
G31  21058799.491   110664737.072       -3215.827          49.000  
G32  21556133.428   113278244.426       -3739.239          46.000  
R14  18038174.481    96153564.506        1738.276          44.000  
R13  18700486.473    99859486.773       -2578.644          49.000  
R 5  18085336.544    96676440.339        2013.742          46.000  
R20  19818639.976   105979140.935       -3665.875          46.000  
R 4  17235146.644    92293389.798       -1916.696          45.000  
E 7  24567565.766   129103439.515       -1326.010          44.000  
E 8  25346318.206   133195808.386       -3217.476          43.000  
E16  21142295.666   111103523.096       -1180.902          43.000  
E24  22228778.527   116813028.963       -1043.399          44.000  
E15  22236662.030   116854457.148        1251.669          43.000  
E17  23575704.689   123891165.728       -3130.869          44.000  
E22  25381125.878   133378724.639        2794.628          44.000  
E25  24883271.851   130762486.197       -3160.926          43.000  
E23  22448104.510   117965575.498        1571.171          43.000  
E 6  25471445.018   133853355.960         958.474          43.000  
> 2019 12  1 15 20 39.9920000  0 23                     
G 2  21524108.378   113109953.108        2422.430          46.000  
G 4  19323085.417   101543496.841         -40.888          46.000  
G10  20527188.550   107871102.292        2675.150          46.000  
G13  19095385.921   100346932.173        2002.738          46.000  
G20  19311070.521   101480359.311       -3216.062          46.000  
G23  18124709.463    95245989.095         127.060          46.000  
G31  21059406.879   110667928.199       -3175.046          49.000  
G32  21556847.831   113281999.463       -3779.688          46.000  
R14  18037851.102    96151841.189        1703.194          44.000  
R13  18700965.725    99862045.048       -2544.647          49.000  
R 5  18084958.141    96674418.890        2036.269          46.000  
R20  19819326.254   105982810.205       -3661.263          46.000  
R 4  17235504.963    92295308.769       -1925.345          45.000  
E 7  24567813.269   129104740.514       -1269.231          43.000  
E 8  25346930.403   133199026.173       -3206.242          44.000  
E16  21142522.499   111104714.600       -1202.164          43.000  
E24  22228975.944   116814067.292       -1040.972          43.000  
E15  22236422.973   116853201.019        1268.469          43.000  
E17  23576304.180   123894315.743       -3176.624          44.000  
E22  25380601.211   133375967.739        2722.537          43.000  
E25  24883867.722   130765618.049       -3111.021          44.000  
E23  22447810.120   117964028.489        1520.133          43.000  
E 6  25471255.378   133852360.364        1031.584          43.000  
> 2019 12  1 15 20 40.9920000  0 23                     
G 2  21523640.472   113107495.286        2488.361          46.000  
G 4  19323087.934   101543512.575          11.752          46.000  
G10  20526673.267   107868394.519        2742.267          46.000  
G13  19095003.698   100344923.282        2022.502          46.000  
G20  19311687.812   101483601.748       -3265.848          46.000  
G23  18124685.979    95245866.211         121.588          46.000  
G31  21060012.292   110671109.254       -3197.325          49.000  
G32  21557573.649   113285813.890       -3848.053          46.000  
R14  18037536.269    96150162.826        1655.317          44.000  
R13  18701443.360    99864595.015       -2563.880          49.000  
R 5  18084572.674    96672358.330        2085.318          46.000  
R20  19820005.538   105986443.788       -3600.450          46.000  
R 4  17235867.007    92297246.257       -1950.931          45.000  
E 7  24568048.260   129105974.189       -1202.178          43.000  
E 8  25347534.063   133202200.535       -3137.698          44.000  
E16  21142752.836   111105924.467       -1214.901          43.000  
E24  22229177.867   116815125.743       -1080.729          44.000  
E15  22236177.333   116851908.974        1317.773          43.000  
E17  23576914.927   123897525.034       -3240.053          44.000  
E22  25380086.543   133373261.837        2700.858          43.000  
E25  24884460.261   130768731.642       -3127.371          43.000  
E23  22447525.442   117962531.845        1478.333          44.000  
E 6  25471055.039   133851308.049        1062.624          44.000  
> 2019 12  1 15 20 41.9920000  0 23                     
G 2  21523164.629   113104995.531        2499.756          46.000  
G 4  19323081.460   101543479.132          49.459          46.000  
G10  20526146.421   107865626.083        2786.784          46.000  
G13  19094614.262   100342877.016        2071.472          46.000  
G20  19312311.380   101486878.323       -3279.107          46.000  
G23  18124661.898    95245740.394         132.471          46.000  
G31  21060626.806   110674338.835       -3263.988          49.000  
G32  21558310.177   113289684.827       -3883.417          46.000  
R14  18037228.142    96148520.703        1636.477          44.000  
R13  18701928.873    99867186.154       -2620.709          49.000  
R 5  18084179.167    96670255.450        2114.137          46.000  
R20  19820672.869   105990011.928       -3541.005          46.000  
R 4  17236233.514    92299209.076       -1971.932          45.000  
E 7  24568274.125   129107164.026       -1188.468          44.000  
E 8  25348124.591   133205304.197       -3076.173          44.000  
E16  21142983.805   111107137.881       -1208.742          43.000  
E24  22229388.199   116816231.376       -1128.082          43.000  
E15  22235922.651   116850571.057        1352.692          43.000  
E17  23577535.011   123900782.501       -3264.959          43.000  
E22  25379568.734   133370541.882        2748.480          43.000  
E25  24885061.696   130771891.569       -3196.210          43.000  
E23  22447244.515   117961055.650        1482.239          44.000  
E 6  25470855.574   133850260.878        1021.833          44.000  
> 2019 12  1 15 20 42.9920000  0 23                     
G 2  21522693.512   113102518.952        2446.698          46.000  
G 4  19323072.757   101543431.674          37.805          46.000  
G10  20525617.071   107862843.834        2768.320          46.000  
G13  19094216.504   100340786.497        2104.619          46.000  
G20  19312932.331   101490142.994       -3243.228          46.000  
G23  18124635.155    95245599.683         149.534          46.000  
G31  21061253.402   110677631.838       -3313.318          49.000  
G32  21559047.357   113293558.064       -3852.185          46.000  
R14  18036919.203    96146874.090        1663.861          44.000  
R13  18702424.489    99869831.402       -2662.785          49.000  
R 5  18083784.605    96668146.891        2096.438          46.000  
R20  19821333.849   105993546.180       -3537.641          46.000  
R 4  17236601.635    92301181.834       -1968.387          45.000  
E 7  24568504.704   129108374.766       -1240.081          43.000  
E 8  25348709.390   133208375.617       -3077.816          44.000  
E16  21143211.689   111108337.623       -1189.012          43.000  
E24  22229604.963   116817368.824       -1138.533          43.000  
E15  22235665.223   116849220.233        1341.908          43.000  
E17  23578153.414   123904033.371       -3227.398          43.000  
E22  25379038.187   133367756.364        2821.975          44.000  
E25  24885676.380   130775120.597       -3253.840          44.000  
E23  22446958.026   117959552.021        1529.464          44.000  
E 6  25470668.447   133849276.932         946.666          44.000  
> 2019 12  1 15 20 43.9920000  0 23                     
G 2  21522234.609   113100108.385        2377.905          46.000  
G 4  19323070.248   101543417.568         -12.767          46.000  
G10  20525096.262   107860106.258        2704.001          46.000  
G13  19093816.368   100338684.579        2091.547          46.000  
G20  19313544.589   101493359.728       -3191.716          46.000  
G23  18124605.835    95245444.972         157.466          46.000  
G31  21061883.438   110680943.950       -3300.183          49.000  
G32  21559773.901   113297376.139       -3783.191          46.000  
R14  18036602.539    96145185.820        1711.844          44.000  
R13  18702922.785    99872493.383       -2652.059          49.000  
R 5  18083396.804    96666073.574        2048.768          46.000  
R20  19822000.220   105997108.505       -3593.595          46.000  
R 4  17236967.012    92303139.212       -1944.210          45.000  
E 7  24568747.641   129109651.080       -1309.849          43.000  
E 8  25349300.496   133211481.818       -3141.010          43.000  
E16  21143436.531   111109518.063       -1174.003          43.000  
E24  22229818.445   116818492.641       -1103.367          44.000  
E15  22235414.208   116847900.280        1295.285          43.000  
E17  23578761.651   123907227.823       -3161.999          43.000  
E22  25378496.970   133364912.764        2854.360          43.000  
E25  24886296.244   130778376.833       -3246.949          44.000  
E23  22446662.147   117957997.392        1575.799          44.000  
E 6  25470493.207   133848355.223         906.509          43.000  
> 2019 12  1 15 20 44.9920000  0 23                     
G 2  21521785.584   113097747.878        2354.755          46.000  
G 4  19323077.682   101543455.725         -57.952          46.000  
G10  20524587.438   107857432.577        2651.190          46.000  
G13  19093422.999   100336616.553        2042.526          46.000  
G20  19314149.509   101496538.462       -3173.306          46.000  
G23  18124576.708    95245292.100         146.573          46.000  
G31  21062505.963   110684215.226       -3238.240          49.000  
G32  21560489.028   113301133.990       -3741.248          46.000  
R14  18036278.942    96143459.348        1734.260          44.000  
R13  18703414.815    99875121.672       -2600.400          49.000  
R 5  18083017.742    96664046.047        2012.780          46.000  
R20  19822679.230   106000737.228       -3659.708          46.000  
R 4  17237327.978    92305072.187       -1923.413          45.000  
E 7  24569000.451   129110979.380       -1335.531          43.000  
E 8  25349905.170   133214659.621       -3209.278          43.000  
E16  21143660.155   111110693.198       -1179.094          43.000  
E24  22230023.760   116819571.847       -1056.198          43.000  
E15  22235172.108   116846628.382        1253.921          44.000  
E17  23579359.307   123910369.606       -3130.297          44.000  
E22  25377957.161   133362073.590        2814.130          43.000  
E25  24886908.132   130781595.190       -3183.958          44.000  
E23  22446360.845   117956416.935        1577.274          44.000  
E 6  25470319.172   133847439.534         936.054          44.000  
> 2019 12  1 15 20 45.9920000  0 23                     
G 2  21521333.883   113095374.588        2400.793          46.000  
G 4  19323089.234   101543516.451         -54.434          46.000  
G10  20524083.210   107854782.318        2660.595          46.000  
G13  19093038.559   100334595.725        2004.446          46.000  
G20  19314755.497   101499723.250       -3203.062          46.000  
G23  18124550.188    95245154.467         129.150          46.000  
G31  21063116.383   110687422.454       -3182.524          49.000  
G32  21561202.025   113304880.885       -3762.823          46.000  
R14  18035955.293    96141732.771        1712.302          44.000  
R13  18703897.139    99877696.327       -2553.687          49.000  
R 5  18082640.961    96662031.931        2023.572          46.000  
R20  19823365.866   106004409.022       -3672.948          46.000  
R 4  17237687.073    92306993.491       -1923.191          45.000  
E 7  24569251.115   129112297.528       -1291.573          44.000  
E 8  25350517.946   133217879.039       -3217.756          43.000  
E16  21143886.483   111111881.043       -1197.709          43.000  
E24  22230222.125   116820615.730       -1038.616          43.000  
E15  22234934.227   116845376.582        1257.978          43.000  
E17  23579956.838   123913509.904       -3159.546          43.000  
E22  25377428.692   133359296.104        2740.854          43.000  
E25  24887507.449   130784744.361       -3120.010          43.000  
E23  22446064.854   117954858.709        1534.709          44.000  
E 6  25470133.606   133846467.267        1010.537          44.000  
> 2019 12  1 15 20 46.9920000  0 23                     
G 2  21520870.305   113092937.863        2470.819          46.000  
G 4  19323095.224   101543550.013          -8.426          46.000  
G10  20523571.157   107852093.808        2720.930          46.000  
G13  19092657.279   100332592.464        2009.783          46.000  
G20  19315370.311   101502953.033       -3256.360          46.000  
G23  18124526.883    95245032.063         118.096          46.000  
G31  21063721.340   110690601.765       -3187.150          49.000  
G32  21561924.560   113308676.392       -3830.591          46.000  
R14  18035638.702    96140045.107        1662.572          44.000  
R13  18704374.708    99880247.543       -2557.987          49.000  
R 5  18082258.169    96659987.021        2068.662          46.000  
R20  19824048.592   106008061.617       -3624.564          46.000  
R 4  17238048.362    92308927.266       -1946.860          45.000  
E 7  24569490.185   129113553.216       -1220.766          44.000  
E 8  25351125.309   133221072.105       -3160.864          44.000  
E16  21144116.173   111113088.331       -1215.087          43.000  
E24  22230422.314   116821666.523       -1069.359          43.000  
E15  22234690.751   116844098.743        1301.541          43.000  
E17  23580564.284   123916701.434       -3224.744          44.000  
E22  25376911.764   133356580.997        2699.295          44.000  
E25  24888099.742   130787856.964       -3116.890          44.000  
E23  22445777.757   117953350.733        1484.441          44.000  
E 6  25469936.260   133845428.325        1058.341          44.000  
> 2019 12  1 15 20 47.9920000  0 23                     
G 2  21520396.453   113090447.088        2500.616          46.000  
G 4  19323092.081   101543533.681          37.621          46.000  
G10  20523047.515   107849342.199        2776.878          46.000  
G13  19092271.079   100330562.817        2053.344          46.000  
G20  19315993.197   101506227.150       -3284.230          46.000  
G23  18124504.185    95244912.779         123.542          46.000  
G31  21064333.372   110693816.749       -3247.650          49.000  
G32  21562659.179   113312536.921       -3882.025          46.000  
R14  18035330.030    96138401.764        1630.687          44.000  
R13  18704858.228    99882829.231       -2609.765          49.000  
R 5  18081867.018    96657897.299        2106.194          46.000  
R20  19824720.151   106011652.405       -3558.876          46.000  
R 4  17238414.577    92310888.163       -1972.632          45.000  
E 7  24569718.628   129114753.460       -1189.115          44.000  
E 8  25351720.008   133224196.740       -3091.304          43.000  
E16  21144347.681   111114305.707       -1215.794          43.000  
E24  22230630.670   116822761.977       -1120.625          43.000  
E15  22234438.741   116842774.380        1343.918          43.000  
E17  23581182.637   123919951.470       -3266.529          44.000  
E22  25376396.496   133353873.030        2728.222          44.000  
E25  24888698.313   130791000.852       -3177.190          43.000  
E23  22445497.463   117951876.587        1472.695          44.000  
E 6  25469735.759   133844375.669        1035.991          44.000  
> 2019 12  1 15 20 48.9920000  0 23                     
G 2  21519923.321   113087960.540        2463.190          46.000  
G 4  19323083.862   101543490.087          41.281          46.000  
G10  20522518.089   107846559.770        2777.458          46.000  
G13  19091875.823   100328486.320        2095.658          46.000  
G20  19316616.756   101509503.404       -3260.446          46.000  
G23  18124479.089    95244781.014         140.649          46.000  
G31  21064957.697   110697097.446       -3308.104          49.000  
G32  21563397.724   113316418.108       -3869.092          46.000  
R14  18035023.783    96136767.003        1646.219          44.000  
R13  18705352.134    99885466.890       -2661.285          49.000  
R 5  18081472.787    96655789.189        2102.309          46.000  
R20  19825382.648   106015195.010       -3536.313          46.000  
R 4  17238783.972    92312865.332       -1977.039          45.000  
E 7  24569947.492   129115955.468       -1224.577          44.000  
E 8  25352305.332   133227272.786       -3071.993          43.000  
E16  21144577.485   111115513.673       -1198.397          43.000  
E24  22230846.963   116823898.037       -1144.593          43.000  
E15  22234181.536   116841424.801        1347.290          43.000  
E17  23581803.278   123923212.428       -3245.424          44.000  
E22  25375870.540   133351109.335        2801.520          44.000  
E25  24889309.690   130794214.166       -3244.915          43.000  
E23  22445214.261   117950387.935        1510.622          44.000  
E 6  25469545.359   133843374.142         963.914          44.000  
> 2019 12  1 15 20 49.9920000  0 23                     
G 2  21519461.490   113085533.572        2391.602          46.000  
G 4  19323079.892   101543468.160          -2.311          46.000  
G10  20521994.796   107843808.009        2720.779          46.000  
G13  19091476.388   100326386.625        2096.277          46.000  
G20  19317232.208   101512738.596       -3208.516          46.000  
G23  18124451.433    95244633.743         152.344          46.000  
G31  21065589.004   110700414.523       -3314.500          49.000  
G32  21564128.225   113320257.359       -3805.157          46.000  
R14  18034711.049    96135098.625        1692.531          44.000  
R13  18705852.048    99888135.971       -2667.159          49.000  
R 5  18081083.232    96653707.085        2058.867          46.000  
R20  19826047.100   106018748.580       -3579.043          46.000  
R 4  17239151.831    92314834.089       -1957.368          45.000  
E 7  24570187.387   129117215.970       -1296.669          43.000  
E 8  25352894.146   133230365.637       -3122.033          44.000  
E16  21144803.708   111116702.339       -1180.048          43.000  
E24  22231063.468   116825034.407       -1120.691          43.000  
E15  22233928.577   116840095.403        1307.304          43.000  
E17  23582414.775   123926427.508       -3181.992          44.000  
E22  25375331.760   133348278.925        2851.065          44.000  
E25  24889929.884   130797472.074       -3258.966          44.000  
E23  22444921.383   117948850.753        1562.310          44.000  
E 6  25469368.312   133842442.561         907.490          44.000  
> 2019 12  1 15 20 50.9920000  0 23                     
G 2  21519011.100   113083166.479        2351.917          46.000  
G 4  19323085.397   101543496.927         -52.941          46.000  
G10  20521483.079   107841119.812        2659.669          46.000  
G13  19091080.798   100324308.457        2055.088          46.000  
G20  19317838.625   101515927.034       -3175.543          46.000  
G23  18124422.367    95244482.082         147.869          46.000  
G31  21066215.083   110703704.954       -3260.447          49.000  
G32  21564845.957   113324030.142       -3747.943          46.000  
R14  18034389.463    96133385.435        1727.375          44.000  
R13  18706347.735    99890783.147       -2621.966          49.000  
R 5  18080702.639    96651671.220        2016.337          46.000  
R20  19826722.790   106022362.131       -3647.727          46.000  
R 4  17239514.621    92316777.427       -1931.387          45.000  
E 7  24570439.058   129118537.694       -1338.213          43.000  
E 8  25353495.358   133233524.827       -3195.036          43.000  
E16  21145027.500   111117879.291       -1177.609          44.000  
E24  22231272.089   116826130.313       -1070.861          43.000  
E15  22233684.780   116838812.640        1260.655          43.000  
E17  23583014.799   123929581.611       -3134.122          43.000  
E22  25374790.130   133345431.613        2831.655          44.000  
E25  24890545.820   130800708.352       -3206.248          44.000  
E23  22444621.841   117947275.360        1580.122          44.000  
E 6  25469195.572   133841535.255         918.469          44.000  
> 2019 12  1 15 20 51.9920000  0 23                     
G 2  21518561.490   113080806.457        2378.796          46.000  
G 4  19323097.228   101543561.079         -66.637          46.000  
G10  20520979.012   107838471.538        2647.983          46.000  
G13  19090694.661   100322278.749        2007.793          46.000  
G20  19318443.849   101519107.979       -3194.104          46.000  
G23  18124395.845    95244343.258         129.246          46.000  
G31  21066829.266   110706932.205       -3197.803          49.000  
G32  21565558.567   113327774.816       -3752.362          46.000  
R14  18034065.892    96131659.841        1716.372          44.000  
R13  18706833.265    99893377.642       -2569.559          49.000  
R 5  18080326.600    96649661.418        2011.674          46.000  
R20  19827409.299   106026031.826       -3681.460          46.000  
R 4  17239874.414    92318703.954       -1925.637          45.000  
E 7  24570692.357   129119869.193       -1313.600          43.000  
E 8  25354107.283   133236740.730       -3225.714          43.000  
E16  21145252.928   111119064.810       -1195.179          43.000  
E24  22231472.608   116827184.200       -1042.836          43.000  
E15  22233446.384   116837561.915        1248.867          43.000  
E17  23583611.363   123932717.479       -3147.477          43.000  
E22  25374257.966   133342634.369        2759.725          43.000  
E25  24891148.884   130803878.429       -3136.562          44.000  
E23  22444323.846   117945709.123        1546.206          43.000  
E 6  25469014.766   133840586.199         985.082          44.000  
> 2019 12  1 15 20 52.9920000  0 23                     
G 2  21518102.148   113078393.218        2449.005          46.000  
G 4  19323106.717   101543612.048         -29.191          46.000  
G10  20520470.788   107835801.693        2698.678          46.000  
G13  19090313.917   100320278.912        1999.716          46.000  
G20  19319056.336   101522326.616       -3245.230          46.000  
G23  18124372.911    95244221.849         115.292          46.000  
G31  21067434.934   110710116.870       -3182.516          49.000  
G32  21566277.898   113331554.378       -3812.164          46.000  
R14  18033747.853    96129964.974        1670.560          44.000  
R13  18707312.540    99895936.406       -2556.957          48.000  
R 5  18079947.263    96647632.523        2050.644          46.000  
R20  19828095.852   106029701.352       -3647.849          46.000  
R 4  17240235.420    92320636.841       -1943.563          44.000  
E 7  24570935.438   129121149.105       -1243.764          43.000  
E 8  25354717.707   133239950.446       -3183.990          43.000  
E16  21145482.453   111120270.293       -1214.925          43.000  
E24  22231671.542   116828232.207       -1060.668          43.000  
E15  22233205.785   116836298.088        1284.278          43.000  
E17  23584215.766   123935893.469       -3208.193          43.000  
E22  25373738.577   133339906.882        2702.783          43.000  
E25  24891741.766   130806997.513       -3112.623          43.000  
E23  22444034.740   117944189.998        1492.942          44.000  
E 6  25468820.789   133839566.824        1047.427          43.000  
> 2019 12  1 15 20 53.9920000  0 23                     
G 2  21517630.672   113075915.985        2496.350          46.000  
G 4  19323107.302   101543614.319          22.686          46.000  
G10  20519950.728   107833069.199        2763.173          46.000  
G13  19089930.287   100318263.578        2036.200          46.000  
G20  19319678.203   101525594.124       -3284.031          46.000  
G23  18124350.874    95244107.212         116.687          46.000  
G31  21068044.311   110713319.357       -3230.493          49.000  
G32  21567009.398   113335400.163       -3874.048          46.000  
R14  18033438.395    96128316.784        1630.379          44.000  
R13  18707794.633    99898510.341       -2597.800          48.000  
R 5  18079558.917    96645557.707        2095.821          46.000  
R20  19828771.625   106033315.484       -3579.738          46.000  
R 4  17240601.377    92322594.365       -1970.970          44.000  
E 7  24571167.033   129122364.213       -1194.603          43.000  
E 8  25355316.483   133243097.261       -3109.712          43.000  
E16  21145714.642   111121489.394       -1220.279          43.000  
E24  22231877.978   116829316.611       -1109.928          43.000  
E15  22232956.611   116834988.597        1332.694          43.000  
E17  23584832.269   123939131.442       -3261.856          43.000  
E22  25373224.767   133337204.940        2712.590          43.000  
E25  24892337.848   130810128.149       -3157.814          43.000  
E23  22443753.976   117942713.209        1467.925          43.000  
E 6  25468620.086   133838513.834        1046.586          43.000  
> 2019 12  1 15 20 54.9920000  0 23                     
G 2  21517156.305   113073423.297        2477.960          46.000  
G 4  19323100.143   101543577.862          42.085          46.000  
G10  20519422.154   107830290.928        2783.062          46.000  
G13  19089537.780   100316202.139        2084.677          46.000  
G20  19320302.818   101528877.226       -3273.855          46.000  
G23  18124327.285    95243983.110         132.745          46.000  
G31  21068665.674   110716584.197       -3296.820          49.000  
G32  21567748.310   113339282.906       -3880.371          46.000  
R14  18033133.601    96126689.199        1632.662          44.000  
R13  18708286.781    99901137.253       -2654.352          48.000  
R 5  18079165.240    96643452.899        2106.144          46.000  
R20  19829436.460   106036870.587       -3539.205          46.000  
R 4  17240971.003    92324572.777       -1981.746          44.000  
E 7  24571394.863   129123561.448       -1210.775          43.000  
E 8  25355903.672   133246182.644       -3070.878          43.000  
E16  21145945.914   111122703.735       -1205.781          43.000  
E24  22232093.174   116830446.769       -1144.672          43.000  
E15  22232700.553   116833643.208        1350.609          43.000  
E17  23585453.894   123942396.586       -3258.107          43.000  
E22  25372702.366   133334461.127        2780.240          44.000  
E25  24892946.058   130813322.614       -3229.850          43.000  
E23  22443472.893   117941235.557        1494.817          43.000  
E 6  25468426.513   133837495.379         983.836          43.000  
> 2019 12  1 15 20 55.9920000  0 23                     
G 2  21516691.183   113070977.902        2409.851          46.000  
G 4  19323094.744   101543548.595           9.507          46.000  
G10  20518895.960   107827525.789        2739.057          46.000  
G13  19089138.940   100314106.480        2099.232          46.000  
G20  19320921.775   101532128.348       -3225.049          46.000  
G23  18124300.543    95243842.195         147.580          46.000  
G31  21069296.497   110719898.703       -3321.751          49.000  
G32  21568482.186   113343139.151       -3825.720          46.000  
R14  18032823.834    96125037.635        1674.050          44.000  
R13  18708786.612    99903806.687       -2675.981          48.000  
R 5  18078773.814    96641361.677        2071.072          46.000  
R20  19830099.778   106040417.559       -3564.946          46.000  
R 4  17241340.041    92326549.377       -1967.537          44.000  
E 7  24571631.482   129124804.299       -1278.782          43.000  
E 8  25356490.147   133249264.385       -3103.462          43.000  
E16  21146173.078   111123899.277       -1185.687          43.000  
E24  22232310.563   116831590.105       -1134.148          43.000  
E15  22232445.944   116832304.637        1320.196          43.000  
E17  23586068.626   123945628.959       -3201.682          43.000  
E22  25372166.775   133331646.157        2843.511          43.000  
E25  24893564.799   130816574.400       -3263.549          43.000  
E23  22443183.084   117939714.649        1547.751          43.000  
E 6  25468246.424   133836547.899         916.062          44.000  
> 2019 12  1 15 20 56.9920000  0 23                     
G 2  21516238.949   113068600.232        2353.961          46.000  
G 4  19323098.238   101543567.228         -45.496          46.000  
G10  20518381.355   107824821.646        2671.600          46.000  
G13  19088742.189   100312021.126        2066.069          46.000  
G20  19321531.085   101535330.493       -3183.171          46.000  
G23  18124272.191    95243693.850         147.194          46.000  
G31  21069925.617   110723205.695       -3282.717          49.000  
G32  21569203.558   113346930.782       -3760.913          46.000  
R14  18032505.694    96123341.122        1715.919          44.000  
R13  18709285.457    99906470.664       -2643.572          48.000  
R 5  18078391.536    96639316.357        2022.404          46.000  
R20  19830772.946   106044016.176       -3633.756          46.000  
R 4  17241704.706    92328504.462       -1941.848          44.000  
E 7  24571880.876   129126115.570       -1336.250          43.000  
E 8  25357087.732   133252404.714       -3178.323          43.000  
E16  21146397.704   111125080.405       -1178.760          43.000  
E24  22232522.365   116832703.148       -1088.220          43.000  
E15  22232199.913   116831010.324        1269.842          43.000  
E17  23586672.157   123948799.655       -3144.082          44.000  
E22  25371624.394   133328797.100        2843.617          43.000  
E25  24894183.407   130819825.296       -3227.775          43.000  
E23  22442885.043   117938149.023        1577.567          43.000  
E 6  25468074.450   133835643.821         904.679          43.000  
> 2019 12  1 15 20 57.9920000  0 23                     
G 2  21515791.329   113066247.397        2362.946          46.000  
G 4  19323109.821   101543629.721         -72.048          46.000  
G10  20517876.521   107822169.175        2643.371          46.000  
G13  19088353.634   100309980.118        2016.603          46.000  
G20  19322136.075   101538510.657       -3185.629          46.000  
G23  18124245.378    95243553.422         132.308          46.000  
G31  21070543.651   110726453.928       -3214.770          49.000  
G32  21569916.417   113350677.841       -3744.324          46.000  
R14  18032182.573    96121619.378        1719.809          44.000  
R13  18709775.001    99909085.573       -2586.677          48.000  
R 5  18078015.702    96637306.064        2005.575          46.000  
R20  19831457.200   106047677.940       -3681.899          46.000  
R 4  17242065.769    92330437.280       -1927.459          44.000  
E 7  24572135.658   129127454.254       -1330.033          43.000  
E 8  25357697.897   133255610.779       -3225.212          43.000  
E16  21146622.771   111126263.723       -1190.439          43.000  
E24  22232725.145   116833769.359       -1048.843          43.000  
E15  22231961.074   116829755.935        1246.054          43.000  
E17  23587268.784   123951935.341       -3138.021          43.000  
E22  25371088.910   133325980.963        2782.124          43.000  
E25  24894790.818   130823016.774       -3155.021          43.000  
E23  22442586.057   117936577.253        1558.008          43.000  
E 6  25467897.391   133834714.652         961.381          43.000  
> 2019 12  1 15 20 58.9920000  0 23                     
G 2  21515335.722   113063855.037        2426.660          46.000  
G 4  19323122.298   101543693.332         -47.312          46.000  
G10  20517371.060   107819512.786        2678.881          46.000  
G13  19087972.783   100307978.111        1994.685          46.000  
G20  19322746.501   101541717.424       -3231.944          46.000  
G23  18124222.037    95243430.426         115.148          46.000  
G31  21071151.661   110729647.527       -3181.977          49.000  
G32  21570633.117   113354442.484       -3792.560          46.000  
R14  18031863.195    96119917.003        1680.617          43.000  
R13  18710256.265    99911654.586       -2559.066          48.000  
R 5  18077638.272    96635289.097        2034.569          46.000  
R20  19832145.205   106051357.845       -3666.886          46.000  
R 4  17242426.369    92332369.101       -1940.012          44.000  
E 7  24572383.215   129128755.552       -1267.041          44.000  
E 8  25358310.504   133258830.545       -3202.830          43.000  
E16  21146851.794   111127465.146       -1211.725          43.000  
E24  22232924.261   116834816.593       -1053.281          43.000  
E15  22231722.661   116828501.613        1269.785          44.000  
E17  23587870.607   123955095.949       -3189.562          44.000  
E22  25370566.403   133323235.588        2713.753          43.000  
E25  24895385.845   130826146.097       -3112.963          43.000  
E23  22442294.479   117935044.913        1505.232          44.000  
E 6  25467707.350   133833716.362        1032.241          43.000  
> 2019 12  1 15 20 59.9920000  0 23                     
G 2  21514867.635   113061394.937        2487.006          46.000  
G 4  19323126.137   101543714.430           5.843          46.000  
G10  20516854.723   107816800.224        2746.145          46.000  
G13  19087591.476   100305973.794        2020.696          46.000  
G20  19323366.531   101544974.789       -3279.130          46.000  
G23  18124200.824    95243318.377         111.666          46.000  
G31  21071759.487   110732840.752       -3214.166          49.000  
G32  21571361.650   113358270.359       -3860.718          46.000  
R14  18031552.546    96118261.116        1633.940          44.000  
R13  18710737.415    99914223.428       -2586.763          49.000  
R 5  18077252.696    96633229.912        2082.934          46.000  
R20  19832824.996   106054994.371       -3602.467          46.000  
R 4  17242791.188    92334322.238       -1967.171          45.000  
E 7  24572618.130   129129989.011       -1205.522          44.000  
E 8  25358913.653   133261999.048       -3130.757          44.000  
E16  21147083.812   111128683.769       -1222.496          43.000  
E24  22233128.926   116835890.143       -1097.522          43.000  
E15  22231476.165   116827207.213        1319.392          43.000  
E17  23588483.996   123958318.215       -3251.337          43.000  
E22  25370052.328   133320533.237        2702.459          44.000  
E25  24895980.040   130829267.392       -3140.246          44.000  
E23  22442012.174   117933561.113        1468.457          44.000  
E 6  25467507.508   133832668.334        1052.454          44.000  
> 2019 12  1 15 21  0.9920000  0 23                     
G 2  21514393.305   113058902.335        2487.128          46.000  
G 4  19323121.541   101543689.920          36.749          46.000  
G10  20516328.121   107814031.987        2781.587          46.000  
G13  19087202.565   100303929.196        2069.347          46.000  
G20  19323992.032   101548261.405       -3285.258          46.000  
G23  18124179.004    95243202.054         123.233          46.000  
G31  21072377.632   110736089.400       -3283.316          49.000  
G32  21572099.995   113362149.933       -3887.347          46.000  
R14  18031247.939    96116637.593        1621.201          44.000  
R13  18711227.274    99916839.434       -2645.757          49.000  
R 5  18076860.310    96631132.950        2104.385          46.000  
R20  19833493.235   106058567.185       -3549.476          46.000  
R 4  17243160.552    92336300.724       -1985.910          45.000  
E 7  24572845.945   129131187.760       -1203.048          44.000  
E 8  25359503.586   133265099.554       -3077.440          44.000  
E16  21147316.087   111129904.055       -1214.435          43.000  
E24  22233342.606   116837012.322       -1142.280          43.000  
E15  22231221.438   116825870.494        1348.010          43.000  
E17  23589104.988   123961583.154       -3267.862          43.000  
E22  25369533.435   133317807.542        2757.092          44.000  
E25  24896584.354   130832443.204       -3212.962          43.000  
E23  22441732.816   117932091.561        1479.368          44.000  
E 6  25467311.332   133831636.902        1001.760          44.000  
> 2019 12  1 15 21  1.9920000  0 23                     
G 2  21513925.234   113056441.839        2427.795          45.000  
G 4  19323115.789   101543658.392          17.850          46.000  
G10  20515800.756   107811259.154        2753.885          46.000  
G13  19086805.891   100301842.966        2096.472          45.000  
G20  19324613.890   101551528.538       -3243.837          45.000  
G23  18124153.728    95243069.824         140.092          46.000  
G31  21073007.378   110739397.888       -3324.860          49.000  
G32  21572836.687   113366021.417       -3846.753          45.000  
R14  18030941.326    96115002.534        1654.271          44.000  
R13  18711726.537    99919506.583       -2681.520          49.000  
R 5  18076468.108    96629036.989        2080.581          46.000  
R20  19834156.723   106062114.320       -3556.004          46.000  
R 4  17243530.789    92338285.055       -1978.479          45.000  
E 7  24573080.343   129132416.471       -1261.389          42.000  
E 8  25360088.738   133268177.114       -3089.635          43.000  
E16  21147544.999   111131108.391       -1193.943          42.000  
E24  22233561.043   116838160.360       -1145.770          42.000  
E15  22230966.061   116824527.511        1330.380          42.000  
E17  23589722.880   123964831.838       -3222.436          42.000  
E22  25369001.857   133315012.761        2828.886          42.000  
E25  24897201.507   130835685.317       -3263.020          43.000  
E23  22441446.922   117930588.304        1529.688          43.000  
E 6  25467128.127   133830672.652         928.182          43.000  
> 2019 12  1 15 21  2.9920000  0 23                     
G 2  21513470.219   113054049.314        2362.531          46.000  
G 4  19323117.575   101543665.994         -34.959          46.000  
G10  20515282.589   107808537.716        2687.462          46.000  
G13  19086407.959   100299752.817        2076.431          46.000  
G20  19325225.926   101554746.192       -3194.067          46.000  
G23  18124126.252    95242925.611         145.599          46.000  
G31  21073638.611   110742716.441       -3301.862          49.000  
G32  21573561.900   113369833.099       -3777.405          46.000  
R14  18030626.367    96113323.849        1701.488          44.000  
R13  18712227.568    99922183.008       -2662.511          49.000  
R 5  18076083.793    96626980.743        2031.828          46.000  
R20  19834827.051   106065698.429       -3617.328          46.000  
R 4  17243897.606    92340251.290       -1952.655          45.000  
E 7  24573326.925   129133713.154       -1327.846          43.000  
E 8  25360682.902   133271298.634       -3158.044          43.000  
E16  21147770.875   111132294.618       -1180.876          43.000  
E24  22233775.757   116839288.566       -1105.715          43.000  
E15  22230717.406   116823220.762        1281.797          43.000  
E17  23590329.531   123968020.914       -3157.897          43.000  
E22  25368460.081   133312167.192        2850.966          43.000  
E25  24897821.849   130838945.231       -3245.458          43.000  
E23  22441150.786   117929035.231        1571.236          43.000  
E 6  25466955.629   133829765.312         897.371          43.000  
> 2019 12  1 15 21  3.9920000  0 23                     
G 2  21513022.857   113051699.061        2350.201          46.000  
G 4  19323128.573   101543724.077         -74.464          46.000  
G10  20514776.448   107805877.242        2642.351          46.000  
G13  19086017.794   100297701.057        2026.240          46.000  
G20  19325831.880   101557930.753       -3182.661          46.000  
G23  18124099.678    95242785.411         133.341          46.000  
G31  21074260.805   110745986.996       -3236.512          49.000  
G32  21574276.384   113373588.891       -3743.463          46.000  
R14  18030304.886    96111610.874        1717.827          44.000  
R13  18712721.174    99924819.637       -2607.674          49.000  
R 5  18075707.305    96624967.398        2001.978          46.000  
R20  19835509.865   106069349.355       -3678.428          46.000  
R 4  17244260.526    92342193.288       -1933.380          45.000  
E 7  24573582.636   129135054.359       -1342.762          43.000  
E 8  25361290.373   133274491.330       -3220.193          43.000  
E16  21147996.057   111133478.109       -1188.481          43.000  
E24  22233981.735   116840370.499       -1060.333          43.000  
E15  22230477.675   116821960.240        1245.846          43.000  
E17  23590927.325   123971162.557       -3134.574          43.000  
E22  25367921.410   133309336.437        2802.251          43.000  
E25  24898433.464   130842158.849       -3177.345          43.000  
E23  22440851.375   117927462.873        1565.608          43.000  
E 6  25466781.707   133828853.165         937.479          43.000  
> 2019 12  1 15 21  4.9920000  0 23                     
G 2  21512571.097   113049326.238        2402.832          46.000  
G 4  19323142.124   101543797.630         -64.037          46.000  
G10  20514272.922   107803230.864        2660.826          46.000  
G13  19085635.832   100295694.428        1992.888          46.000  
G20  19326440.418   101561128.812       -3219.660          46.000  
G23  18124076.199    95242661.378         115.249          46.000  
G31  21074871.587   110749195.359       -3188.159          49.000  
G32  21574991.049   113377343.671       -3775.720          46.000  
R14  18029984.875    96109904.568        1688.493          44.000  
R13  18713205.147    99927404.113       -2567.445          49.000  
R 5  18075331.689    96622960.480        2019.020          46.000  
R20  19836199.061   106073035.480       -3682.744          46.000  
R 4  17244621.528    92344127.140       -1938.434          45.000  
E 7  24573833.590   129136375.501       -1291.434          43.000  
E 8  25361904.370   133277716.603       -3218.370          43.000  
E16  21148224.203   111134676.468       -1208.965          43.000  
E24  22234181.575   116841422.026       -1050.602          43.000  
E15  22230240.402   116820713.040        1256.455          43.000  
E17  23591527.375   123974312.085       -3172.887          43.000  
E22  25367395.120   133306571.884        2728.457          43.000  
E25  24899031.555   130845304.216       -3120.525          43.000  
E23  22440557.733   117925919.235        1517.790          43.000  
E 6  25466596.641   133827878.772        1011.355          43.000  
> 2019 12  1 15 21  5.9920000  0 23                     
G 2  21512106.901   113046887.221        2471.942          46.000  
G 4  19323150.031   101543838.177         -13.569          46.000  
G10  20513760.745   107800539.163        2725.836          46.000  
G13  19085255.978   100293698.725        2006.699          46.000  
G20  19327058.044   101564375.040       -3270.967          46.000  
G23  18124054.960    95242551.461         107.699          46.000  
G31  21075478.538   110752385.051       -3201.637          49.000  
G32  21575716.280   113381153.506       -3844.208          46.000  
R14  18029672.634    96108240.648        1640.360          44.000  
R13  18713686.284    99929972.862       -2578.875          49.000  
R 5  18074949.660    96620918.174        2067.207          46.000  
R20  19836882.931   106076693.530       -3626.514          46.000  
R 4  17244985.784    92346077.097       -1962.893          45.000  
E 7  24574072.451   129137631.079       -1221.809          43.000  
E 8  25362510.778   133280906.262       -3154.211          43.000  
E16  21148455.870   111135894.125       -1223.768          43.000  
E24  22234384.488   116842487.555       -1085.837          43.000  
E15  22229996.745   116819434.397        1303.865          43.000  
E17  23592137.430   123977517.883       -3237.606          43.000  
E22  25366880.188   133303864.258        2697.651          43.000  
E25  24899624.980   130848422.490       -3127.201          43.000  
E23  22440274.008   117924426.354        1472.330          43.000  
E 6  25466399.131   133826842.353        1051.645          43.000  
> 2019 12  1 15 21  6.9920000  0 23                     
G 2  21511633.819   113044399.398        2492.609          46.000  
G 4  19323148.358   101543828.039          28.811          46.000  
G10  20513236.313   107797784.443        2776.496          46.000  
G13  19084869.942   100291669.908        2053.419          46.000  
G20  19327683.314   101567660.015       -3290.991          46.000  
G23  18124033.915    95242440.942         115.900          46.000  
G31  21076093.604   110755616.945       -3265.772          49.000  
G32  21576452.745   113385023.809       -3887.299          46.000  
R14  18029367.692    96106616.439        1615.217          44.000  
R13  18714174.371    99932577.362       -2633.669          49.000  
R 5  18074559.490    96618831.460        2100.468          46.000  
R20  19837554.337   106080286.456       -3563.293          46.000  
R 4  17245354.716    92348053.043       -1986.475          45.000  
E 7  24574301.271   129138836.042       -1198.860          43.000  
E 8  25363104.430   133284024.866       -3088.117          43.000  
E16  21148688.828   111137117.896       -1220.525          43.000  
E24  22234595.946   116843598.833       -1134.901          43.000  
E15  22229744.417   116818108.535        1343.053          43.000  
E17  23592757.711   123980776.564       -3270.375          43.000  
E22  25366363.871   133301151.787        2737.232          43.000  
E25  24900225.839   130851579.730       -3192.409          43.000  
E23  22439995.001   117922959.783        1469.357          43.000  
E 6  25466200.936   133825801.422        1019.329          43.000  
> 2019 12  1 15 21  7.9920000  0 23                     
G 2  21511163.023   113041926.193        2445.935          46.000  
G 4  19323142.793   101543797.574          23.972          46.000  
G10  20512708.176   107795008.045        2766.391          46.000  
G13  19084475.170   100289595.605        2090.591          46.000  
G20  19328307.161   101570939.867       -3261.076          46.000  
G23  18124010.671    95242317.002         132.566          46.000  
G31  21076721.164   110758914.356       -3321.671          49.000  
G32  21577191.240   113388905.363       -3864.886          46.000  
R14  18029063.312    96104994.343        1636.352          44.000  
R13  18714672.544    99935237.818       -2681.573          49.000  
R 5  18074166.682    96616733.383        2088.650          46.000  
R20  19838218.492   106083838.460       -3551.029          46.000  
R 4  17245726.100    92350042.307       -1987.188          45.000  
E 7  24574532.790   129140053.205       -1243.958          43.000  
E 8  25363690.423   133287103.322       -3080.074          43.000  
E16  21148919.789   111138330.141       -1202.041          43.000  
E24  22234814.588   116844746.859       -1153.043          43.000  
E15  22229488.695   116816764.126        1338.498          43.000  
E17  23593378.117   123984037.121       -3240.972          43.000  
E22  25365835.939   133298378.043        2811.008          43.000  
E25  24900839.928   130854807.255       -3256.332          43.000  
E23  22439712.126   117921472.047        1511.760          43.000  
E 6  25466014.040   133824818.795         944.729          43.000  
> 2019 12  1 15 21  8.9920000  0 23                     
G 2  21510704.665   113039516.453        2375.214          46.000  
G 4  19323142.062   101543794.977         -23.325          46.000  
G10  20512187.350   107792270.025        2705.076          46.000  
G13  19084077.412   100287504.194        2084.137          46.000  
G20  19328922.833   101574174.312       -3208.348          46.000  
G23  18123984.114    95242178.172         142.347          46.000  
G31  21077353.930   110762239.272       -3317.400          49.000  
G32  21577920.389   113392737.266       -3797.168          46.000  
R14  18028751.725    96103334.108        1684.484          44.000  
R13  18715175.154    99937922.244       -2678.495          49.000  
R 5  18073779.858    96614666.368        2042.699          46.000  
R20  19838886.700   106087410.482       -3601.025          46.000  
R 4  17246095.098    92352019.045       -1964.363          45.000  
E 7  24574776.373   129141333.096       -1315.074          43.000  
E 8  25364281.622   133290208.247       -3137.660          43.000  
E16  21149146.229   111139522.666       -1185.107          43.000  
E24  22235031.662   116845887.756       -1122.645          43.000  
E15  22229238.055   116815445.675        1294.708          43.000  
E17  23593988.270   123987245.465       -3175.295          43.000  
E22  25365296.099   133295541.514        2851.970          43.000  
E25  24901461.378   130858070.459       -3259.064          43.000  
E23  22439419.061   117919934.012        1560.753          43.000  
E 6  25465839.559   133823902.659         896.290          43.000  
> 2019 12  1 15 21  9.9920000  0 23                     
G 2  21510256.574   113037162.374        2343.921          46.000  
G 4  19323151.802   101543844.839         -71.930          46.000  
G10  20511678.515   107789596.717        2647.806          46.000  
G13  19083684.876   100285441.528        2038.140          46.000  
G20  19329530.249   101577366.541       -3182.959          46.000  
G23  18123957.537    95242038.518         134.679          46.000  
G31  21077979.854   110765530.147       -3258.801          49.000  
G32  21578637.412   113396505.774       -3747.662          46.000  
R14  18028432.465    96101632.687        1712.689          44.000  
R13  18715672.560    99940578.763       -2629.418          49.000  
R 5  18073401.991    96612646.052        2003.309          46.000  
R20  19839566.814   106091047.018       -3669.107          46.000  
R 4  17246459.463    92353970.850       -1940.790          45.000  
E 7  24575031.218   129142670.437       -1349.042          43.000  
E 8  25364885.914   133293383.428       -3208.745          43.000  
E16  21149371.463   111140707.078       -1186.714          43.000  
E24  22235240.662   116846986.038       -1073.958          43.000  
E15  22228996.297   116814175.412        1250.290          43.000  
E17  23594587.888   123990397.073       -3135.687          43.000  
E22  25364755.316   133292699.809        2820.988          43.000  
E25  24902076.324   130861303.538       -3200.090          43.000  
E23  22439120.045   117918364.461        1570.210          43.000  
E 6  25465668.423   133823001.786         917.159          43.000  
> 2019 12  1 15 21 10.9920000  0 23                     
G 2  21509807.582   113034804.396        2381.335          46.000  
G 4  19323166.449   101543923.203         -76.381          46.000  
G10  20511175.663   107786954.326        2647.549          46.000  
G13  19083301.157   100283426.450        1995.884          46.000  
G20  19330137.770   101580557.997       -3207.867          46.000  
G23  18123933.676    95241912.414         116.901          46.000  
G31  21078593.803   110768756.177       -3199.113          49.000  
G32  21579351.060   113400254.638       -3761.334          46.000  
R14  18028111.939    96099924.658        1695.839          44.000  
R13  18716159.953    99943180.927       -2579.261          49.000  
R 5  18073027.798    96610644.624        2007.120          46.000  
R20  19840256.350   106094732.902       -3692.323          46.000  
R 4  17246821.350    92355907.856       -1937.773          45.000  
E 7  24575285.359   129144006.589       -1313.725          43.000  
E 8  25365499.618   133296607.386       -3227.638          43.000  
E16  21149598.822   111141901.848       -1204.791          43.000  
E24  22235441.897   116848044.830       -1050.727          43.000  
E15  22228759.454   116812930.546        1247.175          43.000  
E17  23595185.717   123993538.812       -3157.782          43.000  
E22  25364225.458   133289914.409        2747.617          43.000  
E25  24902678.411   130864467.635       -3132.721          43.000  
E23  22438824.299   117916810.573        1531.486          43.000  
E 6  25465487.449   133822050.401         988.476          43.000  
> 2019 12  1 15 21 11.9920000  0 23                     
G 2  21509347.943   113032387.889        2451.782          46.000  
G 4  19323177.037   101543981.578         -34.549          46.000  
G10  20510667.026   107784281.864        2703.486          46.000  
G13  19082922.520   100281435.467        1994.680          46.000  
G20  19330753.276   101583792.175       -3261.120          46.000  
G23  18123912.854    95241803.269         104.011          46.000  
G31  21079201.217   110771947.549       -3194.327          49.000  
G32  21580072.939   113404046.814       -3826.422          46.000  
R14  18027798.044    96098252.443        1647.665          44.000  
R13  18716641.780    99945754.004       -2575.548          49.000  
R 5  18072648.600    96608618.322        2049.513          46.000  
R20  19840944.059   106098409.205       -3650.970          46.000  
R 4  17247185.453    92357855.391       -1959.466          45.000  
E 7  24575528.619   129145285.505       -1243.190          43.000  
E 8  25366109.907   133299815.040       -3178.179          43.000  
E16  21149830.125   111143117.300       -1224.148          43.000  
E24  22235643.823   116849105.037       -1076.159          43.000  
E15  22228518.783   116811666.221        1286.626          43.000  
E17  23595792.961   123996727.769       -3222.241          43.000  
E22  25363708.347   133287196.078        2698.188          43.000  
E25  24903272.078   130867588.532       -3120.004          43.000  
E23  22438538.375   117915306.441        1479.256          43.000  
E 6  25465293.396   133821030.536        1043.683          43.000  
> 2019 12  1 15 21 12.9920000  0 23                     
G 2  21508877.012   113029912.056        2490.613          46.000  
G 4  19323178.649   101543990.157          15.023          46.000  
G10  20510146.190   107781545.949        2763.894          46.000  
G13  19082539.376   100279423.026        2035.377          46.000  
G20  19331377.887   101587073.404       -3294.181          46.000  
G23  18123893.065    95241699.104         107.715          46.000  
G31  21079813.704   110775166.398       -3249.198          49.000  
G32  21580807.355   113407905.289       -3883.050          46.000  
R14  18027492.814    96096625.985        1611.936          44.000  
R13  18717127.973    99948350.470       -2622.578          49.000  
R 5  18072261.397    96606546.422        2090.843          46.000  
R20  19841620.399   106102026.056       -3582.941          46.000  
R 4  17247554.046    92359829.375       -1986.533          45.000  
E 7  24575760.391   129146503.846       -1202.269          43.000  
E 8  25366707.245   133302956.142       -3105.450          43.000  
E16  21150063.860   111144344.719       -1226.813          43.000  
E24  22235853.114   116850206.318       -1126.213          43.000  
E15  22228269.435   116810355.385        1332.711          43.000  
E17  23596411.265   123999977.494       -3269.684          43.000  
E22  25363194.279   133284493.654        2718.402          43.000  
E25  24903869.968   130870731.623       -3173.654          43.000  
E23  22438259.740   117913840.447        1461.353          43.000  
E 6  25465094.441   133819987.271        1031.407          43.000  
> 2019 12  1 15 21 13.9920000  0 23                     
G 2  21508404.853   113027430.623        2461.920          46.000  
G 4  19323173.848   101543965.172          26.386          46.000  
G10  20509618.253   107778771.409        2774.039          46.000  
G13  19082147.438   100277363.322        2080.774          46.000  
G20  19332003.599   101590362.693       -3276.343          46.000  
G23  18123870.794    95241583.513         124.424          46.000  
G31  21080438.450   110778449.633       -3313.148          49.000  
G32  21581546.880   113411791.844       -3878.882          46.000  
R14  18027190.402    96095013.562        1620.721          44.000  
R13  18717624.768    99951001.635       -2676.946          49.000  
R 5  18071869.190    96604450.112        2093.812          46.000  
R20  19842286.796   106105588.469       -3551.566          46.000  
R 4  17247925.914    92361821.572       -1993.660          45.000  
E 7  24575990.751   129147714.065       -1228.764          43.000  
E 8  25367294.212   133306041.519       -3076.397          43.000  
E16  21150295.932   111145564.398       -1210.486          43.000  
E24  22236071.194   116851350.724       -1155.866          43.000  
E15  22228013.972   116809013.623        1343.173          43.000  
E17  23597032.999   124003245.438       -3256.162          43.000  
E22  25362669.985   133281741.036        2790.114          43.000  
E25  24904481.079   130873941.742       -3243.947          43.000  
E23  22437978.973   117912365.889        1494.441          43.000  
E 6  25464904.668   133818987.182         963.703          43.000  
> 2019 12  1 15 21 14.9920000  0 23                     
G 2  21507942.839   113025003.267        2391.467          46.000  
G 4  19323171.785   101543954.817         -12.004          46.000  
G10  20509094.975   107776019.355        2723.092          46.000  
G13  19081750.086   100275274.908        2088.058          46.000  
G20  19332622.279   101593614.532       -3225.276          46.000  
G23  18123845.601    95241451.575         137.655          46.000  
G31  21081071.477   110781775.843       -3328.472          49.000  
G32  21582279.503   113415643.089       -3818.518          46.000  
R14  18026882.471    96093371.780        1665.232          44.000  
R13  18718127.949    99953689.834       -2690.526          49.000  
R 5  18071481.032    96602373.997        2054.178          46.000  
R20  19842953.299   106109152.547       -3586.411          46.000  
R 4  17248296.574    92363808.071       -1976.165          45.000  
E 7  24576231.045   129148976.995       -1299.142          43.000  
E 8  25367882.947   133309133.920       -3118.552          43.000  
E16  21150524.249   111146764.531       -1190.969          43.000  
E24  22236290.355   116852501.521       -1138.382          43.000  
E15  22227761.175   116807685.691        1307.425          43.000  
E17  23597647.223   124006472.970       -3195.240          43.000  
E22  25362132.442   133278918.797        2846.786          43.000  
E25  24905101.635   130877202.815       -3267.368          43.000  
E23  22437689.463   117910844.791        1546.833          43.000  
E 6  25464728.070   133818058.098         900.858          43.000  
> 2019 12  1 15 21 15.9920000  0 23                     
G 2  21507493.260   113022640.675        2343.390          46.000  
G 4  19323179.199   101543994.851         -65.802          46.000  
G10  20508583.289   107773330.789        2657.866          46.000  
G13  19081355.826   100273203.470        2049.928          46.000  
G20  19333232.060   101596818.499       -3188.002          46.000  
G23  18123819.556    95241314.235         134.813          46.000  
G31  21081701.150   110785084.854       -3281.399          49.000  
G32  21582999.822   113419428.579       -3757.507          46.000  
R14  18026566.055    96091685.412        1703.162          44.000  
R13  18718628.587    99956364.425       -2651.357          49.000  
R 5  18071101.451    96600344.827        2008.104          46.000  
R20  19843630.777   106112773.839       -3656.261          46.000  
R 4  17248663.133    92365771.070       -1950.111          45.000  
E 7  24576484.130   129150305.845       -1349.621          43.000  
E 8  25368483.494   133312290.194       -3193.284          43.000  
E16  21150750.186   111147951.956       -1186.605          43.000  
E24  22236502.384   116853616.900       -1090.337          43.000  
E15  22227517.330   116806404.209        1258.059          43.000  
E17  23598249.847   124009639.098       -3142.698          43.000  
E22  25361590.948   133276071.954        2835.949          43.000  
E25  24905720.051   130880452.479       -3222.546          43.000  
E23  22437392.044   117909282.625        1570.368          43.000  
E 6  25464557.627   133817163.248         900.957          43.000  
> 2019 12  1 15 21 16.9920000  0 23                     
G 2  21507046.423   113020293.367        2362.317          46.000  
G 4  19323194.679   101544074.357         -85.243          46.000  
G10  20508080.125   107770687.667        2638.802          46.000  
G13  19080970.397   100271178.485        2002.065          46.000  
G20  19333838.802   101600007.644       -3198.689          46.000  
G23  18123795.268    95241186.932         118.621          46.000  
G31  21082318.899   110788331.731       -3215.010          49.000  
G32  21583713.170   113423177.530       -3751.593          46.000  
R14  18026246.122    96089979.928        1699.866          44.000  
R13  18719119.597    99958987.065       -2595.614          49.000  
R 5  18070727.279    96598345.673        1998.184          46.000  
R20  19844319.297   106116454.905       -3696.796          46.000  
R 4  17249026.290    92367713.988       -1939.698          45.000  
E 7  24576740.314   129151652.675       -1333.106          43.000  
E 8  25369095.637   133315507.766       -3231.728          43.000  
E16  21150977.235   111149144.594       -1201.022          43.000  
E24  22236705.725   116854687.090       -1055.723          43.000  
E15  22227280.496   116805158.359        1241.194          43.000  
E17  23598846.995   124012778.523       -3146.594          43.000  
E22  25361057.556   133273267.208        2768.557          43.000  
E25  24906326.088   130883638.087       -3149.868          43.000  
E23  22437094.997   117907722.036        1543.352          43.000  
E 6  25464380.649   133816233.881         963.795          43.000  
> 2019 12  1 15 21 17.9920000  0 23                     
G 2  21506590.499   113017898.974        2429.742          46.000  
G 4  19323208.594   101544147.619         -53.873          46.000  
G10  20507574.305   107768031.211        2682.394          46.000  
G13  19080591.681   100269187.960        1987.073          46.000  
G20  19334452.153   101603229.801       -3248.596          46.000  
G23  18123774.606    95241077.192         102.719          46.000  
G31  21082927.593   110791529.856       -3191.469          49.000  
G32  21584432.110   113426953.689       -3806.824          46.000  
R14  18025930.832    96088299.992        1656.704          44.000  
R13  18719603.308    99961568.718       -2575.972          49.000  
R 5  18070350.493    96596333.236        2032.414          46.000  
R20  19845009.209   106120144.782       -3672.282          46.000  
R 4  17249389.848    92369660.096       -1955.645          45.000  
E 7  24576988.205   129152954.329       -1266.398          43.000  
E 8  25369708.628   133318728.687       -3199.177          43.000  
E16  21151208.234   111150356.726       -1222.474          43.000  
E24  22236907.469   116855745.092       -1067.794          43.000  
E15  22227041.860   116803905.670        1270.712          43.000  
E17  23599450.692   124015951.463       -3204.230          43.000  
E22  25360537.442   133270533.431        2705.393          43.000  
E25  24906921.638   130886766.978       -3117.899          43.000  
E23  22436806.345   117906205.322        1489.948          43.000  
E 6  25464190.372   133815234.146        1030.671          43.000  
> 2019 12  1 15 21 18.9920000  0 23                     
G 2  21506122.469   113015438.582        2483.478          46.000  
G 4  19323213.336   101544175.111          -1.207          46.000  
G10  20507057.529   107765315.004        2748.607          46.000  
G13  19080211.153   100267188.417        2018.552          46.000  
G20  19335075.071   101606502.662       -3291.945          46.000  
G23  18123755.459    95240976.721         101.343          46.000  
G31  21083537.934   110794737.638       -3232.572          49.000  
G32  21585163.257   113430795.808       -3873.015          46.000  
R14  18025624.655    96086667.314        1612.878          44.000  
R13  18720088.477    99964158.605       -2611.147          49.000  
R 5  18069965.450    96594276.699        2078.907          46.000  
R20  19845689.676   106123784.778       -3605.281          46.000  
R 4  17249757.672    92371630.138       -1983.822          45.000  
E 7  24577223.109   129154189.397       -1210.796          43.000  
E 8  25370310.268   133321892.025       -3125.908          43.000  
E16  21151442.058   111151584.850       -1230.810          43.000  
E24  22237115.114   116856835.335       -1115.082          43.000  
E15  22226795.653   116802609.960        1320.042          43.000  
E17  23600066.386   124019187.317       -3262.622          43.000  
E22  25360024.048   133267834.107        2704.939          43.000  
E25  24907517.930   130889898.564       -3155.283          43.000  
E23  22436526.663   117904734.639        1458.565          43.000  
E 6  25463992.009   133814193.120        1039.625          43.000  
> 2019 12  1 15 21 19.9920000  0 23                     
G 2  21505649.721   113012953.762        2475.037          46.000  
G 4  19323210.125   101544159.480          25.157          46.000  
G10  20506530.777   107762547.289        2777.150          46.000  
G13  19079822.393   100265144.557        2068.370          46.000  
G20  19335701.898   101609797.129       -3288.023          46.000  
G23  18123734.785    95240868.688         116.512          46.000  
G31  21084159.613   110798004.484       -3299.888          49.000  
G32  21585902.561   113434681.538       -3887.277          46.000  
R14  18025323.586    96085060.411        1609.063          44.000  
R13  18720583.134    99966798.595       -2668.378          49.000  
R 5  18069574.255    96592185.704        2095.676          46.000  
R20  19846358.486   106127362.136       -3557.175          46.000  
R 4  17250129.820    92373622.872       -1997.655          45.000  
E 7  24577452.831   129155397.628       -1216.917          43.000  
E 8  25370899.800   133324989.406       -3078.040          43.000  
E16  21151675.097   111152810.600       -1217.800          43.000  
E24  22237331.335   116857972.588       -1154.329          43.000  
E15  22226541.506   116801274.398        1344.194          43.000  
E17  23600688.898   124022457.266       -3266.994          43.000  
E22  25359503.625   133265100.576        2768.552          43.000  
E25  24908125.212   130893089.564       -3227.241          43.000  
E23  22436247.735   117903269.611        1479.388          43.000  
E 6  25463798.859   133813177.662         983.620          43.000  
> 2019 12  1 15 21 20.9920000  0 23                     
G 2  21505184.708   113010509.295        2410.193          46.000  
G 4  19323207.739   101544144.048          -1.225          46.000  
G10  20506005.279   107759784.329        2740.432          46.000  
G13  19079426.297   100263062.638        2088.809          46.000  
G20  19336323.700   101613065.017       -3242.688          46.000  
G23  18123710.894    95240744.126         132.153          46.000  
G31  21084791.667   110801326.298       -3333.431          49.000  
G32  21586638.489   113438549.036       -3838.757          46.000  
R14  18025018.757    96083435.286        1646.383          44.000  
R13  18721086.319    99969485.664       -2697.188          49.000  
R 5  18069184.644    96590102.365        2065.423          46.000  
R20  19847024.278   106130922.637       -3574.097          46.000  
R 4  17250502.382    92375617.152       -1986.261          45.000  
E 7  24577690.328   129156644.282       -1280.907          43.000  
E 8  25371487.163   133328073.770       -3101.459          43.000  
E16  21151904.578   111154018.514       -1197.409          43.000  
E24  22237551.356   116859129.145       -1150.329          43.000  
E15  22226287.321   116799939.372        1319.630          43.000  
E17  23601306.241   124025701.715       -3214.996          43.000  
E22  25358969.657   133262296.085        2836.420          43.000  
E25  24908744.595   130896342.615       -3268.806          43.000  
E23  22435961.030   117901765.452        1531.035          43.000  
E 6  25463618.993   133812231.974         911.831          43.000  
> 2019 12  1 15 21 21.9920000  0 23                     
G 2  21504732.380   113008132.597        2350.024          46.000  
G 4  19323212.854   101544171.992         -55.050          46.000  
G10  20505490.306   107757077.651        2673.728          46.000  
G13  19079030.458   100260983.684        2062.692          46.000  
G20  19336935.570   101616282.294       -3195.370          46.000  
G23  18123685.233    95240609.160         135.391          46.000  
G31  21085423.694   110804648.232       -3300.630          49.000  
G32  21587362.004   113442352.743       -3770.184          46.000  
R14  18024705.238    96081764.835        1691.861          44.000  
R13  18721589.767    99972173.663       -2669.990          49.000  
R 5  18068802.921    96588061.575        2017.537          46.000  
R20  19847698.502   106134527.555       -3639.120          46.000  
R 4  17250870.931    92377590.360       -1959.096          45.000  
E 7  24577940.621   129157959.153       -1342.611          43.000  
E 8  25372084.079   133331209.607       -3172.781          43.000  
E16  21152131.060   111155209.235       -1186.489          43.000  
E24  22237765.987   116860259.504       -1106.182          43.000  
E15  22226040.920   116798644.452        1270.296          43.000  
E17  23601911.781   124028884.062       -3152.755          43.000  
E22  25358427.721   133259448.580        2847.605          43.000  
E25  24909364.597   130899602.993       -3240.713          43.000  
E23  22435665.803   117900213.066        1567.866          43.000  
E 6  25463448.345   133811335.879         891.927          43.000  
> 2019 12  1 15 21 22.9920000  0 23                     
G 2  21504286.490   113005788.763        2348.907          46.000  
G 4  19323227.538   101544246.882         -88.008          46.000  
G10  20504985.905   107754426.945        2637.113          46.000  
G13  19078642.810   100258946.035        2012.500          46.000  
G20  19337542.484   101619471.511       -3191.501          46.000  
G23  18123660.827    95240479.582         121.741          46.000  
G31  21086045.563   110807915.361       -3233.200          49.000  
G32  21588076.230   113446105.539       -3745.800          46.000  
R14  18024385.951    96080064.023        1702.069          44.000  
R13  18722084.559    99974815.958       -2613.558          49.000  
R 5  18068428.444    96586059.165        1994.344          46.000  
R20  19848384.723   106138197.554       -3694.019          46.000  
R 4  17251234.497    92379539.407       -1942.418          45.000  
E 7  24578197.447   129159309.400       -1346.452          43.000  
E 8  25372693.567   133334413.972       -3228.010          43.000  
E16  21152357.606   111156399.192       -1196.397          43.000  
E24  22237972.321   116861342.182       -1063.100          43.000  
E15  22225802.759   116797392.173        1240.655          43.000  
E17  23602509.128   124032024.619       -3138.590          43.000  
E22  25357890.630   133256625.223        2791.323          43.000  
E25  24909974.556   130902809.001       -3169.113          43.000  
E23  22435368.126   117898647.686        1554.612          43.000  
E 6  25463274.650   133810423.626         941.183          43.000  
> 2019 12  1 15 21 23.9920000  0 23                     
G 2  21503834.530   113003414.473        2406.165          46.000  
G 4  19323243.771   101544331.225         -71.709          46.000  
G10  20504482.514   107751782.115        2663.133          46.000  
G13  19078263.299   100256951.845        1983.403          46.000  
G20  19338153.719   101622682.795       -3235.756          46.000  
G23  18123639.740    95240368.170         102.381          46.000  
G31  21086656.210   110811124.957       -3194.359          49.000  
G32  21588792.431   113449868.685       -3789.063          46.000  
R14  18024069.627    96078377.906        1665.662          44.000  
R13  18722570.408    99977410.117       -2581.390          49.000  
R 5  18068054.071    96584057.530        2016.179          46.000  
R20  19849076.423   106141895.529       -3690.147          46.000  
R 4  17251597.942    92381485.484       -1953.209          45.000  
E 7  24578449.044   129160631.566       -1290.651          43.000  
E 8  25373307.950   133337642.517       -3216.749          43.000  
E16  21152587.499   111157607.304       -1219.462          43.000  
E24  22238173.709   116862401.496       -1062.567          43.000  
E15  22225565.744   116796147.588        1256.531          43.000  
E17  23603110.768   124035183.700       -3186.280          43.000  
E22  25357366.925   133253872.471        2717.959          43.000  
E25  24910572.296   130905950.653       -3121.726          43.000  
E23  22435077.144   117897118.233        1502.451          43.000  
E 6  25463088.744   133809446.190        1012.596          43.000  
> 2019 12  1 15 21 24.9920000  0 23                     
G 2  21503369.894   113000973.445        2470.898          46.000  
G 4  19323252.343   101544378.178         -19.958          46.000  
G10  20503969.543   107749086.644        2729.528          46.000  
G13  19077884.657   100254962.463        2003.120          46.000  
G20  19338774.561   101625945.075       -3285.992          46.000  
G23  18123621.060    95240270.216          96.431          46.000  
G31  21087265.643   110814326.283       -3218.363          49.000  
G32  21589519.996   113453692.801       -3858.576          46.000  
R14  18023762.311    96076737.506        1617.277          44.000  
R13  18723054.800    99979997.401       -2601.896          49.000  
R 5  18067672.142    96582017.509        2064.219          46.000  
R20  19849761.117   106145557.900       -3629.563          46.000  
R 4  17251965.286    92383451.756       -1980.101          45.000  
E 7  24578687.822   129161887.136       -1224.589          43.000  
E 8  25373913.797   133340827.684       -3148.687          43.000  
E16  21152821.299   111158834.841       -1232.615          43.000  
E24  22238379.814   116863482.313       -1103.359          43.000  
E15  22225322.241   116794867.611        1305.110          43.000  
E17  23603723.692   124038403.506       -3250.935          43.000  
E22  25356852.564   133251170.621        2697.182          43.000  
E25  24911166.918   130909075.987       -3139.957          43.000  
E23  22434795.935   117895639.678        1460.516          43.000  
E 6  25462892.281   133808413.542        1042.127          43.000  
> 2019 12  1 15 21 25.9920000  0 23                     
G 2  21502897.490   112998491.562        2481.915          46.000  
G 4  19323251.933   101544376.358          18.062          46.000  
G10  20503445.273   107746331.307        2773.328          46.000  
G13  19077498.713   100252935.636        2052.323          46.000  
G20  19339402.160   101629241.226       -3297.715          46.000  
G23  18123601.694    95240169.627         107.276          46.000  
G31  21087884.216   110817577.054       -3284.864          49.000  
G32  21590258.537   113457573.047       -3891.906          46.000  
R14  18023461.146    96075132.983        1599.518          44.000  
R13  18723547.175    99982626.617       -2658.441          49.000  
R 5  18067282.553    96579936.122        2092.452          46.000  
R20  19850433.906   106149154.878       -3569.564          46.000  
R 4  17252337.224    92385443.877       -2000.475          45.000  
E 7  24578918.695   129163099.757       -1211.363          43.000  
E 8  25374506.708   133343942.353       -3086.807          43.000  
E16  21153055.501   111160066.023       -1225.786          43.000  
E24  22238594.421   116864610.653       -1149.742          43.000  
E15  22225069.887   116793542.407        1340.187          43.000  
E17  23604345.450   124041670.978       -3273.778          43.000  
E22  25356335.163   133248453.696        2746.257          43.000  
E25  24911770.742   130912248.748       -3208.815          43.000  
E23  22434518.268   117894180.974        1466.043          43.000  
E 6  25462697.157   133807387.251        1001.108          43.000  
> 2019 12  1 15 21 26.9920000  0 23                     
G 2  21502429.658   112996033.094        2427.869          46.000  
G 4  19323248.775   101544360.340           5.683          46.000  
G10  20502918.146   107743562.627        2753.671          46.000  
G13  19077104.705   100250864.470        2084.177          46.000  
G20  19340026.579   101632523.813       -3261.266          46.000  
G23  18123579.703    95240053.690         124.161          46.000  
G31  21088514.826   110820890.411       -3333.857          49.000  
G32  21590996.829   113461453.582       -3859.004          46.000  
R14  18023159.127    96073522.831        1627.130          44.000  
R13  18724049.558    99985309.264       -2700.520          49.000  
R 5  18066892.340    96577849.332        2073.910          46.000  
R20  19851100.212   106152717.858       -3567.214          46.000  
R 4  17252710.585    92387444.753       -1996.599          45.000  
E 7  24579153.756   129164333.434       -1263.708          43.000  
E 8  25375093.198   133347025.026       -3090.130          43.000  
E16  21153287.153   111161282.509       -1206.160          43.000  
E24  22238815.278   116865769.761       -1160.349          43.000  
E15  22224815.269   116792204.464        1328.226          43.000  
E17  23604965.395   124044929.918       -3235.468          43.000  
E22  25355805.796   133245670.088        2819.619          43.000  
E25  24912387.546   130915489.784       -3266.005          43.000  
E23  22434235.249   117892693.682        1512.421          43.000  
E 6  25462513.788   133806423.940         925.897          43.000  
> 2019 12  1 15 21 27.9920000  0 23                     
G 2  21501974.524   112993641.090        2359.741          46.000  
G 4  19323252.167   101544378.347         -44.627          46.000  
G10  20502400.088   107740839.657        2689.644          46.000  
G13  19076708.585   100248783.177        2070.890          46.000  
G20  19340641.880   101635758.207       -3209.026          46.000  
G23  18123555.196    95239924.310         132.179          46.000  
G31  21089148.912   110824222.328       -3319.155          49.000  
G32  21591724.815   113465278.458       -3789.263          46.000  
R14  18022849.219    96071871.450        1675.356          44.000  
R13  18724554.960    99988008.461       -2688.623          49.000  
R 5  18066508.811    96575798.462        2026.656          46.000  
R20  19851772.054   106156310.055       -3623.331          46.000  
R 4  17253081.105    92389429.790       -1971.528          45.000  
E 7  24579401.165   129165633.313       -1333.102          43.000  
E 8  25375686.835   133350143.725       -3153.426          43.000  
E16  21153514.782   111162479.792       -1190.602          43.000  
E24  22239032.843   116866915.026       -1124.381          43.000  
E15  22224566.717   116790898.163        1281.822          43.000  
E17  23605574.778   124048132.088       -3169.403          43.000  
E22  25355265.242   133242829.570        2850.956          43.000  
E25  24913009.611   130918757.347       -3257.740          43.000  
E23  22433942.858   117891155.958        1558.451          43.000  
E 6  25462342.221   133805522.692         886.794          43.000  
> 2019 12  1 15 21 28.9920000  0 23                     
G 2  21501528.560   112991297.278        2338.367          46.000  
G 4  19323265.730   101544447.401         -88.918          46.000  
G10  20501893.936   107738179.087        2638.127          46.000  
G13  19076318.976   100246735.111        2022.261          46.000  
G20  19341250.016   101638953.881       -3190.949          46.000  
G23  18123530.580    95239795.632         122.173          46.000  
G31  21089774.611   110827511.525       -3256.179          49.000  
G32  21592440.988   113469042.426       -3748.120          46.000  
R14  18022532.132    96070181.315        1697.620          44.000  
R13  18725053.474    99990672.281       -2636.106          49.000  
R 5  18066133.452    96573791.642        1992.190          46.000  
R20  19852456.146   106159967.831       -3688.648          46.000  
R 4  17253446.679    92391388.890       -1949.719          45.000  
E 7  24579657.803   129166983.486       -1357.171          43.000  
E 8  25376293.992   133353333.044       -3220.709          43.000  
E16  21153740.688   111163670.765       -1195.318          43.000  
E24  22239241.724   116868014.391       -1076.808          43.000  
E15  22224326.844   116789638.480        1241.773          43.000  
E17  23606173.962   124051281.025       -3138.146          43.000  
E22  25354725.767   133239993.666        2810.279          43.000  
E25  24913623.811   130921984.927       -3193.034          43.000  
E23  22433644.963   117889592.078        1559.928          43.000  
E 6  25462171.550   133804625.359         917.904          43.000  
> 2019 12  1 15 21 29.9920000  0 23                     
G 2  21501080.074   112988940.344        2384.082          46.000  
G 4  19323283.283   101544539.147         -86.050          46.000  
G10  20501391.865   107735541.390        2647.892          46.000  
G13  19075938.419   100244734.356        1984.283          46.000  
G20  19341859.866   101642157.172       -3222.648          46.000  
G23  18123509.311    95239682.580         103.864          46.000  
G31  21090388.394   110830737.296       -3202.202          49.000  
G32  21593155.572   113472797.322       -3772.353          46.000  
R14  18022215.039    96068492.186        1673.971          44.000  
R13  18725542.324    99993282.967       -2590.568          49.000  
R 5  18065760.388    96571797.845        2002.884          46.000  
R20  19853148.226   106163668.767       -3702.303          46.000  
R 4  17253810.577    92393337.341       -1951.339          45.000  
E 7  24579913.039   129168323.244       -1313.566          43.000  
E 8  25376908.946   133356563.772       -3228.919          43.000  
E16  21153970.327   111164875.374       -1215.284          43.000  
E24  22239444.517   116869079.346       -1060.623          43.000  
E15  22224090.913   116788398.689        1245.715          43.000  
E17  23606773.274   124054430.315       -3169.525          43.000  
E22  25354198.417   133237220.668        2735.581          43.000  
E25  24914224.855   130925143.936       -3131.012          43.000  
E23  22433351.764   117888051.635        1516.065          43.000  
E 6  25461989.710   133803671.510         991.325          43.000  
> 2019 12  1 15 21 30.9920000  0 23                     
G 2  21500619.340   112986520.227        2454.254          46.000  
G 4  19323295.323   101544603.844         -39.245          46.000  
G10  20500882.576   107732865.145        2708.943          46.000  
G13  19075560.991   100242750.743        1990.916          46.000  
G20  19342478.356   101645406.644       -3275.585          46.000  
G23  18123490.718    95239585.030          93.555          46.000  
G31  21090997.206   110833936.446       -3207.089          49.000  
G32  21593879.658   113476602.303       -3840.143          46.000  
R14  18021905.900    96066842.481        1625.160          44.000  
R13  18726026.895    99995871.171       -2594.925          49.000  
R 5  18065381.644    96569773.317        2048.527          46.000  
R20  19853836.568   106167350.187       -3652.586          46.000  
R 4  17254177.149    92395299.575       -1975.305          45.000  
E 7  24580156.220   129169600.648       -1242.427          43.000  
E 8  25377518.486   133359767.694       -3171.394          43.000  
E16  21154203.749   111166100.207       -1232.344          43.000  
E24  22239648.979   116870152.256       -1091.192          43.000  
E15  22223850.329   116787132.843        1289.615          43.000  
E17  23607382.235   124057632.209       -3235.098          43.000  
E22  25353682.246   133234509.864        2695.896          43.000  
E25  24914819.118   130928267.817       -3128.492          43.000  
E23  22433068.187   117886561.820        1466.758          43.000  
E 6  25461795.914   133802651.875        1039.062          43.000  
> 2019 12  1 15 21 31.9920000  0 23                     
G 2  21500148.258   112984045.634        2484.058          46.000  
G 4  19323298.142   101544617.618           7.402          46.000  
G10  20500361.141   107730124.951        2765.090          46.000  
G13  19075177.980   100240739.107        2035.360          46.000  
G20  19343104.902   101648699.130       -3301.982          46.000  
G23  18123472.635    95239489.490          99.783          46.000  
G31  21091612.898   110837171.040       -3267.461          49.000  
G32  21594615.867   113480470.993       -3889.635          46.000  
R14  18021604.417    96065235.489        1594.857          44.000  
R13  18726517.303    99998489.339       -2646.323          49.000  
R 5  18064994.263    96567703.383        2086.110          46.000  
R20  19854513.353   106170968.294       -3586.304          46.000  
R 4  17254548.782    92397288.321       -2000.523          45.000  
E 7  24580387.970   129170821.978       -1210.434          43.000  
E 8  25378114.603   133362901.776       -3100.804          43.000  
E16  21154438.553   111167333.977       -1231.855          43.000  
E24  22239861.815   116871269.007       -1141.539          43.000  
E15  22223600.324   116785819.575        1332.872          43.000  
E17  23608002.549   124060891.106       -3274.662          43.000  
E22  25353167.312   133231803.819        2726.924          43.000  
E25  24915419.724   130931422.921       -3188.651          43.000  
E23  22432791.102   117885103.980        1457.013          43.000  
E 6  25461599.172   133801618.421        1016.521          43.000  
> 2019 12  1 15 21 32.9920000  0 23                     
G 2  21499678.379   112981576.127        2445.251          46.000  
G 4  19323295.795   101544604.448          10.130          46.000  
G10  20499834.027   107727354.903        2763.924          46.000  
G13  19074786.101   100238680.856        2076.394          46.000  
G20  19343731.489   101651992.678       -3277.739          46.000  
G23  18123451.893    95239381.551         116.199          46.000  
G31  21092240.787   110840471.326       -3328.012          49.000  
G32  21595355.822   113484358.973       -3875.536          46.000  
R14  18021304.976    96063636.412        1610.240          44.000  
R13  18727018.447   100001163.533       -2698.246          49.000  
R 5  18064604.019    96565615.940        2080.729          46.000  
R20  19855181.172   106174538.467       -3564.741          46.000  
R 4  17254922.897    92399292.888       -2004.528          45.000  
E 7  24580621.068   129172045.849       -1247.246          43.000  
E 8  25378701.611   133365987.852       -3082.843          43.000  
E16  21154671.409   111168557.897       -1214.321          43.000  
E24  22240081.729   116872425.972       -1165.396          43.000  
E15  22223345.664   116784481.780        1334.930          43.000  
E17  23608624.869   124064159.590       -3252.508          43.000  
E22  25352641.419   133229041.160        2800.329          43.000  
E25  24916033.551   130934647.500       -3256.211          43.000  
E23  22432510.489   117883630.848        1494.870          43.000  
E 6  25461412.432   133800636.640         943.818          43.000  
> 2019 12  1 15 21 33.9920000  0 23                     
G 2  21499220.361   112979166.228        2374.585          46.000  
G 4  19323297.625   101544613.001         -32.873          46.000  
G10  20499312.780   107724616.091        2707.550          46.000  
G13  19074390.336   100236599.969        2076.853          46.000  
G20  19344349.886   101655244.012       -3224.502          46.000  
G23  18123428.159    95239257.985         128.435          46.000  
G31  21092875.552   110843806.890       -3332.615          49.000  
G32  21596087.352   113488203.547       -3809.775          46.000  
R14  18020998.428    96062003.276        1657.205          44.000  
R13  18727524.839   100003868.383       -2702.749          49.000  
R 5  18064218.596    96563554.691        2038.049          46.000  
R20  19855850.938   106178120.056       -3607.545          46.000  
R 4  17255295.115    92401287.893       -1983.101          45.000  
E 7  24580865.365   129173328.317       -1318.553          43.000  
E 8  25379292.386   133369091.391       -3133.045          43.000  
E16  21154900.423   111169761.879       -1195.385          43.000  
E24  22240301.626   116873582.355       -1140.660          43.000  
E15  22223095.175   116783164.423        1294.796          43.000  
E17  23609237.716   124067380.874       -3187.858          43.000  
E22  25352102.696   133226211.947        2849.061          43.000  
E25  24916655.429   130937915.472       -3268.516          43.000  
E23  22432220.829   117882108.855        1546.631          43.000  
E 6  25461238.663   133799724.188         888.537          43.000  
> 2019 12  1 15 21 34.9920000  0 23                     
G 2  21498773.443   112976816.954        2334.613          46.000  
G 4  19323309.436   101544673.565         -84.584          46.000  
G10  20498804.194   107721942.073        2645.790          46.000  
G13  19073998.804   100234542.563        2034.124          46.000  
G20  19344960.050   101658449.991       -3193.551          46.000  
G23  18123403.953    95239131.384         122.783          46.000  
G31  21093505.121   110847116.190       -3279.026          49.000  
G32  21596806.517   113491983.009       -3754.914          46.000  
R14  18020683.713    96060327.094        1690.262          44.000  
R13  18728027.327   100006552.014       -2658.072          49.000  
R 5  18063841.807    96561540.638        1994.895          46.000  
R20  19856532.696   106181763.447       -3677.505          46.000  
R 4  17255663.271    92403258.230       -1958.259          45.000  
E 7  24581121.279   129174672.982       -1361.062          43.000  
E 8  25379896.105   133372262.986       -3207.389          43.000  
E16  21155127.553   111170955.432       -1194.461          43.000  
E24  22240514.085   116874699.230       -1092.071          43.000  
E15  22222854.024   116781894.876        1247.555          43.000  
E17  23609839.404   124070542.691       -3142.352          43.000  
E22  25351561.527   133223368.393        2827.121          43.000  
E25  24917272.970   130941161.990       -3216.156          43.000  
E23  22431924.581   117880550.648        1562.273          43.000  
E 6  25461069.714   133798836.344         899.412          43.000  
> 2019 12  1 15 21 35.9920000  0 23                     
G 2  21498327.424   112974473.181        2363.300          46.000  
G 4  19323326.998   101544768.514         -96.721          46.000  
G10  20498302.675   107719306.353        2636.348          46.000  
G13  19073616.205   100232532.799        1988.582          46.000  
G20  19345568.943   101661648.767       -3212.046          46.000  
G23  18123382.299    95239016.839         105.592          46.000  
G31  21094122.983   110850361.483       -3215.767          49.000  
G32  21597520.495   113495734.915       -3760.064          46.000  
R14  18020366.450    96058638.467        1679.433          44.000  
R13  18728519.606   100009182.068       -2604.899          49.000  
R 5  18063469.576    96559551.042        1992.046          46.000  
R20  19857224.401   106185462.049       -3709.666          46.000  
R 4  17256027.841    92405211.292       -1952.022          45.000  
E 7  24581378.877   129176025.930       -1334.535          43.000  
E 8  25380510.300   133375490.099       -3235.868          43.000  
E16  21155356.242   111172157.238       -1211.352          43.000  
E24  22240718.455   116875773.671       -1063.195          43.000  
E15  22222618.014   116780656.022        1237.791          43.000  
E17  23610437.596   124073686.832       -3156.290          43.000  
E22  25351030.705   133220575.238        2755.493          43.000  
E25  24917878.148   130944341.403       -3145.888          43.000  
E23  22431629.751   117879001.724        1528.978          43.000  
E 6  25460892.549   133797905.417         967.122          43.000  
> 2019 12  1 15 21 36.9920000  0 23                     
G 2  21497871.012   112972075.954        2432.849          46.000  
G 4  19323342.622   101544850.123         -59.638          46.000  
G10  20497796.958   107716648.347        2686.990          46.000  
G13  19073239.217   100230552.298        1980.699          46.000  
G20  19346185.062   101664886.387       -3264.579          46.000  
G23  18123364.090    95238919.757          91.007          46.000  
G31  21094732.685   110853565.110       -3202.072          49.000  
G32  21598241.344   113499523.186       -3821.648          46.000  
R14  18020055.509    96056981.053        1633.140          44.000  
R13  18729005.643   100011777.033       -2593.606          49.000  
R 5  18063093.327    96557541.988        2030.623          46.000  
R20  19857915.696   106189159.988       -3676.041          46.000  
R 4  17256394.282    92407171.815       -1971.632          45.000  
E 7  24581626.137   129177327.003       -1265.241          43.000  
E 8  25381123.398   133378710.294       -3194.120          43.000  
E16  21155588.828   111173379.619       -1231.844          43.000  
E24  22240921.532   116876843.074       -1082.441          43.000  
E15  22222379.472   116779403.700        1272.868          43.000  
E17  23611043.724   124076872.433       -3218.397          43.000  
E22  25350512.259   133217851.755        2699.455          43.000  
E25  24918473.593   130947470.836       -3123.783          43.000  
E23  22431343.929   117877500.302        1475.376          43.000  
E 6  25460702.019   133796904.554        1028.529          43.000  
> 2019 12  1 15 21 37.9920000  0 23                     
G 2  21497402.702   112969615.025        2479.871          46.000  
G 4  19323348.590   101544882.798          -7.494          46.000  
G10  20497279.032   107713927.465        2751.271          46.000  
G13  19072859.544   100228555.400        2018.265          46.000  
G20  19346810.480   101668172.759       -3302.357          46.000  
G23  18123346.804    95238829.202          92.739          46.000  
G31  21095345.807   110856787.337       -3250.234          49.000  
G32  21598974.737   113503377.678       -3882.594          46.000  
R14  18019753.211    96055369.775        1593.914          44.000  
R13  18729494.873   100014387.624       -2634.556          49.000  
R 5  18062709.017    96555487.117        2075.570          46.000  
R20  19858596.115   106192801.774       -3607.150          46.000  
R 4  17256765.139    92409157.468       -1999.144          45.000  
E 7  24581861.246   129178563.341       -1216.215          43.000  
E 8  25381723.947   133381866.892       -3119.753          43.000  
E16  21155824.301   111174615.548       -1236.841          43.000  
E24  22241132.477   116877949.099       -1131.452          43.000  
E15  22222132.451   116778105.545        1321.429          43.000  
E17  23611661.464   124080119.854       -3270.675          43.000  
E22  25349998.804   133215152.501        2710.689          43.000  
E25  24919071.653   130950612.805       -3169.578          43.000  
E23  22431066.132   117876040.451        1451.409          43.000  
E 6  25460505.309   133795870.870        1026.868          43.000  
> 2019 12  1 15 21 38.9920000  0 23                     
G 2  21496931.869   112967139.563        2460.339          46.000  
G 4  19323347.406   101544877.044          11.212          46.000  
G10  20496752.565   107711161.660        2769.965          46.000  
G13  19072470.873   100226512.458        2065.814          46.000  
G20  19347438.566   101671473.836       -3291.161          46.000  
G23  18123327.591    95238729.271         108.453          46.000  
G31  21095970.896   110860072.230       -3316.748          49.000  
G32  21599715.122   113507267.993       -3886.934          46.000  
R14  18019454.711    96053778.446        1596.658          44.000  
R13  18729993.626   100017051.470       -2691.251          49.000  
R 5  18062318.891    96553403.125        2084.762          46.000  
R20  19859265.898   106196384.637       -3567.265          46.000  
R 4  17257139.638    92411163.859       -2009.518          45.000  
E 7  24582093.142   129179782.587       -1233.328          43.000  
E 8  25382312.591   133384962.399       -3081.407          43.000  
E16  21156058.324   111175846.360       -1222.131          43.000  
E24  22241351.817   116879100.697       -1166.041          43.000  
E15  22221878.502   116776772.122        1338.080          43.000  
E17  23612284.943   124083393.315       -3265.885          43.000  
E22  25349476.700   133212410.249        2778.889          43.000  
E25  24919681.637   130953818.988       -3241.478          43.000  
E23  22430788.240   117874578.877        1478.676          43.000  
E 6  25460315.752   133794872.469         963.656          43.000  
> 2019 12  1 15 21 39.9920000  0 23                     
G 2  21496469.862   112964712.756        2391.095          46.000  
G 4  19323347.992   101544879.669         -22.599          46.000  
G10  20496229.107   107708410.803        2724.443          46.000  
G13  19072075.960   100224436.849        2078.743          46.000  
G20  19348060.659   101674742.753       -3242.861          46.000  
G23  18123305.446    95238613.501         122.343          46.000  
G31  21096605.471   110863406.959       -3341.573          49.000  
G32  21600450.393   113511131.283       -3832.059          46.000  
R14  18019151.741    96052163.636        1637.230          44.000  
R13  18730500.542   100019758.318       -2713.119          49.000  
R 5  18061931.989    96551334.244        2048.490          46.000  
R20  19859934.638   106199960.887       -3594.671          46.000  
R 4  17257513.744    92413168.462       -1995.267          45.000  
E 7  24582334.540   129181048.847       -1302.312          43.000  
E 8  25382901.630   133388056.047       -3115.696          43.000  
E16  21156288.933   111177058.763       -1202.514          43.000  
E24  22241573.295   116880265.676       -1155.566          43.000  
E15  22221626.146   116775446.948        1306.855          43.000  
E17  23612901.241   124086633.541       -3208.999          43.000  
E22  25348941.412   133209597.730        2840.302          43.000  
E25  24920302.736   130957082.617       -3274.652          43.000  
E23  22430501.895   117873074.565        1530.858          43.000  
E 6  25460139.086   133793945.811         895.184          43.000  
> 2019 12  1 15 21 40.9920000  0 23                     
G 2  21496020.715   112962352.524        2337.225          46.000  
G 4  19323357.577   101544929.516         -76.575          46.000  
G10  20495716.923   107705720.346        2658.419          46.000  
G13  19071683.092   100222371.520        2046.085          46.000  
G20  19348673.118   101677961.638       -3199.905          46.000  
G23  18123281.963    95238489.597         122.864          46.000  
G31  21097237.998   110866732.384       -3300.551          49.000  
G32  21601172.930   113514928.783       -3766.566          46.000  
R14  18018840.407    96050503.347        1679.343          44.000  
R13  18731006.022   100022458.249       -2679.168          49.000  
R 5  18061553.647    96549310.301        2001.567          46.000  
R20  19860613.076   106203588.581       -3662.511          46.000  
R 4  17257883.584    92415149.979       -1967.996          45.000  
E 7  24582588.074   129182382.583       -1358.138          43.000  
E 8  25383501.326   133391208.095       -3189.614          43.000  
E16  21156516.878   111178255.817       -1194.727          43.000  
E24  22241788.965   116881399.094       -1108.489          43.000  
E15  22221382.669   116774165.369        1257.167          43.000  
E17  23613505.878   124089811.118       -3151.088          43.000  
E22  25348399.812   133206751.412        2840.509          43.000  
E25  24920923.211   130960343.382       -3236.898          43.000  
E23  22430206.838   117871525.248        1561.087          43.000  
E 6  25459970.979   133793060.848         886.174          43.000  
> 2019 12  1 15 21 41.9920000  0 23                     
G 2  21495576.046   112960016.367        2346.790          46.000  
G 4  19323375.405   101545023.090        -102.716          46.000  
G10  20495214.804   107703080.940        2630.949          46.000  
G13  19071298.356   100220350.759        1996.935          46.000  
G20  19349281.503   101681159.473       -3203.870          46.000  
G23  18123260.159    95238373.650         107.978          46.000  
G31  21097859.457   110869998.730       -3232.875          49.000  
G32  21601887.207   113518682.803       -3751.918          46.000  
R14  18018524.375    96048818.609        1682.520          44.000  
R13  18731502.346   100025108.862       -2622.219          49.000  
R 5  18061181.608    96547320.683        1985.489          46.000  
R20  19861303.363   106207279.547       -3710.679          46.000  
R 4  17258249.825    92417109.369       -1954.291          45.000  
E 7  24582846.911   129183743.097       -1351.312          43.000  
E 8  25384113.731   133394425.762       -3236.217          43.000  
E16  21156744.916   111179455.457       -1206.971          43.000  
E24  22241995.639   116882485.866       -1069.348          43.000  
E15  22221146.267   116772923.231        1234.258          43.000  
E17  23614103.686   124092954.809       -3146.237          43.000  
E22  25347864.941   133203939.366        2777.573          43.000  
E25  24921532.082   130963544.293       -3164.378          43.000  
E23  22429910.948   117869970.779        1540.728          43.000  
E 6  25459797.450   133792150.087         943.202          43.000  
> 2019 12  1 15 21 42.9920000  0 23                     
G 2  21495123.470   112957639.689        2410.791          46.000  
G 4  19323393.439   101545117.032         -77.675          46.000  
G10  20494711.507   107700436.211        2667.311          46.000  
G13  19070920.860   100218367.967        1975.793          46.000  
G20  19349895.327   101684384.610       -3251.122          46.000  
G23  18123241.149    95238274.630          91.051          46.000  
G31  21098470.620   110873210.608       -3201.015          49.000  
G32  21602605.120   113522455.474       -3801.736          46.000  
R14  18018212.047    96047153.331        1643.355          44.000  
R13  18731990.044   100027713.526       -2595.413          49.000  
R 5  18060808.178    96545323.317        2014.990          46.000  
R20  19861996.508   106210987.692       -3695.019          46.000  
R 4  17258615.909    92419068.194       -1967.647          45.000  
E 7  24583098.338   129185065.227       -1288.198          43.000  
E 8  25384728.334   133397655.854       -3213.177          43.000  
E16  21156977.078   111180673.297       -1228.723          43.000  
E24  22242199.176   116883553.919       -1074.657          43.000  
E15  22220909.605   116771680.140        1258.607          43.000  
E17  23614706.966   124096124.421       -3199.424          43.000  
E22  25347343.491   133201197.828        2710.123          43.000  
E25  24922129.062   130966683.247       -3123.629          43.000  
E23  22429623.032   117868455.799        1487.553          43.000  
E 6  25459610.964   133791169.786        1013.723          43.000  
> 2019 12  1 15 21 43.9920000  0 23                     
G 2  21494658.245   112955196.143        2470.416          46.000  
G 4  19323402.952   101545168.949         -24.696          46.000  
G10  20494197.655   107697735.612        2734.226          46.000  
G13  19070542.886   100216382.688        2002.236          46.000  
G20  19350519.116   101687661.334       -3298.037          46.000  
G23  18123224.593    95238187.095          87.449          46.000  
G31  21099082.071   110876423.735       -3234.253          49.000  
G32  21603335.501   113526292.552       -3869.804          46.000  
R14  18017908.832    96045534.960        1597.158          44.000  
R13  18732477.996   100030319.249       -2623.707          49.000  
R 5  18060426.620    96543284.369        2062.486          46.000  
R20  19862681.555   106214652.372       -3630.199          46.000  
R 4  17258986.146    92421049.754       -1995.465          45.000  
E 7  24583337.430   129186320.169       -1226.765          43.000  
E 8  25385333.028   133400834.598       -3140.892          43.000  
E16  21157212.256   111181909.185       -1239.594          43.000  
E24  22242407.248   116884649.445       -1119.286          43.000  
E15  22220665.334   116770397.425        1308.115          43.000  
E17  23615322.069   124099356.681       -3260.735          43.000  
E22  25346829.718   133198498.978        2699.890          43.000  
E25  24922725.554   130969815.977       -3152.146          43.000  
E23  22429344.193   117866989.599        1451.300          43.000  
E 6  25459414.952   133790141.211        1032.604          43.000  
> 2019 12  1 15 21 44.9920000  0 23                     
G 2  21494187.421   112952720.110        2470.056          46.000  
G 4  19323404.182   101545174.608           6.444          46.000  
G10  20493673.197   107694979.144        2769.309          46.000  
G13  19070157.507   100214356.080        2050.958          46.000  
G20  19351147.821   101690965.794       -3302.562          46.000  
G23  18123206.785    95238094.486          99.620          46.000  
G31  21099704.285   110879691.997       -3302.878          49.000  
G32  21604075.168   113530179.673       -3894.286          46.000  
R14  18017611.676    96043947.475        1585.599          44.000  
R13  18732974.939   100032971.726       -2682.224          49.000  
R 5  18060037.786    96541207.556        2083.704          46.000  
R20  19863354.876   106218252.382       -3576.932          46.000  
R 4  17259360.706    92423055.929       -2013.520          45.000  
E 7  24583569.553   129187540.281       -1224.677          43.000  
E 8  25385925.120   133403944.598       -3087.104          43.000  
E16  21157447.719   111183145.640       -1230.428          43.000  
E24  22242624.972   116885792.764       -1163.583          43.000  
E15  22220413.144   116769072.054        1336.329          43.000  
E17  23615945.148   124102629.893       -3275.301          43.000  
E22  25346311.003   133195774.651        2756.293          43.000  
E25  24923332.272   130973003.078       -3224.185          43.000  
E23  22429067.681   117865535.920        1463.908          43.000  
E 6  25459222.731   133789129.275         982.013          43.000  
> 2019 12  1 15 21 45.9920000  0 23                     
G 2  21493722.563   112950277.020        2410.315          46.000  
G 4  19323403.733   101545173.765         -12.889          46.000  
G10  20493148.151   107692219.256        2740.751          46.000  
G13  19069763.745   100212288.528        2077.466          46.000  
G20  19351772.412   101694249.812       -3260.086          46.000  
G23  18123186.104    95237986.244         116.167          46.000  
G31  21100337.403   110883019.814       -3343.687          49.000  
G32  21604812.863   113534057.393       -3851.888          46.000  
R14  18017311.733    96042348.097        1618.812          44.000  
R13  18733480.782   100035675.263       -2717.476          49.000  
R 5  18059649.640    96539132.671        2059.421          46.000  
R20  19864023.682   106221827.379       -3584.096          46.000  
R 4  17259736.283    92425067.356       -2004.949          45.000  
E 7  24583807.812   129188791.174       -1283.553          43.000  
E 8  25386512.809   133407032.649       -3100.486          43.000  
E16  21157679.660   111184365.830       -1209.568          43.000  
E24  22242847.687   116886961.488       -1166.107          43.000  
E15  22220159.987   116767741.229        1318.266          43.000  
E17  23616564.888   124105885.597       -3228.513          43.000  
E22  25345779.328   133192981.064        2827.519          43.000  
E25  24923951.343   130976256.188       -3273.350          43.000  
E23  22428784.224   117864048.148        1514.399          43.000  
E 6  25459043.068   133788184.848         908.529          43.000  
> 2019 12  1 15 21 46.9920000  0 23                     
G 2  21493270.907   112947902.443        2344.421          46.000  
G 4  19323411.302   101545212.883         -66.953          46.000  
G10  20492633.162   107689511.885        2673.014          46.000  
G13  19069369.797   100210218.548        2055.547          46.000  
G20  19352387.969   101697484.441       -3211.489          46.000  
G23  18123163.570    95237866.753         120.303          46.000  
G31  21100972.789   110886357.322       -3320.667          49.000  
G32  21605539.256   113537875.174       -3783.606          46.000  
R14  18017003.667    96040705.816        1664.301          44.000  
R13  18733988.805   100038388.074       -2698.895          49.000  
R 5  18059268.990    96537098.254        2009.947          46.000  
R20  19864699.363   106225440.697       -3647.150          46.000  
R 4  17260108.718    92427060.473       -1979.578          45.000  
E 7  24584058.746   129190110.731       -1351.035          43.000  
E 8  25387109.412   133410166.062       -3170.423          43.000  
E16  21157908.134   111185568.258       -1197.535          43.000  
E24  22243066.011   116888110.438       -1126.848          43.000  
E15  22219913.760   116766447.558        1268.320          43.000  
E17  23617172.922   124109081.764       -3165.728          43.000  
E22  25345238.234   133190138.186        2847.073          43.000  
E25  24924573.530   130979526.561       -3255.657          43.000  
E23  22428491.996   117862511.475        1554.312          43.000  
E 6  25458874.418   133787297.207         878.051          43.000  
> 2019 12  1 15 21 47.9920000  0 23                     
G 2  21492826.797   112945569.182        2334.070          46.000  
G 4  19323428.490   101545302.183        -105.266          46.000  
G10  20492129.193   107686864.777        2629.973          46.000  
G13  19068983.471   100208187.137        2006.389          46.000  
G20  19352997.280   101700686.387       -3200.258          46.000  
G23  18123141.617    95237751.088         109.238          46.000  
G31  21101598.534   110889646.025       -3254.280          49.000  
G32  21606255.400   113541637.567       -3750.417          46.000  
R14  18016688.939    96039029.714        1680.713          44.000  
R13  18734489.378   100041060.458       -2643.103          49.000  
R 5  18058896.293    96535105.904        1981.832          46.000  
R20  19865387.591   106229120.889       -3707.159          46.000  
R 4  17260476.246    92429028.962       -1959.706          45.000  
E 7  24584318.547   129191474.012       -1364.034          43.000  
E 8  25387719.225   133413370.529       -3231.555          43.000  
E16  21158136.477   111186767.983       -1204.551          43.000  
E24  22243275.774   116889212.862       -1080.304          43.000  
E15  22219676.548   116765199.529        1233.959          43.000  
E17  23617772.057   124112231.057       -3142.644          43.000  
E22  25344700.636   133187311.276        2798.084          43.000  
E25  24925186.729   130982749.667       -3186.495          43.000  
E23  22428195.812   117860956.240        1548.333          43.000  
E 6  25458703.838   133786403.698         919.568          43.000  
> 2019 12  1 15 21 48.9920000  0 23                     
G 2  21492378.180   112943212.104        2387.622          46.000  
G 4  19323448.353   101545406.119         -94.070          46.000  
G10  20491627.971   107684230.291        2649.675          46.000  
G13  19068605.299   100206199.916        1974.239          46.000  
G20  19353609.517   101703902.454       -3237.639          46.000  
G23  18123122.464    95237651.027          91.549          46.000  
G31  21102212.474   110892872.345       -3206.323          49.000  
G32  21606971.463   113545399.931       -3783.933          46.000  
R14  18016375.887    96037360.378        1651.713          44.000  
R13  18734979.978   100043680.306       -2602.762          49.000  
R 5  18058524.250    96533118.654        2000.102          46.000  
R20  19866082.489   106232835.322       -3710.425          46.000  
R 4  17260842.238    92430989.447       -1965.156          45.000  
E 7  24584573.370   129192816.054       -1311.948          43.000  
E 8  25388334.886   133416606.329       -3228.377          43.000  
E16  21158368.032   111187982.573       -1225.056          43.000  
E24  22243480.238   116890284.947       -1071.105          43.000  
E15  22219441.138   116763963.657        1245.837          43.000  
E17  23618373.038   124115389.173       -3182.103          43.000  
E22  25344175.345   133184550.616        2725.078          43.000  
E25  24925787.169   130985904.324       -3130.262          43.000  
E23  22427905.486   117859429.864        1500.778          43.000  
E 6  25458521.806   133785447.150         993.948          43.000  
> 2019 12  1 15 21 49.9920000  0 23                     
G 2  21491916.873   112940788.955        2455.273          46.000  
G 4  19323462.045   101545476.931         -44.336          46.000  
G10  20491117.563   107681550.004        2713.824          46.000  
G13  19068228.994   100204222.907        1987.759          46.000  
G20  19354230.930   101707167.500       -3290.336          46.000  
G23  18123106.274    95237565.089          83.050          46.000  
G31  21102822.877   110896081.087       -3221.768          49.000  
G32  21607698.315   113549218.393       -3853.850          46.000  
R14  18016070.918    96035733.574        1602.698          44.000  
R13  18735468.021   100046285.172       -2615.942          49.000  
R 5  18058145.898    96531095.957        2046.664          46.000  
R20  19866771.694   106236521.081       -3654.533          46.000  
R 4  17261211.707    92432967.090       -1991.536          45.000  
E 7  24584816.271   129194092.469       -1243.322          43.000  
E 8  25388943.369   133419805.767       -3164.483          43.000  
E16  21158603.043   111189216.929       -1241.170          43.000  
E24  22243686.746   116891371.788       -1107.941          43.000  
E15  22219200.035   116762696.157        1292.204          43.000  
E17  23618985.284   124118604.436       -3247.750          43.000  
E22  25343660.952   133181846.307        2694.416          43.000  
E25  24926382.431   130989033.124       -3139.021          43.000  
E23  22427624.710   117857954.235        1454.705          43.000  
E 6  25458328.139   133784429.372        1031.881          43.000  
> 2019 12  1 15 21 50.9920000  0 23                     
G 2  21491446.699   112938318.516        2474.762          46.000  
G 4  19323465.827   101545497.937          -2.424          46.000  
G10  20490595.928   107678807.870        2763.385          46.000  
G13  19067846.607   100202213.103        2034.661          46.000  
G20  19354859.419   101710471.640       -3309.558          46.000  
G23  18123089.880    95237479.310          91.299          46.000  
G31  21103442.019   110899333.558       -3286.457          49.000  
G32  21608436.387   113553097.635       -3895.564          46.000  
R14  18015773.400    96034146.692        1578.236          44.000  
R13  18735963.044   100048927.116       -2671.234          49.000  
R 5  18057759.459    96529030.221        2079.105          46.000  
R20  19867448.536   106240142.176       -3591.464          46.000  
R 4  17261586.054    92434971.832       -2015.056          45.000  
E 7  24585049.741   129195319.609       -1221.447          43.000  
E 8  25389538.766   133422934.766       -3098.392          43.000  
E16  21158839.040   111190458.040       -1237.550          43.000  
E24  22243902.151   116892505.317       -1157.288          43.000  
E15  22218949.991   116761382.523        1330.496          43.000  
E17  23619607.377   124121872.797       -3279.521          43.000  
E22  25343145.067   133179136.594        2735.038          43.000  
E25  24926985.757   130992202.603       -3204.840          43.000  
E23  22427349.064   117856504.859        1452.438          43.000  
E 6  25458134.084   133783408.784         998.786          43.000  
> 2019 12  1 15 21 51.9920000  0 23                     
G 2  21490979.731   112935863.215        2427.734          46.000  
G 4  19323465.766   101545498.641          -7.248          46.000  
G10  20490069.865   107676044.767        2752.535          46.000  
G13  19067455.537   100200157.898        2070.887          46.000  
G20  19355487.153   101713769.250       -3278.408          46.000  
G23  18123070.861    95237379.917         107.957          46.000  
G31  21104073.313   110902651.077       -3341.318          49.000  
G32  21609176.383   113556986.390       -3870.989          46.000  
R14  18015476.062    96032560.984        1600.220          44.000  
R13  18736468.412   100051624.652       -2718.262          49.000  
R 5  18057371.244    96526953.683        2066.841          46.000  
R20  19868118.376   106243722.420       -3579.722          46.000  
R 4  17261962.660    92436989.058       -2014.671          45.000  
E 7  24585285.987   129196559.378       -1266.723          43.000  
E 8  25390126.760   133426024.044       -3091.439          43.000  
E16  21159073.084   111191686.858       -1218.416          43.000  
E24  22244124.792   116893674.813       -1174.162          43.000  
E15  22218696.601   116760050.712        1325.512          43.000  
E17  23620228.985   124125141.317       -3248.047          43.000  
E22  25342617.813   133176364.608        2809.179          43.000  
E25  24927602.223   130995441.922       -3267.295          43.000  
E23  22427068.942   117855033.279        1495.860          43.000  
E 6  25457950.937   133782446.645         924.146          43.000  
> 2019 12  1 15 21 52.9920000  0 23                     
G 2  21490524.699   112933471.988        2357.007          46.000  
G 4  19323471.328   101545527.979         -55.307          46.000  
G10  20489551.704   107673321.196        2690.684          46.000  
G13  19067061.232   100198086.874        2063.284          46.000  
G20  19356105.916   101717021.123       -3225.694          46.000  
G23  18123048.924    95237266.213         117.371          46.000  
G31  21104709.598   110905995.648       -3336.544          49.000  
G32  21609906.708   113560824.899       -3803.022          46.000  
R14  18015171.211    96030937.530        1647.343          44.000  
R13  18736978.054   100054346.070       -2715.016          49.000  
R 5  18056988.892    96524909.012        2020.498          46.000  
R20  19868791.766   106247323.870       -3630.780          46.000  
R 4  17262337.041    92438993.304       -1991.346          45.000  
E 7  24585533.647   129197862.643       -1338.456          43.000  
E 8  25390719.818   133429141.092       -3149.655          43.000  
E16  21159302.768   111192896.027       -1201.367          43.000  
E24  22244346.122   116894837.005       -1143.729          43.000  
E15  22218448.330   116758745.737        1281.114          43.000  
E17  23620841.208   124128357.196       -3182.806          43.000  
E22  25342078.418   133173530.854        2848.789          43.000  
E25  24928225.381   130998716.344       -3269.304          43.000  
E23  22426779.521   117853511.928        1544.272          43.000  
E 6  25457780.582   133781550.923         876.604          43.000  
> 2019 12  1 15 21 53.9920000  0 23                     
G 2  21490079.825   112931135.165        2327.246          46.000  
G 4  19323486.514   101545609.112        -102.803          46.000  
G10  20489045.624   107670661.516        2634.723          46.000  
G13  19066672.897   100196044.530        2017.982          46.000  
G20  19356716.674   101720230.439       -3200.402          46.000  
G23  18123027.231    95237151.106         110.344          46.000  
G31  21105339.390   110909304.725       -3276.686          49.000  
G32  21610624.856   113564599.662       -3754.126          46.000  
R14  18014858.416    96029272.784        1675.684          44.000  
R13  18737481.911   100057038.373       -2664.781          49.000  
R 5  18056614.895    96522909.929        1982.648          46.000  
R20  19869477.451   106250989.617       -3698.198          46.000  
R 4  17262706.153    92440971.553       -1967.247          45.000  
E 7  24585792.462   129199222.254       -1370.744          43.000  
E 8  25391326.213   133432328.103       -3220.446          43.000  
E16  21159531.135   111194096.565       -1202.844          43.000  
E24  22244559.067   116895955.715       -1094.245          43.000  
E15  22218208.804   116757488.124        1238.158          43.000  
E17  23621441.969   124131516.115       -3143.547          43.000  
E22  25341538.164   133170692.662        2816.898          43.000  
E25  24928842.161   131001959.028       -3209.420          43.000  
E23  22426483.939   117851959.231        1553.021          43.000  
E 6  25457612.613   133780668.913         898.852          43.000  
> 2019 12  1 15 21 54.9920000  0 23                     
G 2  21489634.286   112928793.140        2365.509          46.000  
G 4  19323507.544   101545717.980        -106.810          46.000  
G10  20488545.529   107668031.317        2635.857          46.000  
G13  19066293.278   100194049.081        1976.531          46.000  
G20  19357327.410   101723439.574       -3225.958          46.000  
G23  18123008.003    95237048.996          93.015          46.000  
G31  21105956.510   110912548.509       -3217.156          49.000  
G32  21611339.650   113568355.678       -3769.384          46.000  
R14  18014544.700    96027601.636        1658.653          44.000  
R13  18737975.652   100059675.789       -2614.625          49.000  
R 5  18056244.505    96520928.397        1987.599          46.000  
R20  19870172.157   106254703.951       -3720.454          46.000  
R 4  17263073.349    92442934.937       -1964.627          45.000  
E 7  24586050.498   129200579.458       -1334.382          43.000  
E 8  25391942.278   133435562.845       -3238.221          43.000  
E16  21159761.530   111195307.447       -1221.116          43.000  
E24  22244764.419   116897034.884       -1071.561          43.000  
E15  22217974.367   116756254.809        1235.846          43.000  
E17  23622041.109   124134666.032       -3166.621          43.000  
E22  25341009.246   133167911.149        2743.846          43.000  
E25  24929446.170   131005132.187       -3142.073          43.000  
E23  22426191.248   117850422.516        1514.135          43.000  
E 6  25457435.174   133779735.386         970.895          43.000  
> 2019 12  1 15 21 55.9920000  0 23                     
G 2  21489177.368   112926392.460        2435.693          46.000  
G 4  19323524.434   101545806.701         -65.109          46.000  
G10  20488038.891   107665370.393        2691.948          46.000  
G13  19065918.088   100192077.066        1975.890          46.000  
G20  19357946.402   101726692.500       -3280.231          46.000  
G23  18122991.822    95236963.888          79.821          46.000  
G31  21106567.497   110915758.638       -3213.891          49.000  
G32  21612062.953   113572156.367       -3835.771          46.000  
R14  18014237.917    96025966.658        1610.156          44.000  
R13  18738464.538   100062284.788       -2612.050          49.000  
R 5  18055868.924    96518921.728        2029.299          46.000  
R20  19870864.796   106258408.139       -3678.650          46.000  
R 4  17263442.185    92444909.949       -1987.710          45.000  
E 7  24586297.884   129201879.203       -1264.033          43.000  
E 8  25392554.172   133438780.465       -3187.900          43.000  
E16  21159996.122   111196539.564       -1241.091          43.000  
E24  22244969.812   116898116.249       -1097.639          43.000  
E15  22217735.892   116755001.682        1275.434          43.000  
E17  23622650.052   124137864.388       -3231.723          43.000  
E22  25340492.257   133165196.489        2694.983          43.000  
E25  24930041.979   131008263.280       -3131.000          43.000  
E23  22425908.500   117848935.803        1461.698          43.000  
E 6  25457244.208   133778733.930        1024.667          43.000  
> 2019 12  1 15 21 56.9920000  0 23                     
G 2  21488709.595   112923933.005        2473.383          46.000  
G 4  19323532.029   101545845.580         -15.585          46.000  
G10  20487520.226   107662646.083        2752.150          46.000  
G13  19065538.439   100190082.929        2017.031          46.000  
G20  19358574.501   101729992.310       -3312.499          46.000  
G23  18122976.281    95236883.687          83.575          46.000  
G31  21107183.815   110918997.119       -3269.409          49.000  
G32  21612798.739   113576023.250       -3891.433          46.000  
R14  18013939.806    96024376.971        1574.809          44.000  
R13  18738957.436   100064917.749       -2659.473          49.000  
R 5  18055484.806    96516869.794        2070.452          46.000  
R20  19871546.174   106262052.360       -3610.594          46.000  
R 4  17263816.222    92446911.928       -2014.682          45.000  
E 7  24586533.605   129203118.735       -1224.216          43.000  
E 8  25393153.836   133441931.127       -3115.125          43.000  
E16  21160232.878   111197783.627       -1243.615          43.000  
E24  22245183.567   116899239.021       -1148.227          43.000  
E15  22217488.538   116753702.148        1320.921          43.000  
E17  23623270.342   124141123.289       -3278.385          43.000  
E22  25339978.217   133162496.426        2716.566          43.000  
E25  24930641.920   131011417.627       -3185.254          43.000  
E23  22425632.711   117847486.475        1445.054          43.000  
E 6  25457049.348   133777709.988        1011.672          43.000  
> 2019 12  1 15 21 57.9920000  0 23                     
G 2  21488240.712   112921468.940        2444.580          46.000  
G 4  19323532.930   101545851.320          -4.177          46.000  
G10  20486994.471   107659884.218        2761.163          46.000  
G13  19065149.816   100188041.786        2062.358          46.000  
G20  19359203.651   101733299.320       -3293.209          46.000  
G23  18122958.868    95236792.252         100.506          46.000  
G31  21107812.489   110922300.232       -3332.575          49.000  
G32  21613539.756   113579917.073       -3884.646          46.000  
R14  18013644.387    96022800.727        1585.368          44.000  
R13  18739460.779   100067605.697       -2713.233          49.000  
R 5  18055096.730    96514794.481        2072.787          46.000  
R20  19872217.427   106265642.424       -3578.928          46.000  
R 4  17264193.073    92448931.938       -2020.773          45.000  
E 7  24586767.992   129204351.012       -1250.738          43.000  
E 8  25393742.757   133445026.665       -3086.455          43.000  
E16  21160468.253   111199019.666       -1226.188          43.000  
E24  22245405.570   116900404.718       -1176.573          43.000  
E15  22217235.416   116752372.448        1330.966          43.000  
E17  23623894.152   124144399.246       -3262.842          43.000  
E22  25339454.769   133159745.311        2788.929          43.000  
E25  24931255.145   131014639.354       -3254.986          43.000  
E23  22425355.374   117846027.911        1478.858          43.000  
E 6  25456863.104   133776730.020         943.827          43.000  
> 2019 12  1 15 21 58.9920000  0 23                     
G 2  21487782.426   112919059.184        2373.370          45.000  
G 4  19323536.828   101545871.852         -43.647          44.000  
G10  20486473.532   107657145.525        2708.904          44.000  
G13  19064755.964   100185972.542        2067.856          44.000  
G20  19359825.424   101736567.695       -3242.142          44.000  
G23  18122938.067    95236684.413         113.054          44.000  
G31  21108449.034   110925645.361       -3347.408          48.000  
G32  21614273.407   113583774.096       -3823.932          44.000  
R14  18013343.074    96021194.701        1628.976          44.000  
R13  18739970.679   100070330.031       -2726.844          49.000  
R 5  18054712.429    96512739.698        2032.299          46.000  
R20  19872889.440   106269234.674       -3615.354          46.000  
R 4  17264568.806    92450945.162       -2002.696          45.000  
E 7  24587013.098   129205636.302       -1322.433          42.000  
E 8  25394333.342   133448129.974       -3130.261          42.000  
E16  21160699.791   111200235.523       -1207.131          42.000  
E24  22245628.602   116901575.954       -1158.912          42.000  
E15  22216984.983   116751056.951        1294.147          42.000  
E17  23624509.294   124147633.452       -3202.196          42.000  
E22  25338917.953   133156924.586        2844.253          42.000  
E25  24931877.962   131017910.953       -3277.436          42.000  
E23  22425068.687   117844522.376        1530.891          42.000  
E 6  25456690.338   133775820.581         881.379          42.000  
> 2019 12  1 15 21 59.9920000  0 23                     
G 2  21487335.981   112916714.186        2326.068          44.000  
G 4  19323550.524   101545943.267         -97.010          44.000  
G10  20485964.653   107654470.836        2644.270          44.000  
G13  19064365.819   100183921.422        2029.463          44.000  
G20  19360438.284   101739788.618       -3205.292          44.000  
G23  18122916.795    95236571.684         110.302          44.000  
G31  21109081.905   110928972.782       -3299.533          47.000  
G32  21614994.794   113587565.678       -3763.727          44.000  
R14  18013033.721    96019544.901        1666.406          44.000  
R13  18740478.179   100073040.570       -2687.058          49.000  
R 5  18054336.895    96510732.065        1986.920          46.000  
R20  19873572.096   106272885.158       -3685.429          46.000  
R 4  17264940.103    92452934.705       -1976.510          45.000  
E 7  24587270.236   129206987.664       -1371.815          42.000  
E 8  25394936.301   133451298.140       -3205.362          42.000  
E16  21160928.241   111201439.078       -1203.029          42.000  
E24  22245845.043   116902711.828       -1110.593          42.000  
E15  22216743.365   116749788.314        1245.462          41.000  
E17  23625113.063   124150806.693       -3150.325          42.000  
E22  25338376.610   133154080.940        2832.035          42.000  
E25  24932498.387   131021170.492       -3232.022          42.000  
E23  22424774.398   117842976.898        1553.117          42.000  
E 6  25456523.590   133774944.953         882.210          42.000  
> 2019 12  1 15 22  0.9920000  0 23                     
G 2  21486892.454   112914383.733        2346.155          46.000  
G 4  19323571.853   101546054.065        -116.032          46.000  
G10  20485464.255   107651840.904        2626.506          46.000  
G13  19063984.364   100181916.911        1982.101          46.000  
G20  19361048.608   101742995.789       -3217.061          47.000  
G23  18122897.410    95236469.101          94.234          46.000  
G31  21109703.264   110932237.961       -3233.270          49.000  
G32  21615709.754   113591322.014       -3759.557          46.000  
R14  18012720.694    96017876.870        1662.276          44.000  
R13  18740976.060   100075699.075       -2631.412          49.000  
R 5  18053966.925    96508753.758        1977.955          46.000  
R20  19874265.712   106276595.490       -3725.651          46.000  
R 4  17265308.111    92454904.505       -1966.907          45.000  
E 7  24587530.325   129208356.432       -1354.261          43.000  
E 8  25395550.972   133454527.353       -3242.592          44.000  
E16  21161158.453   111202648.349       -1217.698          44.000  
E24  22246052.814   116903802.913       -1076.849          44.000  
E15  22216509.029   116748554.904        1229.252          44.000  
E17  23625711.806   124153954.562       -3155.457          43.000  
E22  25337844.232   133151280.641        2764.326          44.000  
E25  24933106.333   131024365.742       -3159.858          44.000  
E23  22424481.049   117841433.987        1525.734          44.000  
E 6  25456349.786   133774034.197         945.727          44.000  
> 2019 12  1 15 22  1.9920000  0 23                     
G 2  21486439.557   112912005.306        2413.715          46.000  
G 4  19323591.430   101546157.860         -84.250          46.000  
G10  20484961.023   107649196.291        2670.899          46.000  
G13  19063609.474   100179945.735        1968.209          46.000  
G20  19361665.403   101746236.603       -3267.361          46.000  
G23  18122881.029    95236383.548          78.634          46.000  
G31  21110315.381   110935454.643       -3210.411          49.000  
G32  21616430.160   113595106.551       -3816.103          46.000  
R14  18012412.384    96016234.320        1619.267          44.000  
R13  18741465.979   100078316.547       -2612.050          49.000  
R 5  18053594.066    96506761.116        2012.784          46.000  
R20  19874960.951   106280313.534       -3699.877          46.000  
R 4  17265676.550    92456877.925       -1983.456          45.000  
E 7  24587782.116   129209679.043       -1286.834          43.000  
E 8  25396166.118   133457758.618       -3209.104          44.000  
E16  21161392.142   111203877.167       -1238.977          44.000  
E24  22246257.761   116904882.008       -1088.938          44.000  
E15  22216272.342   116747313.612        1259.836          44.000  
E17  23626317.392   124157136.820       -3213.806          44.000  
E22  25337324.870   133148550.903        2702.040          44.000  
E25  24933703.242   131027504.559       -3128.278          44.000  
E23  22424195.696   117839934.886        1472.271          44.000  
E 6  25456163.394   133773052.804        1012.120          44.000  
> 2019 12  1 15 22  2.9920000  0 23                     
G 2  21485974.585   112909560.786        2467.627          46.000  
G 4  19323602.486   101546215.330         -30.871          46.000  
G10  20484445.862   107646491.293        2737.404          46.000  
G13  19063232.397   100177964.330        2000.974          46.000  
G20  19362291.643   101749527.899       -3309.823          46.000  
G23  18122866.707    95236306.745          78.004          46.000  
G31  21110929.611   110938681.539       -3251.744          49.000  
G32  21617163.032   113598956.932       -3880.692          46.000  
R14  18012112.982    96014638.310        1576.759          44.000  
R13  18741957.966   100080942.461       -2647.096          49.000  
R 5  18053212.809    96504724.110        2059.414          46.000  
R20  19875646.591   106283980.641       -3631.974          46.000  
R 4  17266049.728    92458875.575       -2011.312          45.000  
E 7  24588021.003   129210934.835       -1231.434          44.000  
E 8  25396769.595   133460931.209       -3134.477          44.000  
E16  21161629.138   111205121.696       -1246.682          44.000  
E24  22246469.364   116905993.416       -1136.338          44.000  
E15  22216028.212   116746028.842        1309.201          44.000  
E17  23626935.167   124160381.737       -3270.846          44.000  
E22  25336811.799   133145854.051        2703.727          44.000  
E25  24934301.169   131030646.849       -3166.052          44.000  
E23  22423919.304   117838480.841        1442.818          44.000  
E 6  25455968.741   133772030.540        1020.958          44.000  
> 2019 12  1 15 22  3.9920000  0 23                     
G 2  21485504.934   112907093.297        2456.281          46.000  
G 4  19323605.547   101546230.480          -6.696          46.000  
G10  20483921.686   107643736.105        2763.204          46.000  
G13  19062846.817   100175939.085        2048.591          46.000  
G20  19362922.318   101752840.544       -3306.912          46.000  
G23  18122850.940    95236222.992          91.288          46.000  
G31  21111554.965   110941968.457       -3320.820          49.000  
G32  21617904.014   113602850.507       -3895.321          46.000  
R14  18011818.710    96013067.961        1571.939          44.000  
R13  18742459.137   100083619.372       -2706.111          49.000  
R 5  18052825.310    96502654.013        2073.418          46.000  
R20  19876320.885   106287585.640       -3585.937          46.000  
R 4  17266427.023    92460896.441       -2026.409          45.000  
E 7  24588255.154   129212165.059       -1240.211          44.000  
E 8  25397360.773   133464038.697       -3089.517          44.000  
E16  21161865.712   111206364.100       -1235.192          44.000  
E24  22246689.896   116907152.219       -1176.306          44.000  
E15  22215776.104   116744705.292        1330.899          44.000  
E17  23627559.252   124163660.266       -3275.649          44.000  
E22  25336291.847   133143122.369        2766.045          44.000  
E25  24934910.860   131033849.628       -3239.690          44.000  
E23  22423643.661   117837032.152        1462.427          44.000  
E 6  25455779.430   133771035.272         962.145          44.000  
> 2019 12  1 15 22  4.9920000  0 23                     
G 2  21485043.498   112904667.189        2391.376          46.000  
G 4  19323608.372   101546246.629         -33.282          46.000  
G10  20483398.987   107640987.116        2725.641          46.000  
G13  19062454.429   100173876.869        2068.312          46.000  
G20  19363547.263   101756125.938       -3260.055          46.000  
G23  18122831.784    95236123.287         106.779          46.000  
G31  21112190.710   110945310.222       -3353.125          49.000  
G32  21618641.150   113606724.849       -3845.470          46.000  
R14  18011520.900    96011479.390        1609.782          44.000  
R13  18742969.503   100086343.524       -2734.401          49.000  
R 5  18052439.808    96500592.747        2042.901          46.000  
R20  19876992.060   106291174.850       -3603.605          46.000  
R 4  17266804.415    92462918.509       -2014.124          45.000  
E 7  24588497.065   129213434.772       -1304.744          44.000  
E 8  25397949.725   133467134.459       -3113.540          44.000  
E16  21162098.442   111207588.614       -1214.209          44.000  
E24  22246914.353   116908330.219       -1171.914          44.000  
E15  22215524.943   116743383.379        1305.781          44.000  
E17  23628177.869   124166912.405       -3222.808          44.000  
E22  25335758.259   133140320.001        2833.361          44.000  
E25  24935531.986   131037114.330       -3280.299          44.000  
E23  22423360.243   117835544.346        1514.361          44.000  
E 6  25455603.491   133770110.200         891.162          44.000  
> 2019 12  1 15 22  5.9920000  0 23                     
G 2  21484594.886   112902309.381        2331.799          45.000  
G 4  19323619.782   101546307.055         -86.998          44.000  
G10  20482886.805   107638295.494        2658.872          44.000  
G13  19062063.073   100171819.171        2041.569          45.000  
G20  19364162.848   101759361.117       -3213.213          44.000  
G23  18122811.154    95236013.988         110.114          44.000  
G31  21112826.742   110948651.852       -3319.713          47.000  
G32  21619366.150   113610535.593       -3777.376          44.000  
R14  18011214.566    96009846.486        1654.543          44.000  
R13  18743479.752   100089068.685       -2706.589          49.000  
R 5  18052062.233    96498574.762        1995.102          46.000  
R20  19877672.117   106294809.905       -3669.231          46.000  
R 4  17267177.749    92464919.432       -1986.265          45.000  
E 7  24588751.583   129214773.381       -1365.949          42.000  
E 8  25398548.845   133470283.168       -3185.746          41.000  
E16  21162328.165   111208796.497       -1203.554          42.000  
E24  22247133.039   116909482.164       -1127.192          41.000  
E15  22215280.904   116742102.455        1256.670          42.000  
E17  23628784.981   124170102.776       -3160.896          41.000  
E22  25335216.842   133137476.391        2843.071          41.000  
E25  24936155.033   131040385.892       -3251.099          42.000  
E23  22423067.871   117834009.468        1550.150          41.000  
E 6  25455436.963   133769234.650         872.594          41.000  
> 2019 12  1 15 22  6.9920000  0 23                     
G 2  21484152.353   112899983.546        2331.635          44.000  
G 4  19323640.216   101546414.211        -119.877          44.000  
G10  20482384.865   107635659.153        2623.404          44.000  
G13  19061679.183   100169802.957        1991.578          44.000  
G20  19364773.392   101762568.879       -3210.293          44.000  
G23  18122791.298    95235910.020          96.422          44.000  
G31  21113452.138   110951938.092       -3252.136          47.000  
G32  21620081.945   113614296.189       -3753.983          44.000  
R14  18010902.220    96008183.828        1663.518          44.000  
R13  18743981.568   100091747.693       -2650.040          49.000  
R 5  18051691.901    96496594.343        1973.214          46.000  
R20  19878364.101   106298510.098       -3723.933          46.000  
R 4  17267547.284    92466896.087       -1970.049          45.000  
E 7  24589013.185   129216146.633       -1368.823          42.000  
E 8  25399161.038   133473500.197       -3239.971          42.000  
E16  21162558.344   111210003.817       -1213.773          42.000  
E24  22247342.972   116910586.476       -1084.801          41.000  
E15  22215045.272   116740863.672        1227.829          42.000  
E17  23629384.121   124173252.226       -3147.862          42.000  
E22  25334680.608   133134658.124        2786.031          41.000  
E25  24936766.617   131043602.377       -3179.821          41.000  
E23  22422773.484   117832462.416        1536.252          41.000  
E 6  25455266.917   133768342.043         922.226          42.000  
> 2019 12  1 15 22  7.9920000  0 23                     
G 2  21483703.293   112897625.318        2391.028          44.000  
G 4  19323661.854   101546529.190        -101.520          44.000  
G10  20481883.865   107633026.414        2652.242          44.000  
G13  19061303.495   100167828.401        1964.703          44.000  
G20  19365387.990   101765798.587       -3253.850          44.000  
G23  18122774.624    95235822.842          79.059          44.000  
G31  21114066.475   110955165.970       -3212.400          47.000  
G32  21620799.341   113618067.369       -3796.991          44.000  
R14  18010592.972    96006535.108        1628.759          44.000  
R13  18744473.952   100094377.493       -2616.506          49.000  
R 5  18051321.262    96494612.668        1997.165          46.000  
R20  19879060.932   106302236.435       -3717.288          46.000  
R 4  17267916.020    92468869.216       -1979.984          45.000  
E 7  24589268.667   129217489.873       -1310.557          41.000  
E 8  25399777.511   133476739.360       -3226.280          42.000  
E16  21162791.145   111211228.525       -1235.588          42.000  
E24  22247548.547   116911666.707       -1083.318          42.000  
E15  22214810.472   116739630.663        1246.118          42.000  
E17  23629987.033   124176420.336       -3195.209          42.000  
E22  25334157.917   133131909.579        2714.878          41.000  
E25  24937366.492   131046753.676       -3131.303          41.000  
E23  22422485.730   117830950.609        1485.248          42.000  
E 6  25455084.329   133767382.848         994.846          41.000  
> 2019 12  1 15 22  8.9920000  0 23                     
G 2  21483241.314   112895199.768        2454.846          44.000  
G 4  19323676.408   101546605.880         -49.925          44.000  
G10  20481373.093   107630341.889        2717.851          44.000  
G13  19060928.265   100165857.088        1985.182          44.000  
G20  19366012.514   101769079.074       -3304.275          44.000  
G23  18122760.618    95235748.333          72.668          44.000  
G31  21114679.344   110958385.873       -3237.697          47.000  
G32  21621528.745   113621899.551       -3867.003          44.000  
R14  18010291.986    96004931.262        1580.782          44.000  
R13  18744965.328   100097000.341       -2637.978          49.000  
R 5  18050943.352    96492591.801        2044.495          46.000  
R20  19879750.560   106305925.735       -3656.260          46.000  
R 4  17268288.460    92470862.695       -2008.042          45.000  
E 7  24589511.527   129218765.786       -1245.666          42.000  
E 8  25400384.935   133479933.602       -3157.479          41.000  
E16  21163027.851   111212472.234       -1249.378          41.000  
E24  22247758.287   116912768.335       -1124.810          41.000  
E15  22214568.907   116738361.322        1294.125          41.000  
E17  23630601.828   124179649.044       -3259.900          41.000  
E22  25333644.261   133129210.359        2694.870          41.000  
E25  24937962.967   131049889.105       -3150.738          42.000  
E23  22422207.697   117829488.673        1443.916          41.000  
E 6  25454891.175   133766368.456        1022.906          42.000  
> 2019 12  1 15 22  9.9920000  0 23                     
G 2  21482772.126   112892734.866        2463.654          44.000  
G 4  19323682.003   101546634.634         -13.329          44.000  
G10  20480851.026   107627598.687        2760.087          44.000  
G13  19060545.953   100163848.721        2032.983          44.000  
G20  19366643.056   101772393.567       -3315.850          44.000  
G23  18122746.006    95235671.872          82.602          44.000  
G31  21115301.628   110961656.557       -3305.518          47.000  
G32  21622268.617   113625787.888       -3899.979          44.000  
R14  18009997.841    96003363.413        1562.521          44.000  
R13  18745464.527   100099666.297       -2695.928          49.000  
R 5  18050557.597    96490530.959        2070.841          46.000  
R20  19880428.322   106309550.138       -3597.894          46.000  
R 4  17268665.572    92472882.923       -2029.059          45.000  
E 7  24589746.140   129220000.023       -1233.799          41.000  
E 8  25400979.395   133483058.096       -3097.960          42.000  
E16  21163265.604   111213720.064       -1243.036          41.000  
E24  22247977.130   116913918.215       -1171.839          41.000  
E15  22214319.100   116737047.845        1327.170          42.000  
E17  23631225.170   124182925.366       -3282.862          42.000  
E22  25333127.259   133126495.441        2743.883          42.000  
E25  24938568.489   131053073.490       -3221.110          42.000  
E23  22421933.216   117828046.444        1449.122          41.000  
E 6  25454699.886   133765362.056         979.974          42.000  
> 2019 12  1 15 22 10.9920000  0 23                     
G 2  21482308.342   112890294.676        2409.528          44.000  
G 4  19323684.699   101546650.107         -25.894          44.000  
G10  20480326.745   107624843.741        2739.846          44.000  
G13  19060155.546   100161797.033        2064.299          44.000  
G20  19367271.109   101775693.940       -3278.548          44.000  
G23  18122728.675    95235580.751          99.309          44.000  
G31  21115936.017   110964990.078       -3353.413          47.000  
G32  21623008.218   113629675.632       -3865.593          44.000  
R14  18009702.858    96001789.930        1590.573          44.000  
R13  18745973.746   100102386.128       -2737.424          49.000  
R 5  18050171.472    96488466.120        2051.836          46.000  
R20  19881100.147   106313141.570       -3595.967          46.000  
R 4  17269044.176    92474911.845       -2024.321          45.000  
E 7  24589985.444   129221256.648       -1287.118          42.000  
E 8  25401567.735   133486151.853       -3101.525          42.000  
E16  21163499.982   111214953.276       -1222.554          41.000  
E24  22248201.937   116915098.924       -1181.690          41.000  
E15  22214066.833   116735722.853        1314.968          42.000  
E17  23631846.794   124186192.298       -3242.960          42.000  
E22  25332597.990   133123713.882        2817.191          42.000  
E25  24939187.918   131056326.432       -3277.342          42.000  
E23  22421653.361   117826575.529        1496.489          42.000  
E 6  25454520.746   133764419.459         905.350          42.000  
> 2019 12  1 15 22 11.9920000  0 23                     
G 2  21481856.436   112887920.536        2341.547          46.000  
G 4  19323694.347   101546699.396         -76.614          46.000  
G10  20479811.111   107622134.657        2675.073          46.000  
G13  19059763.453   100159735.624        2049.858          46.000  
G20  19367889.610   101778945.009       -3226.378          46.000  
G23  18122708.614    95235475.842         107.011          46.000  
G31  21116573.541   110968340.745       -3338.078          49.000  
G32  21623737.308   113633506.335       -3795.782          46.000  
R14  18009399.647    96000174.766        1638.212          44.000  
R13  18746486.102   100105121.440       -2725.081          49.000  
R 5  18049792.204    96486436.953        2004.529          46.000  
R20  19881777.193   106316762.485       -3652.979          46.000  
R 4  17269419.753    92476923.552       -1998.412          45.000  
E 7  24590237.429   129222579.125       -1356.070          44.000  
E 8  25402163.558   133489282.069       -3165.935          44.000  
E16  21163730.960   111216166.522       -1207.051          44.000  
E24  22248424.231   116916264.704       -1145.316          44.000  
E15  22213820.997   116734429.388        1268.507          44.000  
E17  23632457.332   124189401.243       -3176.807          43.000  
E22  25332057.796   133120875.680        2847.398          44.000  
E25  24939811.678   131059604.283       -3267.991          44.000  
E23  22421364.267   117825053.933        1541.501          44.000  
E 6  25454352.668   133763537.873         866.833          44.000  
> 2019 12  1 15 22 12.9920000  0 23                     
G 2  21481414.049   112885594.910        2321.436          46.000  
G 4  19323713.797   101546800.681        -120.071          46.000  
G10  20479307.934   107619488.624        2625.072          46.000  
G13  19059377.964   100157708.933        2001.697          46.000  
G20  19368501.116   101782158.829       -3208.741          46.000  
G23  18122689.094    95235372.696          97.390          46.000  
G31  21117202.979   110971648.984       -3274.475          49.000  
G32  21624455.138   113637277.640       -3755.180          46.000  
R14  18009089.326    95998522.510        1659.901          44.000  
R13  18746991.752   100107821.887       -2671.646          49.000  
R 5  18049420.947    96484452.306        1971.261          46.000  
R20  19882467.096   106320450.352       -3717.964          46.000  
R 4  17269790.596    92478910.077       -1976.522          45.000  
E 7  24590498.755   129223952.448       -1379.098          44.000  
E 8  25402773.301   133492484.076       -3232.232          44.000  
E16  21163960.825   111217374.637       -1211.675          44.000  
E24  22248637.106   116917385.492       -1097.562          44.000  
E15  22213583.571   116733183.301        1229.310          44.000  
E17  23633057.831   124192558.612       -3146.407          44.000  
E22  25331519.163   133118044.491        2805.822          44.000  
E25  24940427.858   131062842.304       -3202.702          44.000  
E23  22421069.930   117823508.069        1542.205          44.000  
E 6  25454185.396   133762660.278         899.479          44.000  
> 2019 12  1 15 22 13.9920000  0 23                     
G 2  21480968.371   112883254.311        2367.896          46.000  
G 4  19323737.156   101546923.283        -116.517          46.000  
G10  20478808.388   107616863.429        2635.871          46.000  
G13  19059001.109   100155728.140        1964.666          46.000  
G20  19369114.299   101785380.325       -3241.213          46.000  
G23  18122671.973    95235284.018          79.684          46.000  
G31  21117820.512   110974892.907       -3220.739          49.000  
G32  21625171.321   113641040.263       -3780.824          46.000  
R14  18008779.458    95996870.798        1636.344          44.000  
R13  18747487.138   100110468.174       -2626.377          49.000  
R 5  18049051.748    96482478.753        1983.086          46.000  
R20  19883164.629   106324179.932       -3730.674          46.000  
R 4  17270159.503    92480885.415       -1978.677          45.000  
E 7  24590758.052   129225313.512       -1334.310          44.000  
E 8  25403390.535   133495725.768       -3239.408          44.000  
E16  21164193.489   111218595.823       -1232.029          44.000  
E24  22248843.392   116918471.281       -1081.923          44.000  
E15  22213350.046   116731955.385        1234.036          44.000  
E17  23633659.074   124195716.672       -3178.931          44.000  
E22  25330992.345   133115275.860        2731.266          44.000  
E25  24941031.130   131066010.821       -3140.919          44.000  
E23  22420780.108   117821985.297        1498.095          44.000  
E 6  25454007.435   133761724.729         972.891          44.000  
> 2019 12  1 15 22 14.9920000  0 23                     
G 2  21480510.987   112880850.498        2437.811          46.000  
G 4  19323755.383   101547018.690         -70.009          46.000  
G10  20478301.089   107614199.103        2697.079          46.000  
G13  19058627.136   100153763.773        1971.975          46.000  
G20  19369736.146   101788648.910       -3294.948          46.000  
G23  18122658.301    95235210.859          69.080          46.000  
G31  21118432.956   110978111.261       -3227.061          49.000  
G32  21625897.071   113644854.161       -3849.404          46.000  
R14  18008477.111    95995258.739        1587.675          44.000  
R13  18747978.575   100113092.681       -2631.802          49.000  
R 5  18048676.368    96480474.294        2028.289          46.000  
R20  19883858.053   106327889.380       -3680.584          46.000  
R 4  17270531.681    92482875.588       -2003.521          45.000  
E 7  24591004.938   129226612.132       -1263.908          44.000  
E 8  25404001.966   133498939.859       -3180.997          44.000  
E16  21164429.629   111219837.725       -1249.593          44.000  
E24  22249051.438   116919565.796       -1113.294          44.000  
E15  22213111.150   116730701.112        1277.976          44.000  
E17  23634270.187   124198928.372       -3244.972          44.000  
E22  25330477.317   133112568.979        2692.390          44.000  
E25  24941627.478   131069145.381       -3139.709          44.000  
E23  22420499.949   117820513.204        1449.488          44.000  
E 6  25453817.336   133760724.030        1019.499          44.000  
> 2019 12  1 15 22 15.9920000  0 23                     
G 2  21480043.391   112878393.101        2466.656          46.000  
G 4  19323763.801   101547063.423         -23.330          46.000  
G10  20477782.002   107611471.296        2752.545          46.000  
G13  19058247.925   100151771.057        2017.018          46.000  
G20  19370366.391   101791960.428       -3320.086          46.000  
G23  18122644.725    95235139.910          75.391          46.000  
G31  21119052.401   110981366.095       -3287.561          49.000  
G32  21626634.788   113648731.710       -3897.715          46.000  
R14  18008182.783    95993689.094        1558.391          44.000  
R13  18748475.985   100115747.934       -2683.316          49.000  
R 5  18048292.677    96478425.158        2065.117          46.000  
R20  19884539.711   106331535.300       -3613.828          46.000  
R 4  17270908.065    92484892.945       -2028.784          45.000  
E 7  24591241.264   129227855.328       -1232.568          44.000  
E 8  25404599.994   133502084.101       -3111.122          44.000  
E16  21164668.163   111221088.721       -1248.727          44.000  
E24  22249268.543   116920704.596       -1163.226          44.000  
E15  22212863.903   116729399.866        1320.672          44.000  
E17  23634892.195   124202196.898       -3283.591          44.000  
E22  25329963.098   133109865.764        2724.654          44.000  
E25  24942229.994   131072312.430       -3200.635          44.000  
E23  22420225.876   117819072.570        1440.446          44.000  
E 6  25453624.540   133759710.716         995.959          44.000  
> 2019 12  1 15 22 16.9920000  0 23                     
G 2  21479576.838   112875941.679        2427.020          44.000  
G 4  19323766.944   101547081.582         -21.258          44.000  
G10  20477257.607   107608714.660        2750.071          44.000  
G13  19057859.952   100149732.031        2057.209          44.000  
G20  19370996.244   101795271.975       -3294.895          44.000  
G23  18122628.766    95235056.675          91.732          44.000  
G31  21119684.226   110984686.633       -3347.614          47.000  
G32  21627375.944   113652627.218       -3882.032          44.000  
R14  18007889.985    95992126.784        1573.736          43.000  
R13  18748983.668   100118459.312       -2734.979          49.000  
R 5  18047906.071    96476359.412        2058.853          46.000  
R20  19885212.491   106335133.629       -3592.936          46.000  
R 4  17271287.206    92486925.719       -2032.101          45.000  
E 7  24591478.476   129229101.854       -1270.065          42.000  
E 8  25405189.166   133505180.919       -3093.851          42.000  
E16  21164903.894   111222329.427       -1230.680          41.000  
E24  22249492.950   116921883.271       -1186.652          41.000  
E15  22212611.559   116728074.780        1321.917          41.000  
E17  23635515.561   124205473.684       -3260.070          41.000  
E22  25329437.670   133107105.099        2798.251          41.000  
E25  24942845.669   131075549.010       -3267.781          41.000  
E23  22419948.400   117817615.869        1479.140          41.000  
E 6  25453441.574   133758749.587         923.641          41.000  
> 2019 12  1 15 22 17.9920000  0 23                     
G 2  21479122.037   112873550.647        2355.969          44.000  
G 4  19323774.633   101547122.263         -65.002          44.000  
G10  20476739.131   107605990.556        2692.883          44.000  
G13  19057467.881   100147671.705        2056.160          44.000  
G20  19371618.085   101798540.943       -3241.845          44.000  
G23  18122609.990    95234958.445         103.286          44.000  
G31  21120322.843   110988042.104       -3351.787          47.000  
G32  21628108.635   113656478.638       -3816.166          44.000  
R14  18007590.710    95990530.714        1620.087          43.000  
R13  18749497.111   100121201.328       -2739.207          49.000  
R 5  18047524.828    96474320.820        2015.554          46.000  
R20  19885887.880   106338744.602       -3637.040          46.000  
R 4  17271664.811    92488948.520       -2010.292          44.000  
E 7  24591727.235   129230407.863       -1341.687          41.000  
E 8  25405782.017   133508296.645       -3145.567          41.000  
E16  21165135.988   111223550.303       -1211.975          41.000  
E24  22249717.312   116923061.206       -1161.866          41.000  
E15  22212363.675   116726771.116        1281.588          41.000  
E17  23636130.164   124208702.723       -3195.482          41.000  
E22  25328899.844   133104278.769        2846.262          41.000  
E25  24943470.066   131078828.491       -3279.117          41.000  
E23  22419662.062   117816110.791        1529.533          41.000  
E 6  25453271.936   133757857.943         868.532          41.000  
> 2019 12  1 15 22 18.9920000  0 23                     
G 2  21478678.267   112871219.128        2317.310          44.000  
G 4  19323792.454   101547214.434        -116.137          44.000  
G10  20476232.989   107603330.607        2631.969          44.000  
G13  19057080.172   100145634.937        2013.348          44.000  
G20  19372231.335   101801764.116       -3210.998          44.000  
G23  18122590.729    95234856.672          98.115          44.000  
G31  21120955.889   110991369.851       -3297.281          47.000  
G32  21628829.194   113660264.448       -3761.685          44.000  
R14  18007283.228    95988891.507        1652.859          43.000  
R13  18750006.299   100123920.959       -2693.740          49.000  
R 5  18047152.253    96472328.465        1973.806          46.000  
R20  19886574.878   106342417.308       -3706.780          46.000  
R 4  17272037.862    92490945.552       -1984.958          45.000  
E 7  24591987.156   129231775.142       -1382.910          41.000  
E 8  25406388.142   133511480.253       -3219.049          41.000  
E16  21165365.960   111224760.198       -1210.592          41.000  
E24  22249933.197   116924198.750       -1112.543          41.000  
E15  22212124.631   116725514.603        1235.134          41.000  
E17  23636733.460   124211871.935       -3150.067          41.000  
E22  25328359.583   133101438.888        2823.132          41.000  
E25  24944089.675   131082084.888       -3225.627          41.000  
E23  22419368.567   117814569.609        1544.962          41.000  
E 6  25453106.681   133756989.408         880.736          41.000  
> 2019 12  1 15 22 19.9920000  0 23                     
G 2  21478235.355   112868891.789        2347.113          44.000  
G 4  19323816.524   101547340.242        -127.605          44.000  
G10  20475733.937   107600707.575        2624.203          44.000  
G13  19056701.714   100143645.215        1968.819          44.000  
G20  19372843.613   101804980.657       -3230.381          44.000  
G23  18122573.467    95234766.440          81.234          44.000  
G31  21121576.852   110994633.012       -3233.923          47.000  
G32  21629544.542   113664023.530       -3768.057          44.000  
R14  18006973.007    95987240.075        1641.922          43.000  
R13  18750505.576   100126586.391       -2640.377          49.000  
R 5  18046783.791    96470359.247        1972.139          46.000  
R20  19887271.966   106346144.571       -3738.062          46.000  
R 4  17272408.116    92492925.158       -1978.867          45.000  
E 7  24592248.768   129233149.505       -1355.396          41.000  
E 8  25407004.396   133514718.461       -3246.632          41.000  
E16  21165598.129   111225978.332       -1227.798          41.000  
E24  22250141.719   116925293.734       -1084.140          41.000  
E15  22211891.145   116724287.723        1226.258          41.000  
E17  23637333.088   124215024.335       -3165.283          41.000  
E22  25327828.943   133098649.914        2751.703          41.000  
E25  24944696.192   131085273.518       -3155.040          41.000  
E23  22419077.447   117813038.122        1511.107          41.000  
E 6  25452932.674   133756076.705         948.863          41.000  
> 2019 12  1 15 22 20.9920000  0 23                     
G 2  21477782.144   112866510.045        2417.487          46.000  
G 4  19323837.654   101547451.802         -89.449          46.000  
G10  20475230.210   107598060.825        2675.938          46.000  
G13  19056328.220   100141683.404        1962.809          47.000  
G20  19373463.410   101808236.419       -3282.607          46.000  
G23  18122559.661    95234692.958          67.716          46.000  
G31  21122189.874   110997854.707       -3220.302          50.000  
G32  21630267.024   113667819.694       -3829.522          46.000  
R14  18006668.967    95985619.547        1596.766          44.000  
R13  18750998.222   100129216.601       -2628.833          49.000  
R 5  18046411.652    96468369.465        2011.642          46.000  
R20  19887968.308   106349869.874       -3702.862          46.000  
R 4  17272779.771    92494912.547       -1998.867          45.000  
E 7  24592500.129   129234470.950       -1285.204          44.000  
E 8  25407618.923   133517948.223       -3203.032          44.000  
E16  21165833.584   111227216.906       -1247.910          44.000  
E24  22250348.947   116926383.754       -1103.085          44.000  
E15  22211654.784   116723046.240        1262.419          44.000  
E17  23637940.729   124218218.773       -3226.838          44.000  
E22  25327311.123   133095929.875        2696.567          44.000  
E25  24945293.446   131088412.485       -3133.621          44.000  
E23  22418794.875   117811553.736        1458.967          44.000  
E 6  25452745.561   133755093.772        1010.212          44.000  
> 2019 12  1 15 22 21.9920000  0 23                     
G 2  21477317.124   112864065.892        2462.360          46.000  
G 4  19323849.102   101547515.187         -38.557          46.000  
G10  20474714.543   107595351.972        2738.672          46.000  
G13  19055951.658   100139705.341        1999.343          47.000  
G20  19374092.410   101811541.805       -3321.168          46.000  
G23  18122547.121    95234626.797          68.154          46.000  
G31  21122806.938   111001096.778       -3270.534          49.000  
G32  21631002.392   113671683.052       -3891.080          46.000  
R14  18006373.758    95984045.651        1556.591          44.000  
R13  18751494.192   100131863.928       -2671.763          49.000  
R 5  18046030.971    96466334.987        2054.683          46.000  
R20  19888654.054   106353539.289       -3634.867          46.000  
R 4  17273156.067    92496926.548       -2027.553          45.000  
E 7  24592739.780   129235728.753       -1237.877          44.000  
E 8  25408221.614   133521114.725       -3129.866          44.000  
E16  21166072.652   111228469.920       -1254.093          44.000  
E24  22250564.040   116927511.626       -1153.332          44.000  
E15  22211409.979   116721759.782        1309.432          44.000  
E17  23638560.864   124221475.870       -3280.192          44.000  
E22  25326798.133   133093233.608        2708.237          44.000  
E25  24945893.912   131091565.946       -3181.671          44.000  
E23  22418520.421   117810111.134        1434.709          44.000  
E 6  25452552.490   133754079.730        1006.664          44.000  
> 2019 12  1 15 22 22.9920000  0 23                     
G 2  21476849.530   112861608.304        2441.833          46.000  
G 4  19323854.130   101547540.640         -20.566          46.000  
G10  20474190.699   107592599.276        2755.950          46.000  
G13  19055566.383   100137681.466        2046.174          46.000  
G20  19374724.125   101814861.192       -3309.234          46.000  
G23  18122532.694    95234551.527          83.563          46.000  
G31  21123435.959   111004401.998       -3337.164          49.000  
G32  21631744.362   113675581.313       -3894.385          46.000  
R14  18006082.514    95982491.228        1559.838          44.000  
R13  18752000.257   100134564.966       -2728.692          49.000  
R 5  18045645.138    96464272.483        2062.488          46.000  
R20  19889329.717   106357150.103       -3595.956          46.000  
R 4  17273535.880    92498961.331       -2037.806          45.000  
E 7  24592975.968   129236970.454       -1256.567          44.000  
E 8  25408812.732   133524220.711       -3092.531          44.000  
E16  21166310.006   111229717.653       -1239.071          44.000  
E24  22250787.442   116928685.068       -1187.689          44.000  
E15  22211158.742   116720438.866        1324.947          44.000  
E17  23639185.422   124224758.012       -3273.926          44.000  
E22  25326276.472   133090493.490        2776.606          44.000  
E25  24946506.340   131094784.216       -3253.818          44.000  
E23  22418245.324   117808666.181        1462.286          44.000  
E 6  25452367.018   133753101.943         942.775          44.000  
> 2019 12  1 15 22 23.9920000  0 23                     
G 2  21476391.377   112859199.507        2373.749          46.000  
G 4  19323861.070   101547574.460         -53.583          46.000  
G10  20473669.738   107589862.104        2711.131          46.000  
G13  19055174.911   100135625.296        2059.233          46.000  
G20  19375349.471   101818146.993       -3258.657          46.000  
G23  18122515.209    95234460.189          98.271          46.000  
G31  21124073.874   111007756.010       -3359.802          49.000  
G32  21632480.835   113679450.783       -3837.189          46.000  
R14  18005786.109    95980912.602        1601.575          44.000  
R13  18752514.048   100137308.244       -2748.700          49.000  
R 5  18045262.385    96462225.324        2027.257          46.000  
R20  19890003.789   106360754.583       -3622.774          46.000  
R 4  17273915.431    92500993.077       -2021.267          45.000  
E 7  24593221.517   129238259.317       -1324.257          44.000  
E 8  25409403.553   133527325.401       -3126.868          44.000  
E16  21166543.708   111230946.148       -1217.936          44.000  
E24  22251013.499   116929870.884       -1175.487          44.000  
E15  22210909.171   116719126.450        1294.385          44.000  
E17  23639803.208   124228005.299       -3215.320          44.000  
E22  25325741.537   133087682.764        2838.825          44.000  
E25  24947129.235   131098058.800       -3284.630          44.000  
E23  22417962.147   117807177.835        1514.992          44.000  
E 6  25452194.665   133752195.403         876.236          44.000  
> 2019 12  1 15 22 24.9920000  0 23                     
G 2  21475945.424   112856856.558        2319.690          46.000  
G 4  19323876.403   101547655.205        -108.010          46.000  
G10  20473160.320   107587185.154        2644.251          47.000  
G13  19054786.138   100133579.756        2025.570          46.000  
G20  19375965.030   101821382.187       -3217.176          46.000  
G23  18122496.424    95234360.377          97.994          46.000  
G31  21124710.120   111011099.328       -3318.810          49.000  
G32  21633204.437   113683253.733       -3773.027          46.000  
R14  18005481.266    95979288.392        1642.494          44.000  
R13  18753026.120   100140043.534       -2714.859          49.000  
R 5  18044887.720    96460222.550        1980.043          46.000  
R20  19890687.545   106364410.741       -3692.111          46.000  
R 4  17274290.253    92503000.606       -1994.412          45.000  
E 7  24593479.632   129239615.108       -1380.559          44.000  
E 8  25410005.786   133530488.679       -3201.279          44.000  
E16  21166774.275   111232158.773       -1210.974          44.000  
E24  22251232.724   116931024.287       -1129.229          44.000  
E15  22210667.411   116717857.275        1244.377          44.000  
E17  23640409.291   124231189.346       -3158.635          44.000  
E22  25325200.367   133084839.013        2836.365          44.000  
E25  24947751.789   131101328.952       -3246.574          44.000  
E23  22417670.122   117805644.587        1543.784          44.000  
E 6  25452029.747   133751329.317         867.322          44.000  
> 2019 12  1 15 22 25.9920000  0 23                     
G 2  21475503.990   112854537.624        2329.828          44.000  
G 4  19323900.517   101547780.279        -134.216          44.000  
G10  20472661.030   107584559.281        2617.886          44.000  
G13  19054405.339   100131579.706        1976.482          44.000  
G20  19376576.804   101824597.951       -3222.264          44.000  
G23  18122479.028    95234269.305          82.989          44.000  
G31  21125335.245   111014383.983       -3251.400          47.000  
G32  21633919.989   113687015.019       -3760.233          44.000  
R14  18005171.874    95977641.246        1644.753          43.000  
R13  18753529.031   100142730.007       -2657.967          49.000  
R 5  18044519.796    96458254.118        1964.750          46.000  
R20  19891383.468   106368130.986       -3739.919          46.000  
R 4  17274661.292    92504986.914       -1981.763          45.000  
E 7  24593742.674   129240997.771       -1372.902          41.000  
E 8  25410620.400   133533718.163       -3247.749          42.000  
E16  21167005.609   111233375.130       -1224.029          41.000  
E24  22251443.261   116932131.975       -1090.541          41.000  
E15  22210433.434   116716627.853        1221.793          41.000  
E17  23641008.654   124234341.410       -3155.609          41.000  
E22  25324666.218   133082031.517        2772.952          41.000  
E25  24948362.570   131104539.513       -3173.775          41.000  
E23  22417377.608   117804107.890        1522.281          42.000  
E 6  25451859.784   133750437.431         924.433          41.000  
> 2019 12  1 15 22 26.9920000  0 23                     
G 2  21475054.850   112852177.602        2394.299          44.000  
G 4  19323924.063   101547905.383        -108.333          44.000  
G10  20472160.170   107581927.134        2655.313          44.000  
G13  19054031.883   100129617.017        1956.340          44.000  
G20  19377194.411   101827842.152       -3270.196          44.000  
G23  18122465.101    95234195.051          66.532          44.000  
G31  21125949.977   111017614.750       -3220.200          47.000  
G32  21634639.606   113690796.398       -3810.722          44.000  
R14  18004866.958    95976014.037        1605.236          44.000  
R13  18754023.531   100145370.865       -2631.664          49.000  
R 5  18044149.681    96456277.267        1994.811          46.000  
R20  19892082.179   106371867.808       -3723.146          46.000  
R 4  17275032.397    92506973.450       -1995.288          45.000  
E 7  24593998.446   129242341.468       -1309.448          41.000  
E 8  25411237.003   133536959.180       -3223.000          42.000  
E16  21167240.722   111234610.191       -1245.987          41.000  
E24  22251650.347   116933221.580       -1096.380          41.000  
E15  22210199.215   116715396.839        1246.992          41.000  
E17  23641614.104   124237520.729       -3209.232          41.000  
E22  25324145.366   133079294.749        2705.548          41.000  
E25  24948962.007   131107688.791       -3134.149          41.000  
E23  22417093.050   117802611.110        1469.999          41.000  
E 6  25451676.967   133749476.017         994.695          41.000  
> 2019 12  1 15 22 27.9920000  0 23                     
G 2  21474592.844   112849750.239        2453.851          44.000  
G 4  19323939.428   101547987.607         -55.234          44.000  
G10  20471648.346   107579238.095        2722.458          44.000  
G13  19053657.665   100127650.317        1983.688          44.000  
G20  19377821.356   101831137.575       -3316.527          44.000  
G23  18122453.054    95234131.511          63.297          44.000  
G31  21126564.892   111020847.061       -3253.820          47.000  
G32  21635371.496   113694642.055       -3878.206          44.000  
R14  18004570.278    95974432.802        1560.362          43.000  
R13  18754518.293   100148012.708       -2660.040          49.000  
R 5  18043772.019    96454258.155        2042.485          46.000  
R20  19892772.231   106375559.773       -3657.334          46.000  
R 4  17275407.835    92508982.846       -2023.363          45.000  
E 7  24594240.808   129243617.320       -1248.113          41.000  
E 8  25411843.305   133540147.488       -3150.535          41.000  
E16  21167479.003   111235862.780       -1256.269          41.000  
E24  22251862.784   116934338.483       -1140.796          41.000  
E15  22209956.886   116714125.367        1296.609          41.000  
E17  23642230.882   124240762.407       -3270.236          41.000  
E22  25323632.810   133076598.885        2697.598          41.000  
E25  24949559.991   131110832.312       -3163.423          41.000  
E23  22416817.203   117801162.006        1434.870          41.000  
E 6  25451484.663   133748466.416        1013.294          41.000  
> 2019 12  1 15 22 28.9920000  0 23                     
G 2  21474125.000   112847291.456        2452.161          44.000  
G 4  19323946.459   101548023.947         -24.459          44.000  
G10  20471126.094   107576494.039        2756.294          44.000  
G13  19053275.294   100125642.281        2032.064          44.000  
G20  19378453.867   101834460.234       -3320.302          44.000  
G23  18122439.968    95234063.120          75.027          44.000  
G31  21127190.790   111024135.241       -3323.022          47.000  
G32  21636112.607   113698537.083       -3901.405          44.000  
R14  18004279.356    95972882.032        1548.823          44.000  
R13  18755021.941   100150701.922       -2719.199          49.000  
R 5  18043386.993    96452202.171        2062.286          46.000  
R20  19893450.678   106379187.165       -3604.569          46.000  
R 4  17275787.639    92511017.132       -2041.535          45.000  
E 7  24594476.958   129244859.220       -1247.211          41.000  
E 8  25412437.144   133543267.329       -3097.388          41.000  
E16  21167717.490   111237115.887       -1247.045          41.000  
E24  22252084.423   116935503.348       -1184.992          41.000  
E15  22209707.078   116712811.889        1324.066          41.000  
E17  23642855.683   124244044.270       -3283.289          41.000  
E22  25323114.510   133073876.519        2754.611          41.000  
E25  24950168.493   131114031.082       -3236.220          41.000  
E23  22416543.536   117799724.776        1447.830          41.000  
E 6  25451296.105   133747474.555         961.687          41.000  
> 2019 12  1 15 22 29.9920000  0 23                     
G 2  21473663.734   112844867.066        2391.956          44.000  
G 4  19323952.230   101548054.943         -44.597          44.000  
G10  20470603.475   107573748.363        2726.585          44.000  
G13  19052885.746   100123594.655        2057.505          44.000  
G20  19379081.975   101837762.097       -3277.216          44.000  
G23  18122423.881    95233979.987          91.396          44.000  
G31  21127828.177   111027483.298       -3363.099          47.000  
G32  21636851.820   113702422.033       -3858.234          44.000  
R14  18003986.424    95971319.624        1582.179          43.000  
R13  18755535.187   100153442.754       -2754.170          49.000  
R 5  18043003.202    96450149.669        2037.095          46.000  
R20  19894124.876   106382790.876       -3612.874          46.000  
R 4  17276168.228    92513056.706       -2032.445          45.000  
E 7  24594719.727   129246133.331       -1306.378          41.000  
E 8  25413027.112   133546366.855       -3112.297          41.000  
E16  21167952.996   111238353.003       -1225.944          41.000  
E24  22252311.097   116936693.818       -1187.102          41.000  
E15  22209456.578   116711494.417        1304.918          41.000  
E17  23643476.935   124247308.046       -3235.984          41.000  
E22  25322583.390   133071085.304        2825.540          41.000  
E25  24950790.336   131117296.149       -3284.341          41.000  
E23  22416263.294   117798253.686        1497.838          41.000  
E 6  25451120.111   133746551.130         888.201          41.000  
> 2019 12  1 15 22 30.9920000  0 23                     
G 2  21473214.986   112842510.164        2326.996          44.000  
G 4  19323965.691   101548125.162         -97.993          44.000  
G10  20470091.174   107571054.738        2659.473          44.000  
G13  19052495.544   100121544.512        2035.553          44.000  
G20  19379700.661   101841013.136       -3227.888          44.000  
G23  18122405.844    95233884.779          96.059          44.000  
G31  21128466.630   111030839.127       -3338.662          47.000  
G32  21637579.167   113706245.380       -3789.207          44.000  
R14  18003685.190    95969713.512        1627.924          43.000  
R13  18756049.798   100156191.283       -2734.431          49.000  
R 5  18042626.940    96448136.768        1988.602          46.000  
R20  19894806.115   106386432.668       -3675.968          46.000  
R 4  17276545.292    92515076.155       -2005.785          45.000  
E 7  24594974.760   129247475.272       -1373.327          41.000  
E 8  25413625.714   133549511.598       -3181.838          41.000  
E16  21168184.829   111239571.172       -1213.321          41.000  
E24  22252533.459   116937863.018       -1147.194          41.000  
E15  22209212.813   116710213.413        1255.576          41.000  
E17  23644085.862   124250510.744       -3172.100          41.000  
E22  25322042.277   133068244.813        2844.042          41.000  
E25  24951414.498   131120576.406       -3265.264          41.000  
E23  22415973.941   117796733.070        1537.816          41.000  
E 6  25450954.953   133745682.859         858.892          41.000  
> 2019 12  1 15 22 31.9920000  0 23                     
G 2  21472774.375   112840194.205        2317.084          47.000  
G 4  19323988.710   101548245.864        -136.521          46.000  
G10  20469590.333   107568421.294        2616.751          46.000  
G13  19052113.039   100119533.693        1985.864          46.000  
G20  19380313.397   101844232.507       -3218.358          46.000  
G23  18122388.588    95233793.818          84.472          46.000  
G31  21129095.717   111034145.924       -3272.375          50.000  
G32  21638296.303   113710014.451       -3757.884          46.000  
R14  18003377.455    95968074.625        1643.339          44.000  
R13  18756556.858   100158899.334       -2678.831          49.000  
R 5  18042258.051    96446165.677        1961.047          46.000  
R20  19895499.783   106390141.975       -3736.240          46.000  
R 4  17276917.911    92517071.235       -1986.903          45.000  
E 7  24595238.764   129248860.730       -1385.923          44.000  
E 8  25414237.970   133552727.807       -3242.870          44.000  
E16  21168416.081   111240787.288       -1221.413          44.000  
E24  22252747.307   116938986.056       -1101.515          44.000  
E15  22208977.829   116708978.088        1221.407          44.000  
E17  23644686.710   124253667.825       -3151.095          44.000  
E22  25321505.152   133065422.017        2793.252          44.000  
E25  24952029.605   131123808.994       -3195.917          44.000  
E23  22415681.504   117795195.179        1530.430          44.000  
E 6  25450788.814   133744808.208         900.589          44.000  
> 2019 12  1 15 22 32.9920000  0 23                     
G 2  21472328.842   112837853.496        2371.277          47.000  
G 4  19324014.303   101548380.649        -124.677          47.000  
G10  20469091.243   107565799.239        2637.674          46.000  
G13  19051738.795   100117566.400        1954.622          47.000  
G20  19380929.039   101847466.937       -3256.556          46.000  
G23  18122374.386    95233718.149          67.234          46.000  
G31  21129713.337   111037390.455       -3224.939          50.000  
G32  21639013.885   113713784.744       -3792.683          46.000  
R14  18003071.457    95966442.889        1614.033          44.000  
R13  18757054.128   100161554.769       -2638.532          49.000  
R 5  18041890.231    96444198.692        1979.881          46.000  
R20  19896199.829   106393884.846       -3738.429          46.000  
R 4  17277289.230    92519058.756       -1992.731          45.000  
E 7  24595497.965   129250224.040       -1333.408          44.000  
E 8  25414855.830   133555974.381       -3238.616          44.000  
E16  21168650.584   111242018.559       -1242.087          44.000  
E24  22252955.462   116940079.075       -1092.653          44.000  
E15  22208744.785   116707754.064        1233.936          44.000  
E17  23645289.415   124256834.907       -3191.403          44.000  
E22  25320980.882   133062665.813        2720.336          44.000  
E25  24952631.703   131126973.274       -3140.473          44.000  
E23  22415394.670   117793686.583        1482.996          44.000  
E 6  25450610.270   133743870.047         975.036          44.000  
> 2019 12  1 15 22 33.9920000  0 23                     
G 2  21471870.772   112835446.698        2438.568          47.000  
G 4  19324033.690   101548482.072         -74.900          47.000  
G10  20468583.401   107563130.818        2701.824          46.000  
G13  19051366.174   100115608.477        1968.799          47.000  
G20  19381553.986   101850750.968       -3309.309          47.000  
G23  18122362.834    95233656.500          58.830          47.000  
G31  21130327.698   111040618.374       -3241.517          50.000  
G32  21639742.394   113717612.031       -3862.620          47.000  
R14  18002773.363    95964853.667        1565.220          44.000  
R13  18757548.824   100164195.829       -2652.339          49.000  
R 5  18041515.828    96442196.049        2026.559          46.000  
R20  19896894.025   106397598.310       -3681.901          46.000  
R 4  17277663.978    92521064.327       -2019.811          45.000  
E 7  24595744.932   129251521.531       -1264.615          44.000  
E 8  25415466.319   133559183.772       -3174.245          44.000  
E16  21168888.998   111243269.907       -1258.079          44.000  
E24  22253166.188   116941187.457       -1129.445          44.000  
E15  22208505.624   116706498.049        1280.830          44.000  
E17  23645903.148   124260059.906       -3257.464          44.000  
E22  25320467.183   133059965.166        2691.609          44.000  
E25  24953228.751   131130112.786       -3150.167          44.000  
E23  22415117.441   117792228.546        1437.648          44.000  
E 6  25450419.932   133742871.257        1012.564          44.000  
> 2019 12  1 15 22 34.9920000  0 23                     
G 2  21471403.978   112832993.057        2457.513          47.000  
G 4  19324042.838   101548533.482         -33.027          47.000  
G10  20468063.487   107560400.649        2750.855          46.000  
G13  19050987.095   100113617.027        2015.986          47.000  
G20  19382185.908   101854073.360       -3327.389          46.000  
G23  18122350.839    95233594.723          67.177          46.000  
G31  21130950.383   111043890.464       -3306.147          49.000  
G32  21640482.037   113721499.326       -3903.089          47.000  
R14  18002482.717    95963303.492        1541.834          44.000  
R13  18758050.457   100166874.198       -2707.742          49.000  
R 5  18041133.036    96440150.684        2058.328          46.000  
R20  19897576.044   106401246.484       -3618.703          46.000  
R 4  17278043.764    92523097.024       -2042.725          45.000  
E 7  24595982.063   129252770.024       -1243.307          44.000  
E 8  25416063.598   133562322.274       -3108.350          44.000  
E16  21169128.449   111244527.568       -1254.096          44.000  
E24  22253385.882   116942342.400       -1178.327          44.000  
E15  22208257.979   116705195.928        1318.755          44.000  
E17  23646526.882   124263337.064       -3287.525          44.000  
E22  25319952.186   133057257.522        2733.398          44.000  
E25  24953834.236   131133293.623       -3216.388          44.000  
E23  22414844.654   117790795.657        1436.474          44.000  
E 6  25450229.517   133741870.339         978.872          44.000  
> 2019 12  1 15 22 35.9920000  0 23                     
G 2  21470940.446   112830556.082        2408.752          47.000  
G 4  19324049.474   101548565.655         -39.335          47.000  
G10  20467540.325   107557651.230        2738.008          47.000  
G13  19050600.023   100111581.257        2050.774          47.000  
G20  19382816.891   101857388.812       -3296.107          46.000  
G23  18122336.438    95233520.139          82.713          47.000  
G31  21131585.436   111047228.151       -3361.612          50.000  
G32  21641223.135   113725395.434       -3878.185          47.000  
R14  18002192.049    95961754.619        1563.210          44.000  
R13  18758562.568   100169608.862       -2755.600          49.000  
R 5  18040748.825    96438096.107        2043.980          46.000  
R20  19898251.019   106404854.915       -3608.607          46.000  
R 4  17278425.640    92525142.378       -2042.844          45.000  
E 7  24596222.520   129254032.603       -1290.271          44.000  
E 8  25416653.457   133565422.446       -3103.237          44.000  
E16  21169365.247   111245773.166       -1235.290          44.000  
E24  22253613.032   116943533.562       -1195.864          44.000  
E15  22208006.940   116703877.035        1311.952          44.000  
E17  23647150.616   124266613.734       -3256.084          44.000  
E22  25319424.914   133054487.625        2806.738          44.000  
E25  24954453.194   131136544.855       -3279.104          44.000  
E23  22414567.724   117789340.593        1478.732          44.000  
E 6  25450050.430   133740929.009         902.925          44.000  
> 2019 12  1 15 22 36.9920000  0 23                     
G 2  21470488.978   112828183.436        2338.367          47.000  
G 4  19324061.248   101548626.839         -87.440          46.000  
G10  20467025.042   107554942.164        2675.879          47.000  
G13  19050209.744   100109530.647        2042.158          46.000  
G20  19383438.775   101860657.885       -3243.071          46.000  
G23  18122319.834    95233431.468          91.976          46.000  
G31  21132225.547   111050592.061       -3355.638          50.000  
G32  21641954.986   113729240.317       -3809.537          47.000  
R14  18001894.248    95960168.028        1610.226          44.000  
R13  18759079.169   100172366.935       -2751.673          49.000  
R 5  18040370.330    96436073.818        1998.103          46.000  
R20  19898930.016   106408485.398       -3660.109          46.000  
R 4  17278804.738    92527173.940       -2018.499          45.000  
E 7  24596475.271   129255359.047       -1361.785          44.000  
E 8  25417248.791   133568551.407       -3162.363          44.000  
E16  21169598.776   111246998.898       -1218.477          44.000  
E24  22253838.070   116944716.888       -1165.067          44.000  
E15  22207760.883   116702585.518        1267.365          44.000  
E17  23647763.751   124269836.946       -3190.202          44.000  
E22  25318885.995   133051656.693        2844.749          44.000  
E25  24955078.524   131139830.263       -3280.327          44.000  
E23  22414281.532   117787835.894        1526.780          44.000  
E 6  25449883.724   133740053.690         856.065          44.000  
> 2019 12  1 15 22 37.9920000  0 23                     
G 2  21470047.833   112825864.945        2309.863          47.000  
G 4  19324082.631   101548740.202        -134.820          46.000  
G10  20466521.736   107552297.149        2620.652          46.000  
G13  19049825.270   100107509.649        1996.851          47.000  
G20  19384053.199   101863885.104       -3218.606          46.000  
G23  18122302.931    95233341.824          85.108          46.000  
G31  21132858.885   111053920.062       -3295.207          49.000  
G32  21642674.655   113733022.172       -3761.683          47.000  
R14  18001588.987    95958541.106        1637.656          44.000  
R13  18759590.068   100175095.725       -2701.121          49.000  
R 5  18040000.739    96434097.034        1961.052          46.000  
R20  19899620.892   106412181.013       -3727.797          46.000  
R 4  17279179.176    92529179.474       -1994.159          45.000  
E 7  24596738.480   129256741.808       -1393.406          44.000  
E 8  25417857.716   133571750.996       -3232.681          44.000  
E16  21169830.116   111248216.465       -1219.968          44.000  
E24  22254054.799   116945856.902       -1115.543          44.000  
E15  22207524.276   116701341.543        1224.963          44.000  
E17  23648366.006   124273004.053       -3152.084          44.000  
E22  25318346.920   133048823.029        2812.167          44.000  
E25  24955697.392   131143083.285       -3219.176          44.000  
E23  22413989.267   117786301.046        1534.993          44.000  
E 6  25449719.737   133739191.521         879.531          44.000  
> 2019 12  1 15 22 38.9920000  0 23                     
G 2  21469605.343   112823540.816        2348.590          47.000  
G 4  19324109.738   101548881.376        -138.578          46.000  
G10  20466023.689   107549681.026        2622.914          46.000  
G13  19049449.405   100105535.677        1956.021          46.000  
G20  19384667.693   101867113.615       -3245.618          46.000  
G23  18122288.066    95233265.491          67.761          46.000  
G31  21133479.857   111057183.183       -3236.245          49.000  
G32  21643391.165   113736787.022       -3778.367          46.000  
R14  18001282.844    95956908.812        1620.100          44.000  
R13  18760090.754   100177769.951       -2651.142          49.000  
R 5  18039634.241    96432137.334        1966.594          46.000  
R20  19900320.842   106415925.311       -3749.742          46.000  
R 4  17279551.027    92531171.025       -1992.717          45.000  
E 7  24597000.754   129258121.774       -1356.421          44.000  
E 8  25418475.469   133574998.092       -3249.330          44.000  
E16  21170063.862   111249445.221       -1238.764          44.000  
E24  22254264.588   116946958.139       -1093.380          44.000  
E15  22207292.456   116700121.590        1223.436          44.000  
E17  23648967.809   124276163.901       -3176.792          44.000  
E22  25317818.694   133046047.303        2738.441          44.000  
E25  24956303.244   131146267.190       -3152.753          44.000  
E23  22413700.638   117784783.342        1495.702          44.000  
E 6  25449545.669   133738277.709         951.575          44.000  
> 2019 12  1 15 22 39.9920000  0 23                     
G 2  21469151.685   112821156.289        2419.690          47.000  
G 4  19324132.587   101549000.598         -95.102          46.000  
G10  20465519.576   107547031.915        2680.508          46.000  
G13  19049077.681   100103582.844        1957.534          47.000  
G20  19385290.321   101870385.273       -3298.643          46.000  
G23  18122276.523    95233204.552          56.182          46.000  
G31  21134094.319   111060412.025       -3232.649          49.000  
G32  21644116.396   113740596.251       -3844.051          47.000  
R14  18000982.858    95955311.364        1573.131          44.000  
R13  18760586.248   100180414.778       -2647.968          49.000  
R 5  18039262.442    96430150.557        2009.953          46.000  
R20  19901018.802   106419657.193       -3705.592          46.000  
R 4  17279925.233    92533173.573       -2015.026          45.000  
E 7  24597251.970   129259442.435       -1284.769          44.000  
E 8  25419089.438   133578225.702       -3197.385          44.000  
E16  21170301.761   111250694.130       -1257.534          44.000  
E24  22254474.015   116948060.760       -1118.652          44.000  
E15  22207056.152   116698879.866        1264.491          44.000  
E17  23649578.663   124279371.742       -3241.067          44.000  
E22  25317303.144   133043336.506        2692.075          44.000  
E25  24956900.962   131149408.493       -3141.453          44.000  
E23  22413421.070   117783314.231        1444.854          44.000  
E 6  25449358.841   133737294.878        1006.040          44.000  
> 2019 12  1 15 22 40.9920000  0 23                     
G 2  21468686.892   112818713.395        2456.396          47.000  
G 4  19324145.435   101549069.817         -45.957          46.000  
G10  20465003.438   107544319.376        2739.892          46.000  
G13  19048701.698   100101607.114        1998.501          47.000  
G20  19385921.716   101873703.539       -3330.378          46.000  
G23  18122265.789    95233148.340          59.423          46.000  
G31  21134714.408   111063669.961       -3288.994          49.000  
G32  21644853.746   113744471.449       -3899.205          46.000  
R14  18000691.757    95953758.586        1538.522          44.000  
R13  18761085.953   100183084.022       -2696.023          49.000  
R 5  18038882.359    96428118.786        2049.771          46.000  
R20  19901705.167   106423328.458       -3637.705          46.000  
R 4  17280304.243    92535203.494       -2042.485          45.000  
E 7  24597492.017   129260703.076       -1245.536          44.000  
E 8  25419690.711   133581385.772       -3124.885          44.000  
E16  21170541.727   111251954.824       -1260.012          44.000  
E24  22254692.033   116949204.958       -1169.501          44.000  
E15  22206810.924   116697591.700        1309.319          44.000  
E17  23650200.347   124282639.726       -3286.800          44.000  
E22  25316789.624   133040638.873        2714.786          44.000  
E25  24957503.666   131152573.993       -3196.788          44.000  
E23  22413148.537   117781881.661        1428.673          44.000  
E 6  25449167.909   133736290.363         991.881          44.000  
> 2019 12  1 15 22 41.9920000  0 23                     
G 2  21468221.510   112816267.711        2425.122          46.000  
G 4  19324152.181   101549107.123         -36.513          46.000  
G10  20464480.501   107541571.136        2746.230          46.000  
G13  19048316.991   100099585.470        2041.736          47.000  
G20  19386554.622   101877028.926       -3311.823          46.000  
G23  18122253.183    95233081.888          74.805          47.000  
G31  21135346.946   111066993.571       -3353.330          49.000  
G32  21645596.083   113748373.246       -3892.844          46.000  
R14  18000403.358    95952219.572        1547.618          44.000  
R13  18761596.245   100185809.347       -2751.216          49.000  
R 5  18038498.423    96426065.446        2049.629          46.000  
R20  19902381.808   106426946.717       -3608.393          46.000  
R 4  17280686.486    92537252.074       -2049.641          45.000  
E 7  24597730.978   129261958.184       -1274.783          44.000  
E 8  25420281.615   133584492.155       -3098.686          44.000  
E16  21170779.905   111253207.996       -1243.635          44.000  
E24  22254918.061   116950392.699       -1199.036          44.000  
E15  22206560.378   116696274.954        1316.989          44.000  
E17  23650825.549   124285924.446       -3271.899          44.000  
E22  25316266.318   133037890.123        2786.349          44.000  
E25  24958118.978   131155807.985       -3267.516          44.000  
E23  22412874.254   117780439.943        1461.567          44.000  
E 6  25448985.703   133735331.397         922.011          44.000  
> 2019 12  1 15 22 42.9920000  0 23                     
G 2  21467766.537   112813876.542        2355.920          46.000  
G 4  19324162.494   101549159.398         -74.339          46.000  
G10  20463961.961   107538846.785        2695.473          46.000  
G13  19047927.037   100097536.329        2048.373          46.000  
G20  19387179.497   101880314.529       -3258.036          46.000  
G23  18122237.297    95232998.995          88.985          46.000  
G31  21135986.867   111070358.250       -3365.316          49.000  
G32  21646331.117   113752236.760       -3829.042          46.000  
R14  18000108.545    95950650.329        1592.971          44.000  
R13  18762113.064   100188570.424       -2762.042          49.000  
R 5  18038118.039    96424033.005        2010.953          46.000  
R20  19903059.217   106430567.697       -3643.479          46.000  
R 4  17281067.446    92539292.783       -2028.702          45.000  
E 7  24597979.978   129263266.579       -1344.444          44.000  
E 8  25420874.606   133587607.053       -3141.268          44.000  
E16  21171014.452   111254440.400       -1222.477          44.000  
E24  22255145.039   116951585.154       -1178.852          44.000  
E15  22206312.188   116694972.785        1281.681          44.000  
E17  23651441.927   124289166.043       -3208.300          44.000  
E22  25315730.084   133035071.898        2842.052          44.000  
E25  24958743.727   131159090.836       -3287.274          44.000  
E23  22412590.789   117778950.932        1514.853          44.000  
E 6  25448816.422   133734442.546         861.910          44.000  
> 2019 12  1 15 22 43.9920000  0 23                     
G 2  21467323.491   112811548.776        2309.113          46.000  
G 4  19324182.220   101549261.730        -128.237          46.000  
G10  20463455.539   107536185.577        2630.915          46.000  
G13  19047540.821   100095505.118        2009.286          46.000  
G20  19387795.435   101883551.772       -3222.193          46.000  
G23  18122220.429    95232910.377          85.836          46.000  
G31  21136623.366   111073703.380       -3317.235          49.000  
G32  21647053.813   113756033.822       -3770.027          46.000  
R14  17999805.880    95949036.793        1629.409          44.000  
R13  18762627.640   100191316.162       -2722.196          49.000  
R 5  18037746.563    96422046.505        1965.657          46.000  
R20  19903747.563   106434246.557       -3714.348          46.000  
R 4  17281443.612    92541308.258       -2002.684          45.000  
E 7  24598241.428   129264639.898       -1393.615          44.000  
E 8  25421479.954   133590786.421       -3216.654          44.000  
E16  21171246.467   111255659.548       -1218.886          44.000  
E24  22255364.970   116952740.969       -1130.989          44.000  
E15  22206073.667   116693716.552        1232.932          44.000  
E17  23652046.988   124292345.836       -3157.632          44.000  
E22  25315189.221   133032231.046        2828.469          44.000  
E25  24959365.220   131162359.540       -3240.856          44.000  
E23  22412299.950   117777421.675        1536.412          44.000  
E 6  25448653.525   133733585.652         863.781          44.000  
> 2019 12  1 15 22 44.9920000  0 23                     
G 2  21466883.312   112809234.773        2329.810          46.000  
G 4  19324209.045   101549403.254        -146.830          46.000  
G10  20462957.352   107533568.367        2614.025          46.000  
G13  19047163.191   100093520.592        1961.985          47.000  
G20  19388409.378   101886776.286       -3235.335          46.000  
G23  18122205.367    95232831.918          69.861          46.000  
G31  21137248.101   111076986.075       -3251.173          49.000  
G32  21647769.745   113759796.866       -3767.386          46.000  
R14  17999499.685    95947405.766        1624.903          44.000  
R13  18763132.104   100194009.687       -2666.627          49.000  
R 5  18037380.118    96420088.567        1957.738          46.000  
R20  19904446.679   106437985.233       -3754.008          46.000  
R 4  17281816.728    92543304.273       -1993.588          45.000  
E 7  24598505.761   129266029.961       -1375.807          44.000  
E 8  25422096.795   133594026.560       -3253.573          44.000  
E16  21171479.578   111256884.879       -1234.416          44.000  
E24  22255576.513   116953852.261       -1097.393          44.000  
E15  22205841.604   116692495.027        1217.468          44.000  
E17  23652647.500   124295501.529       -3164.315          44.000  
E22  25314657.569   133029434.757        2759.419          44.000  
E25  24959974.964   131165563.722       -3169.185          44.000  
E23  22412009.705   117775895.944        1508.059          44.000  
E 6  25448483.505   133732693.011         927.379          44.000  
> 2019 12  1 15 22 45.9920000  0 23                     
G 2  21466433.528   112806872.060        2398.401          46.000  
G 4  19324234.542   101549537.201        -114.215          46.000  
G10  20462456.505   107530935.287        2660.049          46.000  
G13  19046791.737   100091568.404        1950.083          46.000  
G20  19389029.541   101890035.229       -3285.511          46.000  
G23  18122193.649    95232770.123          55.201          46.000  
G31  21137863.365   111080220.712       -3228.589          49.000  
G32  21648491.222   113763589.248       -3823.879          46.000  
R14  17999198.669    95945800.353        1582.728          44.000  
R13  18763628.873   100196662.324       -2647.241          49.000  
R 5  18037010.675    96418115.441        1993.661          46.000  
R20  19905146.804   106441730.703       -3726.562          46.000  
R 4  17282190.459    92545304.540       -2010.589          45.000  
E 7  24598761.123   129267373.071       -1307.254          44.000  
E 8  25422713.290   133597267.565       -3218.217          44.000  
E16  21171716.773   111258129.971       -1255.156          44.000  
E24  22255785.667   116954951.994       -1109.538          44.000  
E15  22205607.142   116691264.790        1249.284          44.000  
E17  23653254.669   124298692.627       -3222.555          44.000  
E22  25314138.587   133026708.687        2699.232          44.000  
E25  24960573.969   131168711.956       -3137.981          44.000  
E23  22411727.522   117774414.086        1455.602          44.000  
E 6  25448299.929   133731729.607         994.242          44.000  
> 2019 12  1 15 22 46.9920000  0 23                     
G 2  21465971.427   112804443.772        2450.513          46.000  
G 4  19324251.216   101549624.844         -61.507          46.000  
G10  20461943.719   107528241.809        2725.269          46.000  
G13  19046417.613   100089605.406        1982.239          46.000  
G20  19389659.487   101893344.976       -3328.366          46.000  
G23  18122183.895    95232717.160          53.809          46.000  
G31  21138481.332   111083466.696       -3271.662          50.000  
G32  21649225.785   113767447.965       -3889.098          46.000  
R14  17998906.373    95944241.330        1539.790          44.000  
R13  18764127.596   100199324.199       -2683.786          49.000  
R 5  18036633.301    96416098.285        2038.708          46.000  
R20  19905837.322   106445424.752       -3659.249          46.000  
R 4  17282568.479    92547329.899       -2039.379          45.000  
E 7  24599004.410   129268649.645       -1252.868          44.000  
E 8  25423318.435   133600449.432       -3144.310          44.000  
E16  21171956.661   111259391.041       -1263.515          44.000  
E24  22256000.950   116956084.638       -1157.755          44.000  
E15  22205364.501   116689991.163        1297.550          44.000  
E17  23653874.038   124301946.703       -3279.953          44.000  
E22  25313625.965   133024014.536        2701.247          44.000  
E25  24961174.241   131171864.997       -3177.765          44.000  
E23  22411453.874   117772976.914        1425.830          44.000  
E 6  25448108.888   133730726.376        1000.974          44.000  
> 2019 12  1 15 22 47.9920000  0 23                     
G 2  21465505.220   112801993.744        2438.354          46.000  
G 4  19324259.644   101549670.759         -37.761          46.000  
G10  20461421.945   107525499.270        2749.852          46.000  
G13  19046035.883   100087598.824        2029.788          46.000  
G20  19390293.094   101896675.608       -3324.244          46.000  
G23  18122172.615    95232657.670          66.891          46.000  
G31  21139110.833   111086773.459       -3340.509          49.000  
G32  21649968.327   113771349.218       -3902.290          46.000  
R14  17998618.811    95942707.686        1535.359          44.000  
R13  18764635.886   100202037.776       -2742.867          49.000  
R 5  18036249.980    96414049.216        2051.963          46.000  
R20  19906516.882   106449057.059       -3613.496          46.000  
R 4  17282950.914    92549378.781       -2053.971          45.000  
E 7  24599242.427   129269901.762       -1262.374          44.000  
E 8  25423911.583   133603566.804       -3099.559          44.000  
E16  21172196.119   111260650.019       -1251.402          44.000  
E24  22256225.951   116957264.938       -1197.619          44.000  
E15  22205114.737   116688679.667        1318.495          44.000  
E17  23654499.738   124305233.660       -3283.057          44.000  
E22  25313106.317   133021284.727        2764.661          44.000  
E25  24961786.041   131175079.392       -3251.028          44.000  
E23  22411180.999   117771544.580        1446.460          44.000  
E 6  25447923.927   133729751.304         941.941          44.000  
> 2019 12  1 15 22 48.9920000  0 23                     
G 2  21465046.901   112799585.910        2372.900          46.000  
G 4  19324268.542   101549718.243         -64.769          46.000  
G10  20460901.509   107522764.121        2711.514          46.000  
G13  19045647.583   100085556.153        2048.478          46.000  
G20  19390921.195   101899978.092       -3276.884          46.000  
G23  18122158.036    95232582.550          82.183          46.000  
G31  21139750.379   111090134.697       -3372.118          49.000  
G32  21650706.584   113775229.998       -3851.324          46.000  
R14  17998327.462    95941155.611        1572.963          44.000  
R13  18765152.735   100204798.479       -2770.606          49.000  
R 5  18035868.401    96412009.903        2020.658          46.000  
R20  19907193.344   106452674.399       -3632.049          46.000  
R 4  17283333.335    92551428.263       -2041.054          45.000  
E 7  24599488.492   129271194.191       -1327.432          44.000  
E 8  25424502.833   133606673.582       -3125.146          44.000  
E16  21172432.199   111261890.865       -1230.484          44.000  
E24  22256454.217   116958464.006       -1192.721          44.000  
E15  22204865.785   116687370.645        1292.707          44.000  
E17  23655119.897   124308493.108       -3229.586          44.000  
E22  25312573.799   133018484.322        2830.880          44.000  
E25  24962409.461   131178355.312       -3291.063          44.000  
E23  22410901.147   117770072.920        1498.147          44.000  
E 6  25447751.547   133728846.668         870.767          44.000  
> 2019 12  1 15 22 49.9920000  0 23                     
G 2  21464601.768   112797246.293        2313.751          46.000  
G 4  19324286.395   101549810.345        -119.083          46.000  
G10  20460392.109   107520086.831        2644.532          46.000  
G13  19045259.922   100083518.991        2020.289          46.000  
G20  19391540.054   101903230.212       -3230.847          46.000  
G23  18122141.855    95232498.093          84.862          46.000  
G31  21140389.457   111093494.965       -3338.199          49.000  
G32  21651433.026   113779046.822       -3783.753          46.000  
R14  17998027.960    95939559.588        1616.881          44.000  
R13  18765670.330   100207559.761       -2742.862          49.000  
R 5  18035495.363    96410014.027        1973.112          46.000  
R20  19907878.762   106456338.471       -3698.796          46.000  
R 4  17283712.280    92553456.016       -2013.439          44.000  
E 7  24599747.693   129272555.640       -1388.998          44.000  
E 8  25425104.478   133609834.150       -3198.026          44.000  
E16  21172664.516   111263115.026       -1220.289          44.000  
E24  22256676.843   116959636.678       -1148.296          44.000  
E15  22204624.462   116686102.961        1243.240          44.000  
E17  23655728.549   124311690.619       -3168.783          44.000  
E22  25312033.087   133015643.866        2838.945          44.000  
E25  24963033.887   131181637.065       -3261.101          44.000  
E23  22410612.270   117768554.796        1532.714          44.000  
E 6  25447588.304   133727990.911         852.687          44.000  
> 2019 12  1 15 22 50.9920000  0 23                     
G 2  21464162.313   112794938.016        2314.911          46.000  
G 4  19324312.638   101549949.176        -150.924          46.000  
G10  20459893.040   107517464.370        2610.560          46.000  
G13  19044880.127   100081523.703        1971.064          46.000  
G20  19392154.013   101906455.809       -3228.368          46.000  
G23  18122126.693    95232419.116          72.116          46.000  
G31  21141018.242   111096799.518       -3270.109          49.000  
G32  21652149.780   113782814.563       -3761.555          46.000  
R14  17997723.013    95937934.631        1626.205          44.000  
R13  18766178.446   100210274.613       -2685.401          49.000  
R 5  18035128.882    96408055.118        1952.427          46.000  
R20  19908576.461   106460067.942       -3752.608          46.000  
R 4  17284086.513    92555459.572       -1996.568          44.000  
E 7  24600013.273   129273951.235       -1390.407          44.000  
E 8  25425718.832   133613063.109       -3251.043          44.000  
E16  21172897.343   111264339.098       -1230.312          44.000  
E24  22256890.974   116960761.907       -1105.489          44.000  
E15  22204391.333   116684877.122        1215.515          44.000  
E17  23656329.238   124314848.319       -3156.489          44.000  
E22  25311497.980   133012830.225        2781.449          44.000  
E25  24963647.785   131184863.277       -3189.098          44.000  
E23  22410321.355   117767025.573        1518.331          44.000  
E 6  25447422.010   133727117.399         903.563          44.000  
> 2019 12  1 15 22 51.9920000  0 23                     
G 2  21463716.534   112792595.875        2374.890          46.000  
G 4  19324340.450   101550094.671        -132.091          46.000  
G10  20459394.410   107514843.690        2640.338          46.000  
G13  19044508.311   100079568.681        1945.411          46.000  
G20  19392772.259   101909703.653       -3272.391          46.000  
G23  18122114.846    95232356.019          54.956          46.000  
G31  21141635.886   111100045.341       -3230.993          49.000  
G32  21652869.009   113786593.523       -3805.471          46.000  
R14  17997420.862    95936323.317        1591.314          44.000  
R13  18766677.430   100212939.672       -2652.310          49.000  
R 5  18034761.869    96406093.359        1977.439          46.000  
R20  19909278.453   106463822.161       -3744.823          46.000  
R 4  17284460.179    92557459.562       -2007.514          44.000  
E 7  24600272.406   129275315.338       -1331.569          44.000  
E 8  25426337.445   133616312.547       -3236.506          44.000  
E16  21173133.735   111265580.258       -1252.396          44.000  
E24  22257100.390   116961862.848       -1104.407          44.000  
E15  22204159.173   116683655.590        1234.602          44.000  
E17  23656933.860   124318025.275       -3204.901          44.000  
E22  25310975.525   133010085.809        2711.047          44.000  
E25  24964248.832   131188023.951       -3141.389          44.000  
E23  22410036.886   117765531.290        1467.660          44.000  
E 6  25447242.585   133726176.353         976.441          44.000  
> 2019 12  1 15 22 52.9920000  0 23                     
G 2  21463258.273   112790186.313        2438.995          46.000  
G 4  19324360.842   101550201.463         -79.662          46.000  
G10  20458885.440   107512170.557        2707.017          46.000  
G13  19044136.556   100077615.874        1967.251          46.000  
G20  19393400.125   101913002.594       -3322.253          46.000  
G23  18122105.199    95232305.286          49.287          46.000  
G31  21142252.307   111103283.980       -3256.526          49.000  
G32  21653600.048   113790434.012       -3874.793          46.000  
R14  17997127.044    95934756.537        1544.272          44.000  
R13  18767175.232   100215598.171       -2673.785          49.000  
R 5  18034387.318    96404092.119        2024.989          46.000  
R20  19909973.395   106467538.394       -3682.657          46.000  
R 4  17284837.636    92559480.493       -2035.427          45.000  
E 7  24600519.148   129276611.834       -1265.887          44.000  
E 8  25426946.931   133619516.080       -3166.546          44.000  
E16  21173373.830   111266840.448       -1265.406          44.000  
E24  22257314.236   116962985.559       -1145.687          44.000  
E15  22203919.610   116682397.273        1283.307          44.000  
E17  23657550.147   124321263.140       -3268.411          44.000  
E22  25310462.423   133007389.626        2692.721          44.000  
E25  24964847.662   131191169.753       -3161.676          44.000  
E23  22409761.991   117764086.385        1427.470          44.000  
E 6  25447053.187   133725180.644        1004.112          44.000  
> 2019 12  1 15 22 53.9920000  0 23                     
G 2  21462792.294   112787737.925        2446.515          46.000  
G 4  19324371.984   101550260.175         -43.765          46.000  
G10  20458365.851   107509439.028        2747.632          46.000  
G13  19043757.600   100075625.407        2014.645          46.000  
G20  19394034.213   101916334.637       -3333.191          46.000  
G23  18122095.355    95232252.352          58.712          46.000  
G31  21142878.654   111106573.746       -3324.762          49.000  
G32  21654341.513   113794329.683       -3906.853          46.000  
R14  17996840.119    95933224.862        1526.553          44.000  
R13  18767681.524   100218299.981       -2731.985          49.000  
R 5  18034005.922    96402051.350        2050.013          46.000  
R20  19910656.235   106471189.254       -3624.948          46.000  
R 4  17285219.874    92561528.108       -2056.547          45.000  
E 7  24600757.965   129277867.028       -1255.625          44.000  
E 8  25427543.228   133622649.535       -3107.168          44.000  
E16  21173614.722   111268104.274       -1258.965          44.000  
E24  22257537.256   116964156.314       -1193.003          44.000  
E15  22203671.907   116681094.936        1315.550          44.000  
E17  23658175.140   124324547.568       -3290.523          44.000  
E22  25309945.888   133004676.119        2742.909          44.000  
E25  24965455.730   131194364.975       -3232.093          44.000  
E23  22409491.072   117762660.030        1433.371          44.000  
E 6  25446865.693   133724193.553         960.266          44.000  
> 2019 12  1 15 22 54.9920000  0 23                     
G 2  21462331.359   112785315.085        2392.041          46.000  
G 4  19324380.500   101550306.038         -56.468          46.000  
G10  20457844.194   107506696.861        2726.254          46.000  
G13  19043371.002   100073592.197        2045.444          46.000  
G20  19394665.471   101919651.501       -3294.483          46.000  
G23  18122082.359    95232184.931          75.536          46.000  
G31  21143516.485   111109926.120       -3372.006          49.000  
G32  21655082.098   113798223.368       -3870.906          46.000  
R14  17996551.475    95931687.089        1554.982          44.000  
R13  18768197.305   100221055.628       -2772.918          49.000  
R 5  18033623.605    96400007.474        2030.620          46.000  
R20  19911332.823   106474807.703       -3623.616          46.000  
R 4  17285603.395    92563583.829       -2050.677          45.000  
E 7  24601001.474   129279145.366       -1308.765          44.000  
E 8  25428133.711   133625753.165       -3111.830          44.000  
E16  21173852.291   111269353.060       -1237.799          44.000  
E24  22257765.898   116965357.421       -1201.581          44.000  
E15  22203421.830   116679781.842        1303.021          44.000  
E17  23658798.147   124327821.258       -3248.873          44.000  
E22  25309416.514   133001895.584        2816.115          44.000  
E25  24966076.934   131197628.511       -3287.367          44.000  
E23  22409213.966   117761204.459        1481.167          44.000  
E 6  25446690.214   133723270.651         885.776          44.000  
> 2019 12  1 15 22 55.9920000  0 23                     
G 2  21461883.041   112782958.930        2324.377          46.000  
G 4  19324396.321   101550386.592        -107.399          46.000  
G10  20457331.430   107504001.743        2661.633          46.000  
G13  19042982.363   100071550.733        2030.188          46.000  
G20  19395286.888   101922919.064       -3242.401          46.000  
G23  18122067.066    95232104.450          83.070          46.000  
G31  21144157.637   111113295.266       -3355.517          49.000  
G32  21655812.143   113802059.747       -3800.981          46.000  
R14  17996255.114    95930108.308        1602.094          44.000  
R13  18768716.239   100223826.759       -2760.031          49.000  
R 5  18033247.937    96398000.098        1983.415          46.000  
R20  19912015.358   106478456.979       -3681.052          46.000  
R 4  17285984.154    92565622.076       -2024.207          45.000  
E 7  24601257.477   129280490.392       -1378.156          44.000  
E 8  25428731.630   133628894.694       -3176.866          44.000  
E16  21174086.270   111270582.203       -1222.413          44.000  
E24  22257991.514   116966543.616       -1165.068          44.000  
E15  22203178.487   116678501.262        1255.996          44.000  
E17  23659409.806   124331036.908       -3183.422          44.000  
E22  25308876.829   132999059.795        2844.790          44.000  
E25  24966702.928   131200916.480       -3276.718          44.000  
E23  22408927.325   117759699.035        1525.605          44.000  
E 6  25446526.271   133722408.732         848.389          44.000  
> 2019 12  1 15 22 56.9920000  0 23                     
G 2  21461443.680   112780649.724        2305.621          46.000  
G 4  19324421.072   101550518.229        -150.240          47.000  
G10  20456830.138   107501368.444        2612.800          46.000  
G13  19042600.649   100069543.582        1982.426          46.000  
G20  19395901.666   101926148.992       -3225.199          46.000  
G23  18122052.039    95232024.894          74.115          46.000  
G31  21144790.179   111116620.423       -3291.173          49.000  
G32  21656530.714   113805836.398       -3761.138          46.000  
R14  17995951.942    95928492.143        1623.771          44.000  
R13  18769228.041   100226561.652       -2705.987          49.000  
R 5  18032880.444    96396035.770        1951.617          46.000  
R20  19912710.064   106482172.682       -3745.464          46.000  
R 4  17286360.075    92567633.988       -2002.269          45.000  
E 7  24601523.373   129281884.840       -1399.762          44.000  
E 8  25429343.114   133632107.323       -3242.648          44.000  
E16  21174318.864   111271805.535       -1227.028          44.000  
E24  22258208.357   116967683.818       -1116.732          44.000  
E15  22202943.679   116677266.875        1217.992          44.000  
E17  23660011.461   124334200.716       -3153.383          44.000  
E22  25308339.109   132996231.517        2802.460          44.000  
E25  24967320.380   131204162.880       -3210.837          44.000  
E23  22408635.723   117758169.332        1525.613          44.000  
E 6  25446362.558   133721549.049         881.904          44.000  
> 2019 12  1 15 22 57.9920000  0 23                     
G 2  21461001.121   112778324.969        2353.009          46.000  
G 4  19324450.105   101550671.068        -146.062          46.000  
G10  20456332.833   107498755.202        2625.015          46.000  
G13  19042227.299   100067582.169        1946.525          46.000  
G20  19396518.319   101929387.961       -3258.765          46.000  
G23  18122039.612    95231959.948          56.737          46.000  
G31  21145410.988   111119881.655       -3237.649          49.000  
G32  21657248.180   113809606.002       -3787.642          46.000  
R14  17995648.950    95926877.372        1600.075          44.000  
R13  18769730.106   100229242.630       -2660.610          49.000  
R 5  18032514.896    96394081.943        1964.469          46.000  
R20  19913412.479   106485929.923       -3757.251          46.000  
R 4  17286733.798    92569635.499       -2004.664          45.000  
E 7  24601786.106   129283266.519       -1353.986          44.000  
E 8  25429962.167   133635359.149       -3248.408          44.000  
E16  21174553.870   111273042.637       -1247.387          44.000  
E24  22258419.190   116968789.731       -1101.446          44.000  
E15  22202712.374   116676050.213        1223.930          44.000  
E17  23660614.063   124337366.862       -3186.973          44.000  
E22  25307813.387   132993466.678        2728.532          44.000  
E25  24967925.065   131207340.117       -3149.268          44.000  
E23  22408349.614   117756663.636        1481.890          44.000  
E 6  25446187.868   133720631.206         955.938          44.000  
> 2019 12  1 15 22 58.9920000  0 23                     
G 2  21460546.326   112775936.453        2421.918          46.000  
G 4  19324473.935   101550795.988         -99.437          46.000  
G10  20455827.832   107496101.708        2686.127          46.000  
G13  19041856.855   100065635.936        1953.965          46.000  
G20  19397143.696   101932674.304       -3312.819          46.000  
G23  18122030.065    95231909.973          46.085          46.000  
G31  21146026.688   111123117.822       -3245.328          49.000  
G32  21657975.507   113813427.523       -3857.273          46.000  
R14  17995353.295    95925301.899        1551.033          44.000  
R13  18770228.152   100231901.968       -2667.010          49.000  
R 5  18032143.338    96392096.477        2008.975          46.000  
R20  19914111.321   106489665.841       -3706.765          46.000  
R 4  17287110.487    92571652.344       -2030.808          45.000  
E 7  24602036.726   129284585.051       -1283.891          44.000  
E 8  25430575.435   133638582.069       -3189.887          44.000  
E16  21174793.327   111274300.401       -1265.652          44.000  
E24  22258630.990   116969904.597       -1133.899          44.000  
E15  22202475.393   116674806.372        1267.681          44.000  
E17  23661227.392   124340587.087       -3253.402          44.000  
E22  25307298.618   132990762.584        2690.282          44.000  
E25  24968523.337   131210484.059       -3149.727          44.000  
E23  22408072.823   117755208.156        1432.875          44.000  
E 6  25446000.287   133719648.333        1001.016          44.000  
> 2019 12  1 15 22 59.9920000  0 23                     
G 2  21460082.072   112773495.617        2449.371          46.000  
G 4  19324488.041   101550870.905         -53.726          46.000  
G10  20455310.854   107493385.645        2740.161          46.000  
G13  19041480.962   100063661.428        1998.694          46.000  
G20  19397777.335   101936003.921       -3338.001          46.000  
G23  18122021.100    95231862.817          51.522          46.000  
G31  21146649.818   111126391.911       -3307.055          49.000  
G32  21658714.775   113817312.994       -3905.159          46.000  
R14  17995065.742    95923768.955        1521.781          44.000  
R13  18770732.093   100234593.267       -2719.564          49.000  
R 5  18031763.686    96390067.478        2044.340          46.000  
R20  19914798.175   106493338.453       -3640.548          46.000  
R 4  17287492.333    92573697.404       -2056.328          45.000  
E 7  24602277.268   129285849.249       -1254.144          44.000  
E 8  25431175.589   133641735.447       -3120.350          44.000  
E16  21175034.731   111275567.764       -1265.045          44.000  
E24  22258851.655   116971064.589       -1184.678          44.000  
E15  22202229.581   116673516.422        1308.741          44.000  
E17  23661850.908   124343864.338       -3291.991          44.000  
E22  25306784.472   132988061.431        2723.314          44.000  
E25  24969128.294   131213662.089       -3211.670          44.000  
E23  22407801.731   117753783.942        1424.233          44.000  
E 6  25445811.096   133718654.407         975.965          44.000  
> 2019 12  1 15 23  0.9920000  0 23                     
G 2  21459618.906   112771061.805        2409.595          46.000  
G 4  19324497.331   101550919.747         -51.705          46.000  
G10  20454788.727   107490641.907        2737.119          46.000  
G13  19041096.370   100061641.098        2038.402          46.000  
G20  19398410.586   101939332.663       -3311.342          46.000  
G23  18122009.661    95231803.659          67.685          46.000  
G31  21147285.514   111129731.864       -3366.484          49.000  
G32  21659457.181   113821215.256       -3887.830          46.000  
R14  17994779.584    95922242.895        1537.946          44.000  
R13  18771246.647   100237340.940       -2770.791          49.000  
R 5  18031381.077    96388022.934        2037.609          46.000  
R20  19915476.103   106496963.979       -3620.454          46.000  
R 4  17287877.027    92575757.638       -2058.898          45.000  
E 7  24602518.537   129287117.737       -1292.069          44.000  
E 8  25431766.268   133644842.251       -3104.211          44.000  
E16  21175273.860   111276824.608       -1246.460          44.000  
E24  22259080.242   116972264.247       -1207.019          44.000  
E15  22201979.458   116672203.457        1309.830          44.000  
E17  23662476.106   124347148.670       -3266.642          44.000  
E22  25306259.375   132985302.230        2796.849          44.000  
E25  24969746.283   131216909.877       -3278.241          44.000  
E23  22407527.453   117752343.118        1463.533          44.000  
E 6  25445632.451   133717713.408         903.400          44.000  
> 2019 12  1 15 23  1.9920000  0 23                     
G 2  21459167.423   112768688.852        2337.457          46.000  
G 4  19324511.307   101550991.647         -96.759          46.000  
G10  20454273.022   107487931.702        2678.406          46.000  
G13  19040708.166   100059600.481        2035.480          46.000  
G20  19399035.808   101942618.155       -3258.764          46.000  
G23  18121995.788    95231729.819          78.269          46.000  
G31  21147927.532   111133106.067       -3370.522          49.000  
G32  21660191.246   113825072.437       -3822.274          46.000  
R14  17994486.844    95920683.125        1583.143          44.000  
R13  18771766.777   100240118.931       -2775.447          49.000  
R 5  18031004.000    96386006.171        1993.243          46.000  
R20  19916156.919   106500603.075       -3666.116          46.000  
R 4  17288259.584    92577807.169       -2037.330          45.000  
E 7  24602771.581   129288446.283       -1364.993          44.000  
E 8  25432361.476   133647969.072       -3157.724          44.000  
E16  21175509.106   111278061.396       -1228.350          44.000  
E24  22259308.198   116973462.714       -1182.586          44.000  
E15  22201733.942   116670912.633        1267.850          44.000  
E17  23663091.586   124350384.438       -3202.788          44.000  
E22  25305722.015   132982477.981        2842.758          44.000  
E25  24970372.678   131220199.796       -3289.650          44.000  
E23  22407244.206   117750854.028        1512.924          44.000  
E 6  25445466.908   133716841.667         848.471          44.000  
> 2019 12  1 15 23  2.9920000  0 23                     
G 2  21458727.274   112766374.997        2300.562          46.000  
G 4  19324534.537   101551115.201        -147.036          46.000  
G10  20453769.562   107485285.676        2619.022          46.000  
G13  19040324.444   100057584.191        1993.351          46.000  
G20  19399652.531   101945858.163       -3227.813          46.000  
G23  18121981.069    95231652.616          74.052          46.000  
G31  21148563.985   111136451.806       -3314.606          49.000  
G32  21660912.854   113828864.265       -3767.729          46.000  
R14  17994186.255    95919080.844        1615.927          44.000  
R13  18772282.937   100242874.065       -2728.780          49.000  
R 5  18030635.316    96384035.383        1952.965          46.000  
R20  19916849.138   106504304.537       -3735.148          46.000  
R 4  17288637.551    92579830.540       -2010.761          45.000  
E 7  24603036.172   129289835.858       -1404.593          44.000  
E 8  25432969.380   133651164.297       -3230.484          44.000  
E16  21175742.398   111279287.392       -1226.814          44.000  
E24  22259528.357   116974620.637       -1132.794          44.000  
E15  22201497.295   116669668.937        1222.986          44.000  
E17  23663695.525   124353560.758       -3157.213          44.000  
E22  25305182.563   132979641.629        2819.121          44.000  
E25  24970993.963   131223465.687       -3234.437          44.000  
E23  22406953.840   117749329.745        1528.065          44.000  
E 6  25445305.537   133715992.255         862.344          44.000  
> 2019 12  1 15 23  3.9920000  0 23                     
G 2  21458287.193   112764064.296        2331.549          46.000  
G 4  19324564.473   101551271.932        -157.572          46.000  
G10  20453273.011   107482675.511        2612.570          46.000  
G13  19039949.727   100055614.638        1949.695          46.000  
G20  19400267.763   101949092.408       -3248.146          46.000  
G23  18121968.271    95231586.740          57.520          46.000  
G31  21149188.469   111139732.699       -3251.339          49.000  
G32  21661629.578   113832630.483       -3775.211          46.000  
R14  17993883.154    95917466.834        1605.062          44.000  
R13  18772788.357   100245574.678       -2675.106          49.000  
R 5  18030270.785    96382086.717        1952.397          46.000  
R20  19917551.379   106508060.194       -3765.489          46.000  
R 4  17289012.391    92581836.698       -2005.426          45.000  
E 7  24603301.441   129291231.606       -1375.936          44.000  
E 8  25433587.805   133654413.457       -3256.514          44.000  
E16  21175977.102   111280521.890       -1243.984          44.000  
E24  22259740.789   116975736.139       -1104.465          44.000  
E15  22201266.599   116668454.122        1215.036          44.000  
E17  23664297.058   124356721.430       -3173.628          44.000  
E22  25304652.698   132976856.996        2747.715          44.000  
E25  24971602.048   131226663.474       -3164.165          44.000  
E23  22406665.873   117747815.809        1493.868          44.000  
E 6  25445134.924   133715097.887         931.497          44.000  
> 2019 12  1 15 23  4.9920000  0 23                     
G 2  21457836.768   112761698.377        2401.697          46.000  
G 4  19324591.545   101551413.645        -119.178          46.000  
G10  20452771.547   107480040.296        2664.905          46.000  
G13  19039580.245   100053671.773        1944.315          46.000  
G20  19400890.810   101952366.380       -3300.956          46.000  
G23  18121959.018    95231537.039          44.154          46.000  
G31  21149804.983   111142972.444       -3238.838          49.000  
G32  21662353.787   113836434.633       -3837.748          46.000  
R14  17993586.094    95915883.539        1559.831          44.000  
R13  18773287.625   100248240.066       -2664.208          49.000  
R 5  18029902.067    96380116.501        1992.444          46.000  
R20  19918252.951   106511812.703       -3729.396          46.000  
R 4  17289388.796    92583851.077       -2026.251          45.000  
E 7  24603556.823   129292573.520       -1305.631          44.000  
E 8  25434204.073   133657652.796       -3212.152          44.000  
E16  21176215.958   111281776.813       -1264.415          44.000  
E24  22259952.057   116976846.895       -1124.133          44.000  
E15  22201032.398   116667223.687        1251.724          44.000  
E17  23664906.978   124359924.827       -3236.033          44.000  
E22  25304135.605   132974140.585        2693.744          44.000  
E25  24972201.018   131229811.998       -3143.752          44.000  
E23  22406386.946   117746348.694        1441.918          44.000  
E 6  25444951.570   133714133.130         991.603          44.000  
> 2019 12  1 15 23  5.9920000  0 23                     
G 2  21457374.749   112759269.713        2446.417          46.000  
G 4  19324608.886   101551506.308         -67.868          46.000  
G10  20452258.039   107477342.164        2727.629          46.000  
G13  19039207.057   100051711.153        1981.976          46.000  
G20  19401523.083   101955689.170       -3338.216          46.000  
G23  18121950.915    95231493.791          45.239          46.000  
G31  21150425.347   111146232.710       -3289.173          49.000  
G32  21663090.408   113840305.268       -3897.928          46.000  
R14  17993297.542    95914345.673        1520.896          44.000  
R13  18773790.043   100250922.399       -2707.017          49.000  
R 5  18029524.933    96378101.107        2035.241          46.000  
R20  19918943.897   106515507.950       -3660.778          46.000  
R 4  17289770.044    92585891.865       -2054.483          45.000  
E 7  24603799.678   129293851.272       -1258.490          44.000  
E 8  25434808.208   133660827.544       -3137.972          44.000  
E16  21176457.752   111283045.408       -1269.375          44.000  
E24  22260170.496   116977995.076       -1173.731          44.000  
E15  22200789.436   116665947.542        1298.595          44.000  
E17  23665528.487   124363190.018       -3287.625          44.000  
E22  25303622.481   132971445.934        2707.209          44.000  
E25  24972803.127   131232975.339       -3191.429          44.000  
E23  22406115.268   117744921.928        1419.301          44.000  
E 6  25444761.969   133713137.352         988.019          44.000  
> 2019 12  1 15 23  6.9920000  0 23                     
G 2  21456910.268   112756829.472        2423.730          46.000  
G 4  19324619.753   101551562.269         -51.681          46.000  
G10  20451736.625   107474602.002        2742.583          46.000  
G13  19038825.588   100049705.738        2027.047          46.000  
G20  19402157.866   101959025.977       -3326.346          46.000  
G23  18121941.350    95231442.486          59.050          46.000  
G31  21151058.079   111149557.338       -3356.719          49.000  
G32  21663833.423   113844210.604       -3900.995          46.000  
R14  17993012.942    95912827.606        1523.259          44.000  
R13  18774302.490   100253659.661       -2765.158          49.000  
R 5  18029143.222    96376059.507        2040.702          46.000  
R20  19919624.146   106519145.661       -3623.515          46.000  
R 4  17290155.005    92587954.229       -2065.528          45.000  
E 7  24604040.301   129295114.616       -1278.842          44.000  
E 8  25435401.345   133663943.163       -3102.951          44.000  
E16  21176698.011   111284309.331       -1255.365          44.000  
E24  22260397.918   116979189.584       -1208.867          44.000  
E15  22200540.162   116664638.491        1312.314          44.000  
E17  23666154.651   124366480.028       -3281.367          44.000  
E22  25303101.252   132968707.312        2774.808          44.000  
E25  24973417.787   131236204.841       -3264.881          44.000  
E23  22405843.494   117743492.941        1446.193          44.000  
E 6  25444579.586   133712179.559         922.115          44.000  
> 2019 12  1 15 23  7.9920000  0 23                     
G 2  21456455.548   112754438.846        2354.901          46.000  
G 4  19324632.163   101551627.278         -85.239          46.000  
G10  20451218.253   107471878.655        2696.558          46.000  
G13  19038437.821   100047669.105        2038.591          46.000  
G20  19402786.148   101962328.512       -3275.896          46.000  
G23  18121928.502    95231375.561          73.145          46.000  
G31  21151700.136   111152930.417       -3379.037          49.000  
G32  21664570.555   113848086.125       -3843.419          46.000  
R14  17992723.613    95911285.337        1564.517          44.000  
R13  18774822.947   100256439.131       -2785.241          49.000  
R 5  18028764.404    96374034.205        2004.763          46.000  
R20  19920303.474   106522778.063       -3651.678          46.000  
R 4  17290538.801    92590012.999       -2048.652          45.000  
E 7  24604290.033   129296426.031       -1347.689          44.000  
E 8  25435994.218   133667058.731       -3138.779          44.000  
E16  21176934.702   111285553.875       -1234.418          44.000  
E24  22260628.072   116980396.159       -1196.799          44.000  
E15  22200293.032   116663338.872        1280.680          44.000  
E17  23666773.920   124369734.268       -3222.420          44.000  
E22  25302566.863   132965898.481        2835.631          44.000  
E25  24974043.244   131239490.232       -3295.345          44.000  
E23  22405563.150   117742020.587        1498.413          44.000  
E 6  25444410.844   133711293.187         855.864          44.000  
> 2019 12  1 15 23  8.9920000  0 23                     
G 2  21456013.307   112752114.365        2302.411          46.000  
G 4  19324653.838   101551740.008        -139.287          46.000  
G10  20450712.028   107469216.333        2631.209          46.000  
G13  19038052.677   100045644.520        2005.050          46.000  
G20  19403405.107   101965580.920       -3233.918          46.000  
G23  18121914.217    95231300.889          73.719          46.000  
G31  21152339.606   111156292.460       -3336.575          49.000  
G32  21665295.376   113851895.456       -3778.948          46.000  
R14  17992426.305    95909698.472        1605.392          44.000  
R13  18775342.248   100259210.593       -2749.796          49.000  
R 5  18028394.206    96372053.787        1958.739          46.000  
R20  19920992.618   106526463.435       -3720.688          46.000  
R 4  17290918.875    92592047.504       -2020.458          45.000  
E 7  24604552.257   129297804.839       -1402.414          44.000  
E 8  25436598.295   133670234.169       -3213.034          44.000  
E16  21177168.770   111286783.088       -1226.800          44.000  
E24  22260851.210   116981570.497       -1149.231          44.000  
E15  22200054.274   116662083.199        1231.918          44.000  
E17  23667381.198   124372925.786       -3165.709          44.000  
E22  25302026.391   132963058.442        2832.612          44.000  
E25  24974667.506   131242770.687       -3255.925          44.000  
E23  22405274.497   117740504.549        1526.861          44.000  
E 6  25444249.958   133710447.087         848.491          44.000  
> 2019 12  1 15 23  9.9920000  0 23                     
G 2  21455575.220   112749812.001        2313.861          46.000  
G 4  19324683.285   101551895.785        -164.493          46.000  
G10  20450214.808   107466603.332        2605.635          46.000  
G13  19037675.811   100043664.460        1956.586          46.000  
G20  19404020.327   101968813.722       -3239.957          46.000  
G23  18121901.470    95231233.871          59.156          46.000  
G31  21152967.957   111159594.411       -3268.814          49.000  
G32  21666012.340   113855663.114       -3767.092          46.000  
R14  17992124.019    95908088.274        1607.534          44.000  
R13  18775851.533   100261931.876       -2692.845          49.000  
R 5  18028029.794    96370105.844        1944.689          46.000  
R20  19921693.532   106530211.836       -3767.805          46.000  
R 4  17291294.617    92594059.824       -2007.959          45.000  
E 7  24604819.508   129299208.784       -1393.908          44.000  
E 8  25437214.874   133673474.470       -3258.045          44.000  
E16  21177403.585   111288015.345       -1240.080          44.000  
E24  22261065.819   116982698.237       -1110.938          44.000  
E15  22199822.698   116660865.707        1210.510          44.000  
E17  23667981.913   124376085.361       -3163.857          44.000  
E22  25301493.092   132960254.788        2768.985          44.000  
E25  24975279.625   131245989.984       -3182.868          44.000  
E23  22404985.150   117738984.887        1504.922          44.000  
E 6  25444083.729   133709573.313         906.706          44.000  
> 2019 12  1 15 23 10.9920000  0 23                     
G 2  21455128.884   112747467.893        2378.510          41.000  
G 4  19324712.517   101552051.179        -138.573          41.000  
G10  20449715.700   107463982.959        2644.106          42.000  
G13  19037305.995   100041720.991        1937.555          42.000  
G20  19404641.032   101972075.937       -3288.447          42.000  
G23  18121891.486    95231183.466          43.036          42.000  
G31  21153586.094   111162842.952       -3238.261          45.000  
G32  21666733.752   113859452.218       -3818.723          41.000  
R14  17991825.673    95906498.345        1568.065          43.000  
R13  18776352.594   100264607.738       -2666.765          49.000  
R 5  18027663.387    96368148.691        1975.501          46.000  
R20  19922397.417   106533976.080       -3749.898          46.000  
R 4  17291670.857    92596073.121       -2022.511          44.000  
E 7  24605079.016   129300573.020       -1329.352          39.000  
E 8  25437833.868   133676725.351       -3232.453          39.000  
E16  21177641.316   111289266.690       -1262.197          39.000  
E24  22261276.873   116983808.393       -1116.865          39.000  
E15  22199590.288   116659645.916        1236.105          39.000  
E17  23668588.472   124379273.429       -3218.178          40.000  
E22  25300972.559   132957521.903        2702.680          39.000  
E25  24975880.661   131249148.505       -3143.730          39.000  
E23  22404703.761   117737505.467        1452.891          39.000  
E 6  25443903.632   133708629.952         976.333          39.000  
> 2019 12  1 15 23 11.9920000  0 23                     
G 2  21454670.129   112745056.801        2436.938          42.000  
G 4  19324734.155   101552163.602         -85.290          41.000  
G10  20449206.024   107461305.518        2710.522          42.000  
G13  19036935.134   100039772.849        1965.470          42.000  
G20  19405271.916   101975389.834       -3334.842          42.000  
G23  18121884.150    95231143.810          39.562          42.000  
G31  21154204.931   111166094.180       -3273.260          45.000  
G32  21667467.102   113863306.221       -3886.345          42.000  
R14  17991535.990    95904954.313        1523.099          43.000  
R13  18776854.096   100267285.374       -2696.293          48.000  
R 5  18027289.171    96366149.498        2022.112          46.000  
R20  19923092.909   106537694.918       -3684.154          46.000  
R 4  17292051.473    92598110.174       -2051.374          44.000  
E 7  24605325.176   129301869.633       -1269.462          39.000  
E 8  25438441.891   133679922.893       -3159.508          39.000  
E16  21177882.859   111290535.875       -1272.908          39.000  
E24  22261493.386   116984946.533       -1162.284          39.000  
E15  22199350.144   116658385.643        1284.848          39.000  
E17  23669206.995   124382524.330       -3279.313          39.000  
E22  25300460.345   132954829.027        2695.348          39.000  
E25  24976480.708   131252302.592       -3174.264          39.000  
E23  22404431.359   117736073.421        1418.130          39.000  
E 6  25443714.542   133707639.322         993.581          39.000  
> 2019 12  1 15 23 12.9920000  0 23                     
G 2  21454205.661   112742615.456        2434.912          42.000  
G 4  19324746.534   101552230.686         -54.841          42.000  
G10  20448686.039   107458574.047        2743.727          42.000  
G13  19036556.534   100037783.509        2013.860          42.000  
G20  19405907.435   101978730.537       -3337.255          42.000  
G23  18121875.512    95231099.672          51.416          42.000  
G31  21154834.230   111169402.080       -3341.914          45.000  
G32  21668209.899   113867209.045       -3907.699          42.000  
R14  17991251.997    95903440.402        1512.851          43.000  
R13  18777364.759   100270011.102       -2755.133          48.000  
R 5  18026908.796    96364114.499        2041.647          46.000  
R20  19923776.185   106541349.381       -3631.339          46.000  
R 4  17292436.276    92600172.491       -2068.663          44.000  
E 7  24605565.941   129303133.262       -1268.634          39.000  
E 8  25439037.094   133683052.484       -3106.954          39.000  
E16  21178124.384   111291805.609       -1262.835          39.000  
E24  22261719.585   116986132.871       -1205.362          39.000  
E15  22199102.076   116657084.163        1311.887          39.000  
E17  23669833.281   124385814.758       -3290.481          39.000  
E22  25299942.152   132952108.704        2753.463          39.000  
E25  24977091.586   131255512.907       -3246.893          40.000  
E23  22404160.903   117734652.686        1432.128          39.000  
E 6  25443530.023   133706667.619         942.042          39.000  
> 2019 12  1 15 23 13.9920000  0 23                     
G 2  21453747.639   112740208.318        2373.981          42.000  
G 4  19324758.269   101552291.898         -75.122          42.000  
G10  20448165.926   107455841.104        2713.225          42.000  
G13  19036170.342   100035754.287        2038.589          42.000  
G20  19406538.699   101982048.464       -3293.325          42.000  
G23  18121864.096    95231040.043          67.556          42.000  
G31  21155474.799   111172768.555       -3381.317          45.000  
G32  21668949.936   113871099.472       -3863.479          42.000  
R14  17990965.704    95901913.513        1546.684          43.000  
R13  18777884.671   100272787.342       -2789.492          48.000  
R 5  18026528.983    96362082.878        2015.795          46.000  
R20  19924455.134   106544979.838       -3640.211          46.000  
R 4  17292821.834    92602238.455       -2058.602          44.000  
E 7  24605812.442   129304428.956       -1328.908          39.000  
E 8  25439628.516   133686161.717       -3122.789          39.000  
E16  21178362.542   111293058.001       -1241.218          39.000  
E24  22261949.701   116987343.429       -1207.347          39.000  
E15  22198853.265   116655778.476        1292.374          39.000  
E17  23670455.506   124389084.865       -3241.928          39.000  
E22  25299410.828   132949318.365        2824.002          39.000  
E25  24977715.091   131258788.192       -3294.580          39.000  
E23  22403883.828   117733196.717        1482.560          39.000  
E 6  25443358.725   133705763.631         868.826          39.000  
> 2019 12  1 15 23 14.9920000  0 23                     
G 2  21453302.636   112737869.359        2309.778          42.000  
G 4  19324777.397   101552393.392        -129.226          42.000  
G10  20447656.188   107453161.492        2645.710          42.000  
G13  19035784.125   100033724.228        2015.289          42.000  
G20  19407160.398   101985315.912       -3244.357          42.000  
G23  18121850.633    95230969.253          71.719          42.000  
G31  21156117.022   111176142.628       -3356.225          45.000  
G32  21669678.627   113874928.419       -3794.856          42.000  
R14  17990671.301    95900343.887        1591.556          43.000  
R13  18778405.970   100275571.475       -2769.582          48.000  
R 5  18026156.247    96360091.752        1967.310          46.000  
R20  19925141.831   106548649.953       -3704.210          46.000  
R 4  17293203.615    92604284.287       -2031.807          44.000  
E 7  24606071.842   129305793.284       -1394.788          40.000  
E 8  25440229.325   133689317.763       -3193.473          39.000  
E16  21178597.016   111294292.031       -1229.121          40.000  
E24  22262175.731   116988532.911       -1166.769          39.000  
E15  22198612.264   116654510.308        1243.193          39.000  
E17  23671066.242   124392294.224       -3179.164          39.000  
E22  25298871.184   132946480.488        2841.048          40.000  
E25  24978341.102   131262078.294       -3274.555          39.000  
E23  22403597.237   117731692.395        1521.055          39.000  
E 6  25443197.136   133704914.907         840.247          39.000  
